IdPOI,DescTipoIt,Denominazione,CodIStatComune,comune,Indirizzo,Civico,Telefono,Email,SitoWeb,Latitudine,Longitudine,OrarioApertura,patImmagine,DidaImmagineIt
6820,Altro per App,Come arrivare nelle Marche,042018,Falconara Marittima,Aeroporto Raffaello Sanzio di Ancona e Falconara,,numero verde 800222111,numeroverde.turismo@regione.marche.it,http://www.turismo.marche.it/,43.6068,13.3552,,http://www.visit.marche.it/Portals/1/Immagini/AltroXAPP/Marche_ComeArrivare.jpg,Regione Marche
9846,Altro per App,Marche EXPO 2015 - Iniziative ed Eventi a Milano,015146,Milano,,,,,,45.5182,9.10679,,http://www.visit.marche.it/Portals/1//Immagini/Expo%202015/IniziativeMilano.jpg,Le Iniziative delle Marche a Milano
9848,Altro per App,Marche Expo 2015 - Iniziative ed eventi nelle Marche,042002,Ancona,Via Gentile da Fabriano,,,,,43.6101,13.5085,,http://www.visit.marche.it/Portals/1//Immagini/Expo%202015/IniziativeMarche.jpg,Le Iniziative Expò nelle Marche
3664,Archeologia,Fano - Basilica di Vitruvio,041013,Fano,"Centro Studi Vitruviani, Via Vitruvio",9,340.4242122,,http://www.centrostudivitruviani.org,43.8456,13.0161,,http://www.visit.marche.it/Portals/1/Immagini/Archeologia/Fano_BasilicaVitruvio.jpg,"Basilica di Vitruvio, Fano"
3667,Archeologia,Fermo - Cisterne romane,109006,Fermo,Via degli Aceti,,0734.217140,,http://www.fermo.net,43.1612,13.7197,"Invernale: settembre-maggio dal martedì al venerdì visite guidate partenza ore: 10.30, 11.30, 12.30, 16.00, 17.00. Sabato e domenica: 10.30, 11.30, 12.30, 16.00, 17.00, 18.00. Chiuso il lunedì.<br/>Estivo: giugno-agosto dal lunedì alla domenica visite gui",http://www.visit.marche.it/Portals/1/Immagini/Archeologia/Fermo_CisterneRomane.JPG,Cisterne Romane di Fermo
3672,Archeologia,Ancona - Complesso di terrecotte architettoniche dell'area archeologica di Civitalba,042002,Ancona,Via Ancona,,071.202602  (Biglietteria Museo),,http://www.archeomarche.it,43.707,13.2179,"Tutti i giorni 8.30-19.30. Chiuso: il lunedì, 25 dicembre, 1 gennaio, 1 maggio.",http://www.visit.marche.it/Portals/1/Immagini/Archeologia/Sassoferrato_Civitalba.jpg,Complesso di terrecotte architettoniche provenienti da Civitalba
3676,Archeologia,Urbisaglia - Tempio-criptoportico augusteo della Salus Augusta,043055,Urbisaglia,"Parco archeologico di Urbs Salvia, Strada Provinciale 78 Picena",,0733.202942 (Meridiana s.r.l.)/ tel. 071.5029811,comune@urbisaglia.sinp.net,www.comune.urbisaglia.mc.it,43.2009,13.3871,"Dal 15 giugno al 15 settembre: tutti i giorni 10.00-13.00 e 15.00-19.00. Dal 16 settembre al 14 giugno: sabato e festivi 10.00-13.00 e 15.00-18.00 (ora legale 19,00). Da 2 novembre a 28 febbraio: sabato e festivi 10.00 -13.00 e 14.30-16.30. Aperto tutti i",http://www.visit.marche.it/Portals/1/Immagini/Archeologia/Urbisaglia_NSM_UrbsSalvia.jpg,Affreschi del Tempio-criptoportico augusteo della Salus Augusta
3677,Archeologia,Globo di Matelica,043024,Matelica,"Museo Civico Archeologico di Matelica, Via San Francesco",,"0737.787244, 328.5459205 (Museo)/ 0737.781830",protocollo.comunematelica@pec.it,www.comune.matelica.mc.it,43.2579,13.0105,Orario invernale (ottobre – giugno) Dal lunedì al venerdì 16.30 – 19.30; Sabato e domenica (festivi e prefestivi) 10.30 – 12.30 e 16.30 – 18.30. Chiuso il martedì. Orario estivo (luglio – settembre) Dal lunedì  alla domenica 10.30 – 13.00 e 16.30 – 19.00,http://www.visit.marche.it/Portals/1/Immagini/Archeologia/Matelica_globo.jpg,Globo di Matelica
3678,Archeologia,Matelica - Tomba picena di Villa Clara,043024,Matelica,"Museo Civico Archeologico, Via S. Francesco",,0737.787244 e 328.5459205 (Museo)/ 0737.781830,protocollo.comunematelica@pec.it,www.comune.matelica.mc.it,43.2579,13.0105,Orario invernale (ottobre – giugno). Dal lunedì al venerdì 16.30 – 19.30; Sabato e domenica (festivi e prefestivi) 10.30 – 12.30; 16.30 – 18.30. Chiuso il martedì. Orario estivo (luglio – settembre) Dal lunedì  alla domenica 10.30 – 13.00 e 16.30 – 19.00,http://www.visit.marche.it/Portals/1/Immagini/Archeologia/MC_07_Matelica_tomba.jpg,Scettro proveniente dalla tomba picena di Villa Clara
3680,Archeologia,Montefortino - Corredi funerari della Necropoli gallica,042003,Arcevia,"Museo Archeologico Statale di Arcevia, Chiostro di S. Francesco, Corso Mazzini",67,0731.9622,sistemamuseale@provincia.ancona.it,www.musan.it,43.4993,12.9386,"Lun-merc-gio. 13.30 - 19.30/ mart-ven-sab-dom. 8.30 - 13.30/. Chiusura: 1° Domenica del mese, 1° Gennaio, 1° Maggio, 25 Dicembre.",http://www.visit.marche.it/Portals/1/Immagini/Archeologia/Montefortino_necropoli.jpg,Corredi funerari provenienti dalla Necropoli Gallica di Montefortino
3683,Archeologia,Arcevia (Località Conelle) – Fossato difensivo del Eneolotico,042003,Arcevia,"Museo Archeologico Statale di Arcevia. Chiostro di S. Francesco, Corso Mazzini",67,0731.9622,,www.archeomarche.beniculturali.it,43.4993,12.9386,"Lun-merc-gio. 13.30 - 19.30/ mart-ven-sab-dom. 8.30 - 13.30. Chiusura: 1° Domenica del mese, 1° Gennaio, 1° Maggio, 25 Dicembre.",http://www.visit.marche.it/Portals/1/Immagini/Archeologia/Arcevia_fossato_Conelle.jpg,Reperti provenienti dal fossato di Conelle
3684,Archeologia,Arcevia (Località Ponte Pietra) - Giacimento Paleolitico di Ponte Pietra,042003,Arcevia,"Museo Archeologico Statale di Arcevia. Chiostro di S. Francesco, Corso Mazzini",67,0731.9622,,www.archeomarche.beniculturali.it,43.4993,12.9386,"Lun-merc-gio. 13.30 - 19.30 mart-ven-sab-dom. 8.30 - 13.30. Chiusura: 1° Domenica del mese, 1° Gennaio, 1° Maggio, 25 Dicembre.",http://www.visit.marche.it/Portals/1/Immagini/Archeologia/Arcevia_PontePietra.jpg,Sala del museo dedicata al Giacimento Paleolitico di Ponte Pietra
3685,Archeologia,Arcevia (Località Croce Guardia) - Insediamento dell’Età del Bronzo,042003,Arcevia,"Museo Archeologico Statale di Arcevia, Chiostro di S. Francesco, Corso Mazzini",67,0731.9622,sba-mar@beniculturali.it,www.archeomarche.it,43.4993,12.9386,"Lun-merc-gio. 13.30 - 19.30/ mart-ven-sab-dom. 8.30 - 13.30. Chiusura: 1° Domenica del mese, 1° Gennaio, 1° Maggio, 25 Dicembre.",http://www.visit.marche.it/Portals/1/Immagini/Archeologia/Arcevia_bronzo.jpg,Reperti rinvenuti presso l'abitato di Monte Croce Guardia
3688,Archeologia,Osimo – Mura urbiche in opus quadratum e Fonte Magna,042034,Osimo,Via Fonte Magna,,,iat@osimoturismo.it,www.osimoturismo.it,43.4861,13.4901,,http://www.visit.marche.it/Portals/1/Immagini/Archeologia/Osimo_FonteMagna.jpg,Fonte Magna
3689,Archeologia,Sirolo (Località dei Pini) – Necropoli picena e Tomba della Principessa,042032,Numana,"Antiquarium Statale di Numana, Via La Fenice",4,071.9331162,info@turismonumana.it,http://turismonumana.it,43.5133,13.6212,"Aperto tutti i giorni 8.30-19.30. Chiuso il 1 gennaio, 1 maggio, 25 dicembre.",http://www.visit.marche.it/Portals/1/Immagini/Archeologia/Sirolo_LocalitaPini.jpg,Necropoli picena in Località dei Pini
3690,Archeologia,Ancona – Testa del guerriero di Numana,042002,Ancona,"Museo Archeologico Nazionale delle Marche, via Ferretti",6,071.202602 (Biglietteria Museo),sba-mar.museoancona@beniculturali.it,www.archeomarche.it/musarch.htm,43.6234,13.5109,"Tutti i giorni 8.30- 19.30. Chiuso: il lunedì, 25 dicembre, 1 gennaio, 1 maggio.",http://www.visit.marche.it/Portals/1/Immagini/Archeologia/Ancona_guerriero_Numana.jpg,Testa del guerriero di Numana
3691,Archeologia,Ancona (da Necropoli di Pitino di S. Severino Marche) – Uovo di struzzo piceno,042002,Ancona,"Museo Archeologico Nazionale delle Marche, Via Ferretti",6,071.202602  (Biglietteria Museo),sba-mar@beniculturali.it,www.archeomarche.it,43.6234,13.5109,"Tutti i giorni 8.30 19.30. Chiuso: il lunedì, 25 dicembre, 1 gennaio, 1 maggio.",http://www.visit.marche.it/Portals/1/Immagini/Archeologia/Ancona_uovo_struzzo.jpg,Uovo di struzzo piceno dalla Necropoli di Pitino
3693,Archeologia,Senigallia – Area archeologica e Museo La Fenice,042045,Senigallia,Viale Giacomo Leopardi,s.n.c.,071.6629348 / 6629348 / 6629350,turismo@comune.senigallia.an.it,http://www.comune.senigallia.an.it/site/senigallia/live/taxonomy/senigallia/infocitta/musei/area-archeologica-e-museo-la-fenice.html,43.7127,13.2184,Settembre-giugno dal lunedì al venerdì aperto su prenotazione. Sabato 16.00-20.00. Domenica e festivi 10.30-12.30 e 16.00- 20.00. Luglio - agosto tutti i giorni 21.00 – 24.00.,http://www.visit.marche.it/Portals/1/Immagini/Archeologia/Senigallia_areaarcheoLaFenicie.jpg,Area archeologica e Museo La Fenice
3694,Archeologia,Porto Recanati – Area archeologica di Potentia,043042,Porto Recanati,Via S. Maria in Potenza,,071.7591872 (Pro Loco),info@portorecanatiturismo.it,http://www.archeomarche.beniculturali.it/index.php?it/196/porto-recanati,43.4154,13.6564,,http://www.visit.marche.it/Portals/1//Immagini/Archeologia/PortoRecanati_area_archeo_Potentia.jpg, Area archeologica dell’antica Potentia
3695,Archeologia,Pesaro – Iscrizione bilingue etrusco – latina di età augustea,041044,Pesaro,"Pesaro, Museo Archeologico Oliveriano, Palazzo Almerici, via Mazza",97,0721.33344,,www.archeoprovincia.it,43.9099,12.9098,Dal 1 luglio al 15 settembre: da lunedì a sabato 16.00-19.00. Dal 16 settembre al 30 giugno: da lunedì a sabato (su prenotazione). Chiuso nei giorni festivi.,http://www.visit.marche.it/Portals/1/Immagini/Archeologia/Iscrizionebilingue.jpg,Iscrizione bilingue etrusco-latina
3697,Archeologia,Cagli – Ponte Mallio,041007,Cagli,Via Flaminia,,,municipio@comune.cagli.ps.it,www.comune.cagli.ps.it,43.5503,12.6504,,http://www.visit.marche.it/Portals/1/Immagini/Archeologia/Cagli_ponte_Mallio.jpg,Veduta del Ponte Mallio a Cagli
3699,Archeologia,Acqualagna - Riserva della Gola del Furlo - Passo del Furlo,041001,Acqualagna,"strada statale SS 3, nella parte Roma-Fano",,0721.700041,riservafurlo@provincia.ps.it,www.riservagoladelfurlo.it,43.6217,12.675,,http://www.visit.marche.it/Portals/1/Immagini/Archeologia/GolaFurlo_NSM_gola_del_furlo_1.JPG,Veduta del Passo del Furlo dalla galleria romana
3700,Archeologia,Ponti della Via Salaria,044007,Ascoli Piceno,,,,protocollo@comune.ascolipiceno.it,www.comune.ascolipiceno.it,42.8533,13.5571,,http://www.visit.marche.it/Portals/1/Immagini/Archeologia/Ascoli_4.jpg,Veduta del Ponte di Cecco ad Ascoli
3704,Archeologia,Ascoli Piceno – Mosaico policromo con erma bifronte,044007,Ascoli Piceno,"Museo Archeologico Statale di Ascoli Piceno, Piazza Arringo",28,0736.255563,sba-mar@beniculturali.it,www.archeomarche.it,42.8537,13.5778,,http://www.visit.marche.it/Portals/1/Immagini/Archeologia/Ascoli_Mosaico.jpg,Mosaico policromo con erma bifronte
8483,Archeologia,Pedaso – Il Faro,109030,Pedaso,direz. sud-est SS16,,0734.931319,pedaso@ucvaldaso.it,http://www.comunedipedaso.it/,43.0911,13.8451,,http://www.visit.marche.it/Portals/1//Immagini/ArchitetturaPaesaggio/Pedaso_Faro.jpg,Il Faro di Pedaso
10294,Archeologia,Fossombrone - Parco Archeologico di Forum Sempronii,041015,Fossombrone,Località Parrocchia San Martino Del Piano,,0721.723263,puntoiat@comune.fossombrone.ps.it,http://www.archeomarche.beniculturali.it/index.php?it/157/pesaro-urbino-e-provincia,43.7094,12.8332,,http://www.visit.marche.it/Portals/1//Immagini/Parchi/parcoforumsempronii.jpg,Parco Forum Sempronii
3706,Architettura e paesaggio,Senigallia - Rotonda a mare,042045,Senigallia,Piazzale della Libertà,,071.60322 - 335.1776042,turismo@comune.senigallia.an.it,http://www.comune.senigallia.an.it,43.7165,13.226,Dal 23 giugno al 1 luglio: dalle 18.00 alle 22.00<br/>Dal 02 al 13 luglio: dalle 18.00 alle 24.00<br/>Dal 14 luglio al 26 agosto: dalle 18.00 alle 01.00<br/>Dal 27 agosto al 9 settembre: dalle 18.00 alle 22.00<br/>,http://www.visit.marche.it/Portals/1/Immagini/ArchitetturaPaesaggio/Senigallia_rotonda_fuochinotturni.jpg,Senigallia - Rotonda a mare con fuochi d'artificio
5801,Architettura e paesaggio,Grottammare alta,044023,Grottammare,,,0735.7391,turismo@comune.grottammare.ap.it,www.comune.grottammare.ap.it,42.9916,13.863,,http://www.visit.marche.it/Portals/1/Immagini/ArchitetturaPaesaggio/GrottammareAlta_tofoni_lunapiena.jpg,Panorama di notte
5897,Architettura e paesaggio,Cupra Alta,044017,Cupra Marittima,Piazza della Libertà,11,0735.776700,iat@cupramarittima.org,www.comune.cupra-marittima.ap.it,43.0309,13.8589,,http://www.visit.marche.it/Portals/1/Immagini/ArchitetturaPaesaggio/Cupramarittima__NSM.jpg,Panorama ammirabile da Cupra Alta
5898,Architettura e paesaggio,Torre di Palme,109006,Fermo,Via Mazzini,4,0734.2841,comune.fermo@emarche.it,www.fermo.net,43.1656,13.7242,,http://www.visit.marche.it/Portals/1/Immagini/ArchitetturaPaesaggio/TorrePalme_45.jpg,Veduta di Torre di Palme
5899,Architettura e paesaggio,Civitanova Alta,043013,Civitanova Marche,Corso Garibaldi,22,0733.8221,turismo@comune.civitanova.mc.it,www.civitanovamarche.info,43.3046,13.7195,,http://www.visit.marche.it/Portals/1/Immagini/ArchitetturaPaesaggio/Civitanova_2.jpg,Entrata al borgo di Civitanova Alta
5900,Architettura e paesaggio,Numana Alta,042032,Numana,Piazza del Santuario,24,071.9339821,info@turismonumana.it,www.turismonumana.it,43.5141,13.6229,,http://www.visit.marche.it/Portals/1/Immagini/ArchitetturaPaesaggio/Numana_NSM_costarella.JPG,La &quot;costarella&quot; - Vicolo tradizionale dei pescatori
5901,Architettura e paesaggio,Sirolo,042048,Sirolo,Piazza G da Sirolo,1,071.9330572,info@turismosirolo.it,www.turismosirolo.it,43.5231,13.6189,,http://www.visit.marche.it/Portals/1/Immagini/ArchitetturaPaesaggio/Sirolo_NSC_7592.jpg,Borgo
5902,Architettura e paesaggio,Gabicce Monte,041019,Gabicce Mare,Via C. Battisti,66,0541.953101,comune.gabicce@provincia.ps.it,www.comune.gabicce-mare.ps.it,43.9649,12.7564,,http://www.visit.marche.it/Portals/1/Immagini/ArchitetturaPaesaggio/MonteSanBartolo_NSC_DSC0367.jpg,Gabicce monte
5903,Architettura e paesaggio,Casteldimezzo,041044,Pesaro,Piazza del Popolo,1,0721.3871,,www.comune.pesaro.pu.it,43.9575,12.8058,,http://www.visit.marche.it/Portals/1/Immagini/Parchi/MonteSanBartolo_202T.jpg,Il Paesaggio del Monte San Bartolo
5904,Architettura e paesaggio,Fiorenzuola di Focara,041044,Pesaro,Piazza del Popolo,1,0721.3871,,www.comune.pesaro.pu.it,43.9518,12.8204,,http://www.visit.marche.it/Portals/1/Immagini/ArchitetturaPaesaggio/GabicceFiorenzuola_NSM_Focara_Manieri.jpg,Fiorenzuola di Focara
6191,Architettura e paesaggio,Pesaro - Piazza del Popolo,041044,Pesaro,Piazza del Popolo,,,,www.turismopesaro.it,43.9098,12.9127,,http://www.visit.marche.it/Portals/1/Immagini/ArchitetturaPaesaggio/Pesaro_Popolo1.jpg,Piazza del Popolo
6192,Architettura e paesaggio,Ancona - Piazza del Plebiscito,042002,Ancona,Piazza del Plebiscito,s.n.c.,,,,43.6196,13.5115,,http://www.visit.marche.it/Portals/1/Immagini/ArchitetturaPaesaggio/Ancona_piazza1.jpg,"Piazza del Plebiscito, meglio nota come Piazza del Papa"
6193,Architettura e paesaggio,Ascoli Piceno - Piazza del Popolo,044007,Ascoli Piceno,Piazza del Popolo,s.n.c.,0736/244975 Informazioni Eventi Culturali,turismo@comune.ascolipiceno.it,www.comune.ascolipiceno.it,42.8546,13.5755,,http://www.visit.marche.it/Portals/1/Immagini/ArchitetturaPaesaggio/Ascoli_piazza1.jpg,"Piazza del Popolo, il salotto cittadino di Ascoli Piceno"
6194,Architettura e paesaggio,Castello Pallotta,043006,Caldarola,via castello,2,0733.905467,,www.castellopallotta.com,43.1367,13.2242,,http://www.visit.marche.it/Portals/1/Immagini/ArchitetturaPaesaggio/Caldarola_Pallotta1.jpg,Veduta esterna del Castello Pallotta
6195,Architettura e paesaggio,Palazzo Pianetti,042021,Jesi,Via XV Settembre,10,0731.538342 / 538343,pinacoteca@comune.jesi.an.it,,43.5213,13.2422,,http://www.visit.marche.it/Portals/1/Immagini/ArchitetturaPaesaggio/Jesi_Pianetti1.jpg,Prospetto interno e sculture ornamentali di Palazzo Pianetti
6196,Architettura e paesaggio,Senigallia - Rocca Roveresca,042045,Senigallia,Piazza del Duca,,071.63258,beni.culturali@comune.senigallia.an.it,www.marche.beniculturali.it/index.php?it/111/rocca-roveresca-di-senigallia,43.7152,13.2204,8.30 - 19.30 tutti i giorni,http://www.visit.marche.it/Portals/1/Immagini/ArchitetturaPaesaggio/Senigallia_Rocca1.jpg,Rocca Roveresca di Senigallia
6197,Architettura e paesaggio,Sassocorvaro - Rocca Ubaldinesca,041059,Sassocorvaro,Piazza Battelli,s.n.c,0722.76177,,www.comune.sassocorvaro.pu.it,43.7808,12.4957,,http://www.visit.marche.it/Portals/1/Immagini/ArchitetturaPaesaggio/Sassocorvaro_Rocca1.JPG,Rocca di Sassocorvaro al tramonto
6198,Architettura e paesaggio,Castello della Rancia,043053,Tolentino,Contrada Rancia,s.n.c.,0733.973349,tolentinomusei@meridiana.mc.it,www.tolentinomusei.it,43.2309,13.3558,,http://www.visit.marche.it/Portals/1/Immagini/ArchitetturaPaesaggio/Tolentino_Rancia1.jpg,Castello della Rancia
6199,Architettura e paesaggio,Mondavio - Rocca,041028,Mondavio,Piazza Giovanni della Rovere,s.n.c.,0721.977758,ufficio.turismo@comune.mondavio.pu.it,,43.6742,12.9683,Orari: Periodo estivo 9:00/12:00 – 15:00/19:00 – Dal 20 luglio al 24 agosto: apertura anche dalle 21:00 alle 23:00,http://www.visit.marche.it/Portals/1/Immagini/ArchitetturaPaesaggio/Mondavio_Rocca1.jpg,Rocca Roveresca di Mondavio
6200,Architettura e paesaggio,Piazza Leopardi,043044,Recanati,Piazza Leopardi,s.n.c.,,,,43.3993,13.5527,,http://www.visit.marche.it/Portals/1/Immagini/ArchitetturaPaesaggio/Recanati_piazza1.jpg,Veduta notturna di Piazza Leopardi
6201,Architettura e paesaggio,Fermo - Piazza del Popolo,109006,Fermo,Piazza del popolo,s.n.c.,,,,43.1613,13.7183,,http://www.visit.marche.it/Portals/1/Immagini/ArchitetturaPaesaggio/Fermo_piazza1.jpg,Veduta di Piazza del Popolo
6216,Architettura e paesaggio,La produzione di terrecotte a Barchi,041004,Barchi,Piazza Vittorio Emanuele,7,0721.97152,,www.comune.barchi.pu.it,43.6713,12.9325,,http://www.visit.marche.it/Portals/1/Immagini/ManiSapienti/FratteRosa_1.jpg,Produzione di terrecotte
8857,Architettura e paesaggio,Ascoli Piceno – Piazza Arringo,044007,Ascoli Piceno,Piazza Arringo,7,0736.298204/298334,turismo@comune.ascolipiceno.it,www.comune.ascolipiceno.it,42.8535,13.5774,,http://www.visit.marche.it/Portals/1/Immagini/Localita/AP/Ascoli_tofoni.jpg,Ascoli Piceno - Piazza Arringo
8893,Architettura e paesaggio,Jesi - Palazzo della Signoria,042021,Jesi,piazza angelo colocci,1,0731 538345,planetttiana@comune.jesi.an.it,,43.5326,13.255,,,
8894,Architettura e paesaggio,Mondavio - Rocca,041028,Mondavio,Piazza Giovanni della Rovere,,0721 977758,ufficio.turismo@comune.mondavio.pu.it,,43.6744,12.9684,Orari: Periodo estivo 9:00/12:00 – 15:00/19:00 – Dal 20 luglio al 24 agosto: apertura anche dalle 21:00 alle 23:00,http://www.visit.marche.it/Portals/1/Immagini/ArchitetturaPaesaggio/Mondavio_Rocca1.jpg,Rocca Roveresca di Mondavio
8895,Architettura e paesaggio,Frontone - Rocca,041018,Frontone,Piazzale della Rocca,5,0721 790716 (biglietteria),turismofrontone@gmail.com,,43.6877,12.8375,Orario invernale (settembre/maggio): Lunedì chiuso - sabato 15:00/19:00 -  domenica e festivi 11:00/13.00 e 15:00/19:00,http://www.visit.marche.it/Portals/1/Immagini/Localita/PU/Frontone_3.jpg,Vista panoramica di Frontone
8896,Architettura e paesaggio,Cagli - Rocca,041007,Cagli,,,0721 780731 (Ufficio Cultura Comune di Cagli),info@turismo.pesarourbino.it,http://www.turismo.pesarourbino.it/elenco/rocche/cagli-torrione-di-f-di-giorgio-martini.html,43.545,12.6468,"Orari:  Novembre-Marzo, su richiesta prefestivi e festivi 10:00/12:00 e 15:00/19:00",http://www.visit.marche.it/Portals/1//Immagini/ImgsUsers/User_41/cagli_furlo 01.jpg,Rocca di Cagli
8897,Architettura e paesaggio,Fossombrone - Rocca,041015,Fossombrone,Corso Giuseppe Garibaldi,8,0721 7231,comune.fossombrone@emarche.it,www.comune.fossombrone.ps.it,43.6892,12.806,Orari: Visitabile solo dall’esterno,,
8989,Architettura e paesaggio,Rocca Borgesca,043007,Camerino,Corso Vittorio Emanuele II,17,0737 634 711,comune@camerino.sinp.net,www.comune.camerino.mc.it,43.1351,13.0678,,http://www.visit.marche.it/Portals/1//Immagini/ArchitetturaPaesaggio/Cameirno_RoccaBorgesca1.jpg,Rocca Borgesca di Camerino
8990,Architettura e paesaggio,Rocca d'Ajello,043007,Camerino,Frazione Rocca di Ajello,,0737 644342,,www.comune.camerino.mc.it,43.1886,13.0657,,http://www.visit.marche.it/Portals/1//Immagini/Camerino_6 copia.JPG,Rocca d'Ajello di Camerino
8991,Architettura e paesaggio,Rocca Varano,043007,Camerino,Località La Sfercia,,,,www.comune.camerino.mc.it,43.1103,13.1258,,http://www.visit.marche.it/Portals/1//Immagini/ArchitetturaPaesaggio/Camerino_138T.JPG,Rocca Varano di Camerino
8992,Architettura e paesaggio,Castello di Beldiletto,043037,Pievebovigliana,Piazza Vittorio Veneto,,0737 44126,comune@pievebovigliana.sinp.net,www.comune.pievebovigliana.mc.it,43.0616,13.0847,,http://www.visit.marche.it/Portals/1//Immagini/ArchitetturaPaesaggio/Pievebovigliana_Beldiletto.jpg,Gli affreschi quattrocenteschi nel Castello di Beldiletto
8993,Architettura e paesaggio,Palazzo Ducale di Camerino,043007,Camerino,Piazza Camillo Benso Conte di Cavour,19,,,www.comune.camerino.mc.it,43.1357,13.0683,,http://www.visit.marche.it/Portals/1//Immagini/ArchitetturaPaesaggio/Camerino_NSM.jpg,Palazzo Ducale di Camerino
8994,Architettura e paesaggio,Tempio dell'Annunziata Camerino,043007,Camerino,Corso Vittorio Emanuele II,17,0737 634 711,comune@camerino.sinp.net,www.comune.camerino.mc.it,43.1351,13.0678,,http://www.visit.marche.it/Portals/1//Immagini/ArchitetturaPaesaggio/CamerinoTempioAnnunziata.jpg,Tempio dell'Annunziata di Camerino
8995,Architettura e paesaggio,Castello di Avacelli - Arcevia,042003,Arcevia,Corso Mazzini,67,0731.98991,,www.arceviaweb.it,43.4682,12.9805,,http://www.visit.marche.it/Portals/1//Immagini/ArchitetturaPaesaggio/Arcevia_Castello_Avacelli_20150306-121903_.JPG,Arcevia_Castello_di_Avacelli
8996,Architettura e paesaggio,Castello di Castiglioni  - Arcevia,042003,Arcevia,Corso Mazzini,67,0731.98991,,www.arceviaweb.it,43.4995,12.9399,,http://www.visit.marche.it/Portals/1//Immagini/ArchitetturaPaesaggio/Arcevia_Castello_Castiglioni.jpg,Il Castello di Castiglioni ad Arcevia
8997,Architettura e paesaggio,Castello di Caudino - Arcevia,042003,Arcevia,Corso Mazzini,67,0731.98991,,www.avacelli.it,43.4995,12.9399,,http://www.visit.marche.it/Portals/1//Immagini/ArchitetturaPaesaggio/Arcevia_Castello_Caudino.jpg,Il Castello di Caudino ad Arcevia
8998,Architettura e paesaggio,Castello di Loretello - Arcevia,042003,Arcevia,Corso Mazzini,67,0731.98991,,www.arceviaweb.it,43.5703,12.9456,,http://www.visit.marche.it/Portals/1/Immagini/Localita/AN/Arcevia_loretello5.jpg,Arcevia - Castello di Loretello e borgo
8999,Architettura e paesaggio,Castello di Montale - Arcevia,042003,Arcevia,Corso Mazzini,67,0731.98991,,www.arceviaweb.it,43.4995,12.9399,,http://www.visit.marche.it/Portals/1//Immagini/ArchitetturaPaesaggio/Arcevia_Castello_Montale.jpg,Il Castello di Montale ad Arcevia
9000,Architettura e paesaggio,Castello di Nidastore - Arcevia,042003,Arcevia,Corso Mazzini,67,0731.98991,,www.arceviaweb.it,43.4995,12.9399,,http://www.visit.marche.it/Portals/1//Immagini/ArchitetturaPaesaggio/Arcevia_Castello_Nidastore.jpg,Il Castello di Nidastore ad Arcevia
9001,Architettura e paesaggio,Castello di Palazzo - Arcevia,042003,Arcevia,Corso Mazzini,67,0731.98991,,www.arceviaweb.it,43.4995,12.9399,,http://www.visit.marche.it/Portals/1//Immagini/Arcevia_Castello_Palazzo1.jpg,Il Castello di Palazzo ad Arcevia
9002,Architettura e paesaggio,Castello di Piticchio - Arcevia,042003,Arcevia,Corso Mazzini,67,0731.98991,,www.piticchio.it,43.4995,12.9399,,http://www.visit.marche.it/Portals/1//Immagini/ArchitetturaPaesaggio/Arcevia_Castello_Piticchio.jpg,Il Castello di Piticchio ad Arcevia
9003,Architettura e paesaggio,Castello di San Pietro in Musio - Arcevia,042003,Arcevia,Corso Mazzini,67,0731.98991,,www.arceviaweb.it,43.4995,12.9399,,http://www.visit.marche.it/Portals/1//Immagini/ArchitetturaPaesaggio/Arcevia_Castello_SanPietro.jpg,Il Castello di San Pietro ad Arcevia
9887,Architettura e paesaggio,Riviera del Conero,042002,Ancona,Porto di Ancona,,,,www.rivieradelconero.info,43.6087,13.4826,,http://www.visit.marche.it/Portals/1/Immagini/Spiagge/Numana_NSM_RivieradelConero3.JPG,Spiaggia di Numana
9888,Architettura e paesaggio,Genga - Le Grotte di Frasassi,042020,Genga,Loc. San Vittore Terme,,0732.90090,,www.frasassi.com;,43.4027,12.9762,,http://www.visit.marche.it/Portals/1/Immagini/Parchi/GrotteFrasassi02.jpg,Le Grotte di Frasassi
6211,Artigianato artistico,La ceramica di Pesaro,041044,Pesaro,Via Gavardini,,0721.387102-103,turismo@comune.pesaro.pu.it,www.museicivicipesaro.it,43.91,12.9127,,http://www.visit.marche.it/Portals/1/Immagini/ManiSapienti/Pesaro.jpg,Piatto in ceramica decorata
6213,Artigianato artistico,L'artigianato a Urbino,041067,Urbino,Via Puccinotti,33,0722.3091,mbertone@comune.urbino.ps.it,www.lebotteghedelmontefeltro.it,43.7275,12.6362,,http://www.visit.marche.it/Portals/1/Immagini/ManiSapienti/Urbino_1.JPG,Inchiostrazione di una matrice calcografica per la stampa artistica
6214,Artigianato artistico,Sant’Ippolito - Il Paese degli Scalpellini,041058,Sant'Ippolito,Via Raffaello,104,0721.728144,comune.santippolito@provincia.ps.it,www.scolpireinpiazza.it,43.6877,12.872,,http://www.visit.marche.it/Portals/1/Immagini/ManiSapienti/SantIppolito_1.jpg,"Palazzo Guerra, particolare della cornice in pietra scolpita sul portale"
6215,Artigianato artistico,La produzione di terrecotte a Fratte Rosa,041016,Fratte Rosa,Piazza Matteotti,11,0721.777113,comune.fratte-rosa@emarche.it,www.comune.fratte-rosa.pu.it,43.6314,12.9007,,http://www.visit.marche.it/Portals/1/Immagini/ManiSapienti/FratteRosa_1.jpg,Produzione di terrecotte
6217,Artigianato artistico,L'antiquariato e il restauro a Ostra,042035,Ostra,Piazza dei Martiri,5,071.7980606,comune@comune.ostra.an.it,www.comune.ostra.an.it,43.6149,13.1592,,http://www.visit.marche.it/Portals/1/Immagini/ManiSapienti/Ostra_1.jpg,Restauro del mobile antico
6218,Artigianato artistico,L'artigianato a Jesi,042021,Jesi,Piazza Indipendenza,1,0731.5381,turismo@comune.jesi.an.it,,43.5224,13.2434,,http://www.visit.marche.it/Portals/1/Immagini/ManiSapienti/Jesi_1.jpg,Produzione orafa
6219,Artigianato artistico,L'artigianato a Fano,041013,Fano,Via S. Francesco d'Assisi,76,0721.8871,,,43.8449,13.0169,,http://www.visit.marche.it/Portals/1/Immagini/ManiSapienti/fano6.jpg,La lavorazione dell'oro
6220,Artigianato artistico,"Urbania, l'antica Casteldurante della maiolica",041066,Urbania,Piazza della Libertà,1,0722.313111,,www.urbania-casteldurante.it/it/homepage.html,43.6706,12.5211,,http://www.visit.marche.it/Portals/1/Immagini/ManiSapienti/urbania_ceramica.jpg,Splendidi esemplari di ceramica durantina
6221,Artigianato artistico,Castelfidardo e la fabbricazione della fisarmonica,042010,Castelfidardo,Piazza della Repubblica,8,071.78291,,www.pifcastelfidardo.it,43.4645,13.5466,,http://www.visit.marche.it/Portals/1/Immagini/ManiSapienti/010.jpg,La fisarmonica di Castelfidardo
6222,Artigianato artistico,Fabriano - La città della carta e della filigrana,042017,Fabriano,Via Dante,270,0732.7091,,www.fabriano.com,43.3361,12.9047,,http://www.visit.marche.it/Portals/1/Immagini/Localita/AN/Fabriano_museo_MOLLETTE.jpg,Fabriano - Museo della Carta
6223,Artigianato artistico,Acquaviva Picena - La produzione delle paiarole,044002,Acquaviva Picena,Via San Rocco,9,0735.764005,,,42.9444,13.8124,,http://www.visit.marche.it/Portals/1/Immagini/ManiSapienti/Acquaviva_0036Coccia.jpg,La produzione delle paiorole
6224,Artigianato artistico,Offida - La tradizione del Tombolo,044054,Offida,Corso Serpente Aureo,66,0736.889381,,www.museipiceni.it/page.asp?id=103011600,42.9367,13.7014,,http://www.visit.marche.it/Portals/1/Immagini/Localita/AP/Offida_Coccia_2013_004.jpg,La tradizione del Tombolo
6225,Artigianato artistico,Montappone - Il cappello di Paglia,109013,Montappone,Borgo XX Settembre,1,0734.760426,,http://www.ilcappellodipaglia.it/pagine/laStoria.cfm,43.1375,13.4696,,http://www.visit.marche.it/Portals/1/Immagini/ManiSapienti/92000301.jpg,Cappello di paglia tipico di Montappone
6258,Artigianato artistico,La produzione di terracotte a Barchi,041004,Barchi,Piazza Vittorio Emanuele,6,0721.97152,comune.barchi@provincia.ps.it,www.comune.barchi.pu.it,43.6713,12.9325,,http://www.visit.marche.it/Portals/1/Immagini/ManiSapienti/Barchi_terrecotta.jpg,Antichi mestieri - Lavorazione della ceramica
6259,Artigianato artistico,"Tolentino, centro della pelletteria",043053,Tolentino,Piazza della Libertà,3,0733.901326,alba.passarini@comune.tolentino.mc.it,www.sannicoladatolentino.it,43.2136,13.2911,,http://www.visit.marche.it/Portals/1/Immagini/ManiSapienti/tolentino_pelle.jpg,"Tolentino, centro della pelletteria"
6260,Artigianato artistico,L’antiquariato e le collezioni di armi e metalli a Sarnano,043049,Sarnano,Via Giacomo Leopardi,1,0733.659911,comune@sarnano.sinp.net,www.museosarnano.it,43.0358,13.2992,,http://www.visit.marche.it/Portals/1/Immagini/ManiSapienti/Sarnano_Legno.jpg,La lavorazione del Legno
6261,Artigianato artistico,L’antiquariato e  la collezione di ceramiche di Pollenza,043041,Pollenza,Piazza della Libertà,16,0733.548706,comune@pollenza.simp.net,www.comune.pollenza.mc.it,43.2671,13.3489,,http://www.visit.marche.it/Portals/1/Immagini/ManiSapienti/Pollenza_Mobili.jpg,"La Mostra mercato di antiquariato, restauro e artigianato"
10163,Artigianato artistico,Fossombrone - All Gold di Aguzzi Giorgio e Topi Flavio Gregorio,041015,Fossombrone,Corso Giuseppe Garibaldi,86,0721 742322,info@allgold.it,,43.6895,12.8079,Dal Lunedì al Sabato dalle ore 9:00 alle 12:30 e dalle ore 16:00 alle 19:30,http://www.visit.marche.it/Portals/1/Immagini/Localita/PU/Fossombrone.jpg,Fossombrone e il fiume Metauro
10164,Artigianato artistico,Ascoli Piceno - Angelini Rino Altero,044007,Ascoli Piceno,Corso Giuseppe Mazzini,279,0736 261533,info@rinoalteroangelini.it,http://www.rinoalteroangelini.it,42.8552,13.58,,http://www.visit.marche.it/Portals/1/Immagini/Localita/AP/Ascoli_tofoni_POPOLO.jpg,Ascoli Piceno - Piazza del Popolo
10165,Artigianato artistico,Sant'Angelo in Lizzola - Ferro Design di Daniele Battazza,041056,Sant'Angelo in Lizzola,Via Marche,20,0721491825,ferrodesign2005@libero.it,http://www.marche-store.it/shop/1013-ferro-design-di-daniele-battazza,43.8572,12.7813,,http://www.visit.marche.it/Portals/1//Immagini/Marche_Lifestyle/sant'angeloinlizzola.jpg,Sant'Angelo in Lizzola
10166,Artigianato artistico,Cagli - Battistelli Roberto,041007,Cagli,Via Venezia,33,0721781403,,,43.5438,12.6518,,http://www.visit.marche.it/Portals/1/Immagini/Localita/PU/Cagli_NSM_piazzacagli.jpg,Piazza Matteotti e il Palazzo comunale
10167,Artigianato artistico,Mogliano - Candria Tommaso,043025,Mogliano,Via Fonte Oliva,13,0733 556764,info@candriatommaso.it,http://www.candriatommaso.it/,43.2458,13.5121,Dal Lunedì al Sabato dalle ore 08:00 alle ore 19:00,http://www.visit.marche.it/Portals/1/Immagini/Localita/MC/Mogliano_1.jpg,Borgo di Mogliano
10168,Artigianato artistico,Ancona - Gioielleria Novecento di Caraffa Mauro,042002,Ancona,Corso Giuseppe Mazzini,50,071205391,,,43.6187,13.5111,,http://www.visit.marche.it/Portals/1/Immagini/Archeologia/Ancona_arco_Traiano.jpg,Veduta dell'arco di Traiano ad Ancona
10169,Artigianato artistico,Massa Fermana - Cecchi Angelo,109011,Massa Fermana,Via Osvaldo Licini,5,0734760058,,http://www.cappellificiocecchi.com/home.html,43.1369,13.4677,,http://www.visit.marche.it/Portals/1/Immagini/Localita/FM/MassaFermana_10.jpg,Massa Fermana - Castello Medievale
10170,Artigianato artistico,Montegranaro - Chiappini Damiano,109018,Montegranaro,Via Adone Zoli,14,0734 88331,info@damianochiappini.com,http://www.damianochiappini.com,43.2332,13.6298,,http://www.visit.marche.it/Portals/1//Immagini/Marche_Lifestyle/chiappini_maestroartigiano.jpg,Chiappini Maestro Artigiano
10171,Artigianato artistico,Tolentino - Cicconi Mario,043053,Tolentino,Via Dante Alighieri,,3396195076,mario@mariocicconi.it,http://nuke.mariocicconi.it/EsperienzeProfessionalieSociali/tabid/65/Default.aspx,43.2146,13.2953,,http://www.visit.marche.it/Portals/1//Immagini/Marche_Lifestyle/cicconimario_modellista.jpg,Cicconi Mario modellista Tolentino
10172,Artigianato artistico,Monteprandone - Coccia Giuseppe,044045,Monteprandone,Largo XXIV Maggio,,3391000637,gioielleriacocciaeoddi@alice.it,,42.8954,13.8471,,http://www.visit.marche.it/Portals/1//Immagini/vista dal CEA Monteprandone.jpg,vista dal CEA Monteprandone
10173,Artigianato artistico,Moie - Contadini Virgilio,042023,Maiolati Spontini,Via Risorgimento,156,0731 701148,info@virgiliocontadini.com,http://www.virgiliocontadini.com/home/index.cfm,43.5019,13.1326,GIOVEDI' E VENERDI' 8:30 - 12:30 / 15:30 - 19:30 SABATO 8:30 - 12:30,http://www.visit.marche.it/Portals/1//Immagini/Marche_Lifestyle/virgiliocontadini_doratore.jpg,Virgilio Contadini doratore
10174,Artigianato artistico,Ancona - David Valeria,042002,Ancona,Via degli Orefici,,,,http://storie.cna.it/content/valeria-david,43.6193,13.5109,,http://www.visit.marche.it/Portals/1/Immagini/Localita/AN/Ancona_NSM_05_13Cannelle.jpg,Ancona - Fontana delle Tredici Cannelle
10175,Artigianato artistico,Montegranaro - De Santis Francesco,109018,Montegranaro,"Via San Tommaso,114 - 63812 Montegranaro",,0734 892 151,info@desantisfrancesco.it,http://www.desantisfrancesco.it/,43.2304,13.6285,,http://www.visit.marche.it/Portals/1//Immagini/Marche_Lifestyle/desantis_francesco.jpg,De Santis Francesco Montegranaro Calzature
10176,Artigianato artistico,Morrovalle - Dichiara Annamaria,043033,Morrovalle,Via Giacomo Brodolini,105,0733222923,annamaria@francesca.it,,43.2775,13.59,,http://www.visit.marche.it/Portals/1//Immagini/Marche_Lifestyle/morrovalle.jpg,Morrovalle
10177,Artigianato artistico,Agugliano - Dubbini Rocco,042001,Agugliano,Via G. Bevilacqua n. 2,,071908157,amministrazione@dubbiniestudio.com,,43.5426,13.3892,,http://www.visit.marche.it/Portals/1//Immagini/Marche_Lifestyle/agugliano.jpg,Agugliano
10178,Artigianato artistico,Agugliano - Silvani Flaviano,042001,Agugliano,via Bevilacqua n. 1,,0719068121,flaviano@silviani.it,http://www.silviani.it/,43.5426,13.3892,,http://www.visit.marche.it/Portals/1//Immagini/Marche_Lifestyle/agugliano.jpg,Agugliano
10179,Artigianato artistico,San Severino Marche - Bellabarba Folco,043047,San Severino Marche,Via Comandante Ludovico Censi,21,0733638337,bellabarbatipolito@libero.it,,43.2423,13.2234,,http://www.visit.marche.it/Portals/1/Immagini/Localita/MC/SanSeverino_41 copia.JPG,San Severino Marche e il suo territorio
10181,Artigianato artistico,Gabicce Mare - Foschi Daniele,041019,Gabicce Mare,Via Filiberto,9,0541964150,,http://ceramichefoschi.it/,43.9668,12.7565,,http://www.visit.marche.it/Portals/1//Immagini/Marche_Lifestyle/foschi_daniele.jpg,Daniele Foschi ceramica
10182,Artigianato artistico,Pesaro -Fuligna Daniele,041044,Pesaro,Via Alfredo Faggi,25,3384903221,,,43.9024,12.9071,,http://www.visit.marche.it/Portals/1/Immagini/Spiagge/Pesaro_NSM_Sfera.jpg,La sfera di Arnaldo Pomodoro
10183,Artigianato artistico,Fano - Studio A Tre - Gaudenzi Daniele e Longhini Mauro,041013,Fano,Via Giuseppe Garibaldi,32,0721 800363,studioatre@libero.it,http://www.gioielliediamanti.it/2008/_studioatre.html,43.8435,13.0204,,http://www.visit.marche.it/Portals/1//Immagini/Marche_Lifestyle/StudioATre_Fano.jpg,Studio A Tre di Fano
10184,Artigianato artistico,Macerata -  La Tela di Ginesi e Varagona,043023,Macerata,Vicolo Vecchio,6,0733233020,museo@latela.net,http://www.latela.net,43.3011,13.4578,Museo: dal Martedì al Venerdì 10:00 - 12:30  Laboratorio: dal Martedì al Venerdì  9:00 - 13:00,http://www.visit.marche.it/Portals/1//Immagini/Marche_Lifestyle/latela_ginesipatrizia_macerata.jpg,La Tela Ginesi Patrizia Macerata
10185,Artigianato artistico,Ancona - Librare di Giuliani Stefania,042002,Ancona,Via San Pietro,9,071.55537,lab@legatorialibrare.it,http://www.legatorialibrare.it/,43.6199,13.513,,http://www.visit.marche.it/Portals/1/Immagini/Porti/Ancona_NSM_Foto 05.jpg,Porto turistico di Ancona
10186,Artigianato artistico,Recanati - Arcahorn di Guerra Mario,043044,Recanati,Via Francesca Felicita Tacchinardi,4,071 7500737,info@arcahorn.com,http://www.arcahorn.com/it/arca,43.4123,13.5702,,http://www.visit.marche.it/Portals/1//Immagini/Marche_Lifestyle/arcahorn_guerra_corno.jpg,Arcahorn Guerra Mario
10187,Artigianato artistico,Pesaro - Ceramiche Art Molaroni di Jannone Molaroni Marcella,041044,Pesaro,Via della Robbia Luca,9,0721 33181,,,43.9132,12.9101,,http://www.visit.marche.it/Portals/1//Immagini/Marche_Lifestyle/jannone_molarone_marcella_pesaro_ceramica.jpg,Jannone Pesaro Ceramica
10188,Artigianato artistico,Pollenza - Lattanzi Lorenzo,043041,Pollenza,Contrada Morazzano,52,338 2954084,lattanzirestauro@libero.it,http://www.prodottitipicidellemarche.it/lattanzi-lorenzo,43.2662,13.3302,,http://www.visit.marche.it/Portals/1//Immagini/Marche_Lifestyle/lattanzi_lorenzo.jpg,Lattanzi Lorenzo Pollenza
10189,Artigianato artistico,Ancona - Luzi Gabriella e Tancredi Cinzia,042002,Ancona,Via della Loggia,5,3487247471,sfizio@gmail.com,,43.6202,13.51,,http://www.visit.marche.it/Portals/1/Immagini/Localita/AN/Ancona_NSM_395_Ciriaco.jpg,Ancona - Duomo di San Ciriaco
10190,Artigianato artistico,Montappone - Marzialetti Giuseppe,109013,Montappone,Via Giudice Elenio Alessandrini,4,0734 760487,info@paimar.com,http://www.paimar.it/it/contatti/,43.1358,13.4676,,http://www.visit.marche.it/Portals/1//Immagini/Marche_Lifestyle/marzialetti_cappello_montappone.jpg,Giuseppe Marzialetti Cappellaio
10191,Artigianato artistico,Filottrano - M & M ORAFI di Massaccesi Andrea,042019,Filottrano,Via Guglielmo Marconi,12,0717223055,m.m.gioielli@libero.it,,43.4351,13.3501,,http://www.visit.marche.it/Portals/1/Immagini/Localita/AN/Filottrano.jpg,Filottrano e le sue colline
10192,Artigianato artistico,Corridonia - Arianna Sartoria Mengoni Elvia,043015,Corridonia,Via dell'Artigianato,11,0733.283067,,http://www.ariannasartoria.com/home.html,43.2625,13.4944,,http://www.visit.marche.it/Portals/1//Immagini/Marche_Lifestyle/mengoni_elvia_sartoria.jpg,Arianna Sartoria Mengoni Elvia Corridonia
10193,Artigianato artistico,Urbino - Il Compasso di Michele Papi,041067,Urbino,Via Aurelio Saffi,,0722320728,papimichele@hotmail.com,www.papirestauro.it,43.7227,12.6368,,http://www.visit.marche.it/Portals/1//Immagini/Marche_Lifestyle/michele_papi_urbino.jpg,Michele Papi Urbino
10194,Artigianato artistico,Montecassiano - Leonardo Argenti di Montironi Mariano,043026,Montecassiano,Via Don Ezio Cingolani,,0733290101,info@leonardoargenti.it,www.leonardoargenti.it,43.3543,13.4582,,http://www.visit.marche.it/Portals/1/Immagini/Localita/MC/Montecassiano_Gatta_2013_8000994.jpg,Montecassiano e il suo territorio
10195,Artigianato artistico,Mogliano - Artè Restauro di Morichetti Milko,043025,Mogliano,Via Sant' Anna,25,335 5430288,milko@museoapertoperlavori.it,http://www.museoapertoperlavori.it/home.php,43.2456,13.5078,,http://www.visit.marche.it/Portals/1/Immagini/Localita/MC/Mogliano_1.jpg,Borgo di Mogliano
10196,Artigianato artistico,Urbino - Nanni Bruno Glauco,041047,Piandimeleto,Via della Repubblica,13,07222562,amadeorafo@gmail.com,,43.7229,12.4071,,http://www.visit.marche.it/Portals/1/Immagini/Localita/PU/PIANDIMELETO_2.jpg,Piandimeleto - Particolare del Castello dei Conti Oliva
10197,Artigianato artistico,Monteprandone - Gioielleria Coccia di Oddi Alessandro,044045,Monteprandone,Largo XXIV Maggio,29,073574097,gioielleriacocciaeoddi@alice.it,,42.8947,13.8473,,http://www.visit.marche.it/Portals/1//Immagini/vista dal CEA Monteprandone.jpg,vista dal CEA Monteprandone
10198,Artigianato artistico,Pesaro - Ottaviani Claudia Gennari Lorenzo,041044,Pesaro,Via Giambattista Passeri,48,0721.31206,laboratorio@claudiaottaviani.com,http://www.claudiaottaviani.com/,43.9084,12.9087,,http://www.visit.marche.it/Portals/1//Immagini/Marche_Lifestyle/claudiaottaviani_pesaro.jpg,Claudia Ottaviani Pesaro
10199,Artigianato artistico,Potenza Picena - Panichi Lia,043043,Potenza Picena,Via Gioacchino Rossini,25,0733 688612,,,43.365,13.6941,,http://www.visit.marche.it/Portals/1//Immagini/Marche_Lifestyle/potenza_picena.jpg,Potenza Picena Comune
10200,Artigianato artistico,Urbino - Papi Federica,041067,Urbino,Via Aurelio Saffi,,330505479,chiccapapi@gmail.com,www.papirestauro.it,43.7227,12.6368,,http://www.visit.marche.it/Portals/1//Immagini/Marche_Lifestyle/papi_federica_restauro_operedarte.jpg,Papi Federica restauro opere d'arte
10201,Artigianato artistico,Fermo - Pieragostini Lorella,109006,Fermo,Via Ragazzi del '99,,338.4855303,info@lorellapieragostini.it,http://www.lorellapieragostini.it/#,43.1595,13.706,,http://www.visit.marche.it/Portals/1//Immagini/Marche_Lifestyle/pieragostini_lorella.jpg,Pieragostini Lorella Fermo
10202,Artigianato artistico,Apiro - Pireta Di Roberta Merlo,043002,Apiro,62024 Apiro - Loc. Pian di Strada,,348 8997489,robertamerlo65@gmail.com,,43.391,13.1319,,http://www.visit.marche.it/Portals/1//Immagini/Marche_Lifestyle/merlo_roberta.jpg,Roberta Merlo Apiro
10203,Artigianato artistico,Montecassiano - Ribichini Enrico,043026,Montecassiano,Via Don Ezio Cingolani,6,0733290101,info@leonardoargenti.it,,43.3546,13.4595,,http://www.visit.marche.it/Portals/1/Immagini/Localita/MC/Montecassiano_Gatta_2013_8002028.jpg,Montecassiano - Palazzo Comunale
10204,Artigianato artistico,Fabriano - Scipioni Giuliana,042044,Sassoferrato,Via Bruno Buozzi,56,3405782967,giuliana.scipioni@libero.it,http://nuke.giulianascipioni.it/,43.4318,12.8584,,http://www.visit.marche.it/Portals/1//Immagini/Marche_Lifestyle/scipioni_giuliana.jpg,Scipioni Giuliana Sassoferrato
10205,Artigianato artistico,Pesaro - Semprucci Umberto,041044,Pesaro,Via Eugenio Curiel,19,072165997,gioiellisemprucci@hotmail.it,http://www.gioiellisemprucci.com/,43.9074,12.9105,,http://www.visit.marche.it/Portals/1//Immagini/Marche_Lifestyle/gioielli_semprucci_pesaro.jpg,Gioielli Semprucci Pesaro
10206,Artigianato artistico,Ascoli Piceno - Specchi Danilo,044007,Ascoli Piceno,Corso Trento e Trieste,19,0736 258214,danilospecchi@hotmail.it,,42.8559,13.5762,,http://www.visit.marche.it/Portals/1/Immagini/Localita/AP/Ascoli_43-13.jpg,Ascoli Piceno - Scorci centro storico
10207,Artigianato artistico,Recanati - Studi Malleus di Ragni Enrico,043044,Recanati,Via Lorenzo Nina,100,071 757 4393,malleus@malleus.it,http://www.malleus.it/contatti.asp,43.405,13.5699,,http://www.visit.marche.it/Portals/1//Immagini/Marche_Lifestyle/malleus_enricoragni.jpg,Malleus Enrico Ragni
10208,Artigianato artistico,Matelica - Studio d'arte Russo Donatella,043024,Matelica,Corso Vittorio Emanuele,7,3397424957,vaccarocostuzioni@virgilio.it,,43.2538,13.0082,,http://www.visit.marche.it/Portals/1/Immagini/Localita/MC/Matelica_Gatta_2013_MGF0432.jpg,Città di Matelica
10209,Artigianato artistico,Fabriano - Tiberi Sandro,042017,Fabriano,Via Giuseppe di Vittorio,5,347.0774944,info@sandrotiberi.com,http://www.sandrotiberi.com/,43.349,12.9245,,http://www.visit.marche.it/Portals/1//Immagini/Marche_Lifestyle/tiberi_sandrocartaio.jpg,Tiberi Sandro Cartaio
10210,Artigianato artistico,Macerata - Tomassini Paola,043023,Macerata,Via Domenico Concordia,85,3387835422,info@divaedonna.it,,43.2761,13.4997,,http://www.visit.marche.it/Portals/1/Immagini/Localita/MC/Macerata_146T.jpg,Macerata al tramonto
10211,Artigianato artistico,Macerata - Verdenelli Giuseppe,043023,Macerata,Piazza Giuseppe Mazzini,16,348 3329513,kpivve@tin.it,http://www.gioielliediamanti.it/2007/_piccolegioie.html,43.299,13.4553,,http://www.visit.marche.it/Portals/1//Immagini/Marche_Lifestyle/verdenelli_giuseppe_macerata.jpg,Verdenelli Giuseppe Macerata
10212,Artigianato artistico,Senigallia - Viganò Silvia,042045,Senigallia,Via Mastai,46,3284558895,silvia.madamadorè@yahoo.it,,43.7141,13.2184,,http://www.visit.marche.it/Portals/1//Immagini/Marche_Lifestyle/viganò_silviasenigallia.jpg,Viganò Silvia Senigallia
10213,Artigianato artistico,Pesaro - Morotti Omar,041044,Pesaro,Via degli Abeti,174,335/381402,omar@ommysrl.it,,43.9048,12.8625,,http://www.visit.marche.it/Portals/1/Immagini/Localita/PU/Pesaro_NSM_SferaGrandePomodoro_fotoPaoloSemprucci.jpg,"Pesaro - Sfera Grande, opera di Armaldo Pomodoro"
10214,Artigianato artistico,San Benedetto del Tronto - Studio d'Arte A. Schinchirimini,044066,San Benedetto del Tronto,Via Labirinto,2,0735 594325,piceni@piceni.it,http://www.piceni.it,42.9506,13.8794,,http://www.visit.marche.it/Portals/1//Immagini/Marche_Lifestyle/SCHINCHIRIMINI AUGUSTA.jpg,SCHINCHIRIMINI AUGUSTA SAN BENEDETTO TRONTO
10224,Artigianato artistico,"Jesi - Pasquinelli Nello, Otello, Maria",042021,Jesi,Via G.Belardinelli,2,073161244,silvia.donati@altile.it,,43.5149,13.2378,,http://www.visit.marche.it/Portals/1/Immagini/Tradizioni/Jesi_054T.jpg,Città di Jesi
10225,Artigianato artistico,Comunanza - Tanucci Sandro,044015,Comunanza,Contrada da Rivolta,,0736845134,tanucci_accettazione@rame.it,,42.9639,13.444,,http://www.visit.marche.it/Portals/1/Immagini/Localita/AP/COMUNANZA_12.jpg,Il borgo di Comunanza
10226,Artigianato artistico,Moie di Maiolati Spontini - Ceriachi Melissa,042023,Maiolati Spontini,Via Risorgimento,252,349 4503481,info@melissaceriachi.com,http://www.melissaceriachi.com,43.5026,13.1374,,http://www.visit.marche.it/Portals/1//Immagini/Marche_Lifestyle/madonna-degli-sposi.jpg,Melissa Ceriachi Moie Maiolati Spontini
10227,Artigianato artistico,Macerata - Fogante Donatella,043023,Macerata,Vicolo Orfanelli,57,347 4185558,donatellaeffe2000@yahoo.it,http://www.donatellafogante.com/contatti.html,43.2977,13.4562,,http://www.visit.marche.it/Portals/1//Immagini/Marche_Lifestyle/profilo_personale.jpg,Donatella Fogante Macerata
10228,Artigianato artistico,Monte San Vito - Cerioni Sandro,042030,Monte San Vito,Via San Vito,5,071740572,cerioni.sandro@libero.it,,45.669,11.3913,,http://www.visit.marche.it/Portals/1/Immagini/Localita/AN/monte-san-vito.jpg,Veduta di Monte San Vito
10229,Artigianato artistico,Appignano - Taruschio arte e ceramica made in Italy,043003,Appignano,Via Galileo Galilei,3,0733-579412,,http://www.taruschioceramica.it,43.347,13.3519,,http://www.visit.marche.it/Portals/1//Immagini/Marche_Lifestyle/chisiamo_bn3.jpg,Taruschio Appignano Ceramisti
10230,Artigianato artistico,Carassai - DL CERAMICHE ARTISTICHE S.N.C. DI D'ABRAMO EMILIA & UBALDI PIETRO,044010,Carassai,Via 10 Settembre,20,0734930626,DLCERAMICHE@libero.it,,43.0628,13.7163,,http://www.visit.marche.it/Portals/1//Immagini/Marche_Lifestyle/carassai.jpg,Carassai
10231,Artigianato artistico,Folignano - Artè di Tomassini Barbara,044020,Folignano,Viale Genova,17,3496781896,barbara.tomassini@email.it,,42.8207,13.6322,,http://www.visit.marche.it/Portals/1//Immagini/Marche_Lifestyle/folignano.jpg,Folignano
10232,Artigianato artistico,Fermo - Arte Gioiello  di Silvano Zanchi,109006,Fermo,Viale Vittorio Veneto,37,0734 226601,silvano@artegioiellozanchi.it,http://www.artegioiellozanchi.it,43.1598,13.7169,,http://www.visit.marche.it/Portals/1//Immagini/Marche_Lifestyle/8816trama.jpg,Arte Gioiello Fermo
10233,Artigianato artistico,Macerata - Maiolati Ivana,043023,Macerata,Via Giuseppe Moretti,1,0733492269,info@ivanamaiolati,http://www.ivanamaiolati.com/,43.2305,13.1728,,http://www.visit.marche.it/Portals/1//Immagini/Marche_Lifestyle/ivanamaiolati.jpg,Ivana Maiolati Macerata
10234,Artigianato artistico,Montappone - Iommi Demetrio,109013,Montappone,Via Sole,12,0734760541,info@jommidemetrio.com,,43.1436,13.4638,,http://www.visit.marche.it/Portals/1/Immagini/ManiSapienti/92000301.jpg,Cappello di Montappone
10235,Artigianato artistico,Jesi - Pieralisi Luigi,042021,Jesi,Via Giuseppe Garibaldi,52,0731.209225,info@vetrodesignpieralisi.it,http://www.vetrodesignpieralisi.it/,43.5271,13.2466,,http://www.visit.marche.it/Portals/1//Immagini/Marche_Lifestyle/pieralisiluigi.jpg,Pieralisi Luigi Vetreria
10236,Artigianato artistico,Jesi - Ciaboco Fiorella,042021,Jesi,Via Ancona,116,333 698 1238,box@sartoriafiorella.com,http://sartoriafiorella.com,43.5483,13.2715,,http://www.visit.marche.it/Portals/1//Immagini/Marche_Lifestyle/ciabocofiorella.jpg,Ciaboco Fiorella sartoria
10237,Artigianato artistico,Pesaro - Ommy Srl,041044,Pesaro,Via degli Abeti,,0721/403590,info@ommysrl.it,http://www.omarmorotti.it,43.9031,12.8587,,http://www.visit.marche.it/Portals/1//Immagini/Marche_Lifestyle/ommy.jpg,Ommy
6102,Cataloghi,Guida Entroterra,042002,Ancona,,,,,http://issuu.com/turismomarche/docs/entroterra,43.6101,13.5092,,http://www.visit.marche.it/Portals/1/Immagini/Cataloghi/entroterra.jpg,copertina Brochure entroterra
6103,Cataloghi,Guida Infinito Marche,042002,Ancona,,,,,,43.6086,13.4798,,http://www.visit.marche.it/Portals/1//Immagini/infinito.jpg,infinito
6104,Cataloghi,Guida Il Mare. Le Marche in blu,042002,Ancona,,,,,,43.6101,13.5092,,http://www.visit.marche.it/Portals/1//Immagini/mare in blu.jpg,marche in blu
6107,Cataloghi,La Cartoguida,042002,Ancona,,,,,http://issuu.com/turismomarche/docs/cartoguida_italiano_completa,43.6101,13.5092,,http://www.visit.marche.it/Portals/1//Immagini/cartoguidait.jpg,cartoguida
6108,Cataloghi,Guida I Vini delle Marche,042002,Ancona,,,,,http://issuu.com/turismomarche/docs/vini-interno,43.6158,13.5189,,http://www.visit.marche.it/Portals/1//Immagini/Vini.jpg,Vini
6110,Cataloghi,Guida Città d'Arte,042002,Ancona,,,,,http://issuu.com/turismomarche/docs/citta-d-arte,43.6101,13.5092,,http://www.visit.marche.it/Portals/1/Immagini/Cataloghi/CittaDArte.jpg,Guida Città d'Arte
6111,Cataloghi,Guida Discovery Marche,042002,Ancona,,,,,,43.6101,13.5092,,http://www.visit.marche.it/Portals/1//Immagini/DISCOVERY-ITA-LR-1.jpg,Discovery Italiano
6112,Cataloghi,Guida Plein Air Marche,042002,Ancona,,,,,,43.6101,13.5092,,http://www.visit.marche.it/Portals/1//Immagini/PLEIN AIR.jpg,plein air
6113,Cataloghi,Guida Marche Geographic - Eventi estate 2015,042002,Ancona,,,,,,43.5929,13.6534,,http://www.visit.marche.it/Portals/1//Immagini/Cover-MG.jpg,Copertina-MarcheGeo
6166,Cataloghi,Parchi e riserve naturali nelle Marche,042002,Ancona,,,,,,43.6101,13.5092,,http://www.visit.marche.it/Portals/1//Immagini/parchi e riserve.jpg,parchi
6167,Cataloghi,Guida al Turismo Congressuale nelle Marche,042002,Ancona,,,,,http://issuu.com/turismomarche/docs/pdf-congrweb1,43.6101,13.5092,,http://www.visit.marche.it/Portals/1//Immagini/Turismo Congressuale..jpg,congressuale
9552,Cataloghi,Alla scoperta di Lotto,042002,Ancona,,,,,,43.6102,13.5047,,http://www.visit.marche.it/Portals/1//Immagini/scoperta-lotto.jpg,Scoperta-Lotto
9553,Cataloghi,Guida Spiritualità e Meditazione,042022,Loreto,,,,,,43.4396,13.6066,,http://www.visit.marche.it/Portals/1//Immagini/Spiritualità-Meditazione.jpg,Spiritualità e Meditazione
9554,Cataloghi,Guida I Musei delle Marche,042002,Ancona,,,,,,43.6158,13.5189,,http://www.visit.marche.it/Portals/1//Immagini/Musei.jpg,Guida Musei
9555,Cataloghi,Guida Dolci Colline e Antichi Borghi,042002,Ancona,,,,,,43.6158,13.5189,,http://www.visit.marche.it/Portals/1//Immagini/dolcicolline.jpg,Dolci Colline e  Antichi Borghi
9556,Cataloghi,Guida Sulle Tracce dei Della Robbia,042002,Ancona,,,,,,43.6158,13.5189,,http://www.visit.marche.it/Portals/1//Immagini/dellarobbia.jpg,Della Robbia
9557,Cataloghi,Guida Made in Marche,042002,Ancona,,,,,,43.6158,13.5189,,http://www.visit.marche.it/Portals/1//Immagini/made in marche.jpg,made in marche
9558,Cataloghi,Guida Cicloturismo,042002,Ancona,,,,,,43.6158,13.5189,,http://www.visit.marche.it/Portals/1//Immagini/cicloturismo.jpg,Cicloturismo
9581,Cataloghi,Terre di Piero,041067,Urbino,,,,,,43.7263,12.6366,,http://www.visit.marche.it/Portals/1//Immagini/piero.jpg,Terre di Piero
9582,Cataloghi,La Costa,042002,Ancona,,,,,,43.6158,13.5189,,http://www.visit.marche.it/Portals/1//Immagini/la_costa2.jpg,la Costa
10060,Cataloghi,Marche all' Expo -,042002,Ancona,,,,,,43.6158,13.5189,,http://www.visit.marche.it/Portals/1//Immagini/Marche all'Expo_Brochure_DEF-1.jpg,Marche all' Expo 2015
9348,Centri Benessere,L'ANTICO ULIVETO srl,043043,Potenza Picena,contrada Palazzo Rosso 1,,0733881178,centrobenessere@anticouliveto.com,www.anticouliveto.com,43.3647,13.6877,,,
9440,Centri Congressi,L'ANTICO ULIVETO srl,043043,Potenza Picena,contrada Palazzo Rosso 1,,0733 880752,info@anticouliveto.com,www.anticouliveto.com,43.3647,13.6877,,,
3489,Centri e punti IAT,Centro IAT Gabicce Mare,041019,Gabicce Mare,Viale della Vittoria,41,0541.954424,iat.gabicce@provincia.ps.it,,43.9657,12.7565,,http://www.visit.marche.it/Portals/1/Immagini/Iat/logo_iat.jpg,Centro IAT Gabicce Mare
3490,Centri e punti IAT,Centro IAT Pesaro,041044,Pesaro,Viale Trieste,164,0721.69341,iat.pesaro@provincia.ps.it,,43.9134,12.9184,,http://www.visit.marche.it/Portals/1/Immagini/Iat/logo_iat.jpg,Centro IAT Pesaro
3491,Centri e punti IAT,Centro IAT Fano,041013,Fano,Piazza XX Settembre,,0721.803534,iat.fano@provincia.ps.it,,43.8455,13.0237,,http://www.visit.marche.it/Portals/1/Immagini/Iat/logo_iat.jpg,Centro IAT Fano
3492,Centri e punti IAT,Centro IAT Urbino,041067,Urbino,Via Puccinotti,35,0722.2613,iat.urbino@provincia.ps.it,,43.7249,12.637,,http://www.visit.marche.it/Portals/1/Immagini/Iat/logo_iat.jpg,Centro IAT Urbino
3493,Centri e punti IAT,Punto IAT - Apecchio,041002,Apecchio,Piazza San Martino,2,0722.99279,proloco@comune.apecchio.ps.it,,43.5585,12.4199,,http://www.visit.marche.it/Portals/1/Immagini/Iat/logo_iat.jpg,Punto IAT Apecchio
3494,Centri e punti IAT,Punto IAT - Borgo Pace,041006,Borgo Pace,Piazza del Pino,17,0722.816048,turismo@comune.borgo-pace.ps.it,,43.6577,12.2943,,http://www.visit.marche.it/Portals/1/Immagini/Iat/logo_iat.jpg,Punto IAT Borgo Pace
3495,Centri e punti IAT,Punto  IAT - Cagli,041007,Cagli,Via Alessandri,16,0721.780773,info@cagliturismo.it,,43.5458,12.6479,,http://www.visit.marche.it/Portals/1/Immagini/Iat/logo_iat.jpg,Punto IAT Cagli
3496,Centri e punti IAT,Punto  IAT - Cantiano,041008,Cantiano,Via Fiorucci,26,0721.7899366 – 1830437,ufficioturismo@comune.cantiano.pu.it,,43.4716,12.628,,http://www.visit.marche.it/Portals/1/Immagini/Iat/logo_iat.jpg,Punto IAT Cantiano
3497,Centri e punti IAT,Punto  IAT - Carpegna,041009,Carpegna,Piazza Conti,25,0722.77326,turismo@comune.carpegna.pu.it,,43.7813,12.3365,,http://www.visit.marche.it/Portals/1/Immagini/Iat/logo_iat.jpg,Punto IAT Carpegna
3498,Centri e punti IAT,Punto  IAT  - Cartoceto,041010,Cartoceto,Piazza Garibaldi,1,0721.898437,prolococartoceto@virgilio.it,,43.7682,12.8829,,http://www.visit.marche.it/Portals/1/Immagini/Iat/logo_iat.jpg,Punto IAT Cartoceto
3499,Centri e punti IAT,Punto  IAT  - Fermignano,041014,Fermignano,Corso Bramante,3,0722.330523,info@proloco-fermignano.it,,43.6765,12.6458,,http://www.visit.marche.it/Portals/1/Immagini/Iat/logo_iat.jpg,Punto IAT Fermignano
3500,Centri e punti IAT,Punto  IAT  - Fossombrone,041015,Fossombrone,Corso Garibaldi,12,0721.723263,puntoiat@comune.fossombrone.ps.it,,43.6892,12.806,"Il Punto IAT di Fossombrone resterà aperto nei giorni di Sabato e Domenica, dalle ore 16:00 alle 18:30",http://www.visit.marche.it/Portals/1/Immagini/Iat/logo_iat.jpg,Punto IAT Fossombrone
3501,Centri e punti IAT,Punto  IAT - Frontone,041018,Frontone,Via Roma,137,0721.786302 - 339 8429426,iat.frontone@gmail.com,,43.5126,12.7327,,http://www.visit.marche.it/Portals/1/Immagini/Iat/logo_iat.jpg,Punto IAT Frontone
3502,Centri e punti IAT,Punto  IAT - Macerata Feltria,041023,Macerata Feltria,Corso A. Battelli,33,0722.728208,maceratafeltria@libero.it,,43.8028,12.4442,,http://www.visit.marche.it/Portals/1/Immagini/Iat/logo_iat.jpg,Punto IAT Macerata Feltria
3503,Centri e punti IAT,Punto  IAT - Mercatello sul Metauro,041025,Mercatello sul Metauro,Corso Bencivenni,27,0722.89114,seg.giovannini@comune.mercatellosulmetauro.pu.it,,43.6469,12.3369,,http://www.visit.marche.it/Portals/1/Immagini/Iat/logo_iat.jpg,Punto IAT Mercatello sul Metauro
3504,Centri e punti IAT,Punto  IAT - Mondavio,041028,Mondavio,Corso Roma,1,0721.977758,vivereilmuseo@gmail.com,,43.6746,12.9687,,http://www.visit.marche.it/Portals/1/Immagini/Iat/logo_iat.jpg,Punto IAT Mondavio
3505,Centri e punti IAT,Punto  IAT - Mondolfo e Marotta,041029,Mondolfo,Viale G. Carducci,85,0721.960665,villavalentina@comune.mondolfo.pu.it,,43.7712,13.1361,,http://www.visit.marche.it/Portals/1/Immagini/Iat/logo_iat.jpg,Punto IAT Mondolfo e Marotta
3506,Centri e punti IAT,Punto  IAT - Monte Grimano Terme,041035,Monte Grimano Terme,Largo della Repubblica,3,0541.970556,ufficioturistico.mgt@gmail.com,www.prolocomontegrimano.it,43.8675,12.4708,,http://www.visit.marche.it/Portals/1/Immagini/Iat/logo_iat.jpg,Punto IAT Monte Grimano Terme
3507,Centri e punti IAT,Punto  IAT - Peglio,041041,Peglio,Via G. Matteotti,6,0722.546506,iat.peglio@gmail.com,,43.6958,12.4959,,http://www.visit.marche.it/Portals/1/Immagini/Iat/logo_iat.jpg,Punto IAT Peglio
3508,Centri e punti IAT,Punto  IAT - Pergola,041043,Pergola,Corso Matteotti,53,0721.7373275,,,43.5629,12.8362,,http://www.visit.marche.it/Portals/1/Immagini/Iat/logo_iat.jpg,Punto IAT Pergola
3509,Centri e punti IAT,Punto  IAT - Riserva del Furlo,041001,Acqualagna,"Via Flaminia, Località Furlo Acqualagna",40,0721 700041,riservafurlo@provincia.ps.it,,43.6217,12.675,,http://www.visit.marche.it/Portals/1/Immagini/Iat/logo_iat.jpg,Punto IAT Riserva del Furlo
3510,Centri e punti IAT,Punto  IAT - San Costanzo,041051,San Costanzo,Via Montegrappa,3,0721.950110,prolocosancostanzo@libero.it,,43.7631,13.0688,,http://www.visit.marche.it/Portals/1/Immagini/Iat/logo_iat.jpg,Punto IAT San Costanzo
3511,Centri e punti IAT,Punto  IAT - San Lorenzo in Campo,041054,San Lorenzo in Campo,Via San Demetrio,4,0721.776479,info@proloco-sanlorenzo.it,,43.6052,12.9452,,http://www.visit.marche.it/Portals/1/Immagini/Iat/logo_iat.jpg,Punto IAT San Lorenzo in Campo
3512,Centri e punti IAT,Punto  IAT - Sant'Angelo in Vado,041057,Sant'Angelo in Vado,Loc. Pratello Santa Maria Extra Muros,64,0722.88254,cultura@comune.sant-angelo-in-vado.ps.it,,43.6647,12.4093,,http://www.visit.marche.it/Portals/1/Immagini/Iat/logo_iat.jpg,Punto IAT Sant'Angelo in Vado
3513,Centri e punti IAT,Punto  IAT - Sassocorvaro,041059,Sassocorvaro,Piazza Battelli,,0722.76177,,,43.781,12.4956,,http://www.visit.marche.it/Portals/1/Immagini/Iat/logo_iat.jpg,Punto IAT Sassocorvaro
3514,Centri e punti IAT,Punto  IAT - Sasso Simone e Simoncello,041048,Pietrarubbia,Via Montefeltresca,157,0722.75350,centrovisite@libero.it,,43.8011,12.3632,,http://www.visit.marche.it/Portals/1/Immagini/Iat/logo_iat.jpg,Punto IAT Sasso Simone e Simoncello
3515,Centri e punti IAT,Punto  IAT - Serra Sant'Abbondio,041061,Serra Sant'Abbondio,Corso Dante Alighieri,26,0721.730657,iatssabbondio@gmail.com,,43.4915,12.7721,,http://www.visit.marche.it/Portals/1/Immagini/Iat/logo_iat.jpg,Punto IAT Serra Sant'Abbondio
3516,Centri e punti IAT,Punto  IAT - Tavoleto,041064,Tavoleto,Corso Vittorio Veneto,3,0722.629027,info@labuonafattoria.com,,43.8441,12.5937,,http://www.visit.marche.it/Portals/1/Immagini/Iat/logo_iat.jpg,Punto IAT Tavoleto
3517,Centri e punti IAT,Punto  IAT - Tavullia,041065,Tavullia,Via Cesare Battisti,5/a,0721.901119,info@fanclubvalentinorossi.com,,43.8983,12.754,,http://www.visit.marche.it/Portals/1/Immagini/Iat/logo_iat.jpg,Punto IAT Tavullia
3518,Centri e punti IAT,Punto  IAT - Urbania,041066,Urbania,Corso Vittorio Emanuele,21,0722.313140,turicult@comune.urbania.ps.it,,43.6681,12.5231,,http://www.visit.marche.it/Portals/1/Immagini/Iat/logo_iat.jpg,Punto IAT Urbania
3519,Centri e punti IAT,Centro IAT Senigallia,042045,Senigallia,Via Manni,7,071.7922725,iat.senigallia@provincia.ancona.it,,43.7158,13.2199,,http://www.visit.marche.it/Portals/1/Immagini/Iat/logo_iat.jpg,Centro IAT Senigallia
3520,Centri e punti IAT,Centro IAT Loreto,042022,Loreto,Via Solari,3,071.970276,iat.loreto@provincia.ancona.it,,43.4398,13.6074,,http://www.visit.marche.it/Portals/1/Immagini/Iat/logo_iat.jpg,Centro IAT Loreto
3521,Centri e punti IAT,Centro IAT Ancona,042002,Ancona,Via della Loggia,50,071.358991,iat.ancona@provincia.ancona.it,,43.6202,13.51,,http://www.visit.marche.it/Portals/1/Immagini/Iat/logo_iat.jpg,Centro IAT Ancona
3522,Centri e punti IAT,Centro IAT Fabriano,042017,Fabriano,Piazza del Comune,2,0732.625067,iat.fabriano@provincia.ancona.it,,43.336,12.9044,,http://www.visit.marche.it/Portals/1/Immagini/Iat/logo_iat.jpg,Centro IAT Fabriano
3523,Centri e punti IAT,Punto  IAT - Arcevia,042003,Arcevia,Corso Mazzini,64,0731.984561,e.girolimini@arceviaweb.it,,43.5003,12.9402,,http://www.visit.marche.it/Portals/1/Immagini/Iat/logo_iat.jpg,Punto IAT Arcevia
3524,Centri e punti IAT,Punto  IAT - Camerano,042006,Camerano,Via Maratti,37,071.7304018 – 7304018,info@turismocamerano.it,,43.5302,13.5538,,http://www.visit.marche.it/Portals/1/Immagini/Iat/logo_iat.jpg,Punto IAT Camerano
3526,Centri e punti IAT,Punto  IAT - Jesi,042021,Jesi,Piazza della Repubblica,,0731.538420,turismo@comune.jesi.an.it,,43.5221,13.2438,,http://www.visit.marche.it/Portals/1/Immagini/Iat/logo_iat.jpg,Punto IAT Jesi
3527,Centri e punti IAT,Punto  IAT - Numana,042032,Numana,"Via Flaminia, angolo Via Avellaneda",,071.9330612,info@turismonumana.it,,43.5144,13.619,,http://www.visit.marche.it/Portals/1/Immagini/Iat/logo_iat.jpg,Punto IAT Numana
3528,Centri e punti IAT,Punto  IAT - Osimo,042034,Osimo,Via Fonte Magna,12,071.7236088,info@osimoturismo.it,,43.4869,13.4828,,http://www.visit.marche.it/Portals/1/Immagini/Iat/logo_iat.jpg,Punto IAT Osimo
3529,Centri e punti IAT,Punto  IAT - Ostra Vetere,042036,Ostra Vetere,Piazza Satellico,3,071.965700,,,43.6041,13.058,,http://www.visit.marche.it/Portals/1/Immagini/Iat/logo_iat.jpg,Punto IAT Ostra Vetere
3530,Centri e punti IAT,Punto  IAT - Sassoferrato,042044,Sassoferrato,Piazza Matteotti,4,0732.9562310,info@sassoferratoturismo.it,,43.4343,12.8565,,http://www.visit.marche.it/Portals/1/Immagini/Iat/logo_iat.jpg,Punto IAT Sassoferrato
3531,Centri e punti IAT,Punto  IAT - Sirolo,042048,Sirolo,Piazza Vittorio Veneto,6,071.9330611,,,43.5234,13.6194,,http://www.visit.marche.it/Portals/1/Immagini/Iat/logo_iat.jpg,Punto IAT Sirolo
3532,Centri e punti IAT,Punto  IAT - Corinaldo,042015,Corinaldo,Largo XVII Settembre 1860,1/2,071.67782 int. 236,iat1@corinaldo.it,,43.6489,13.0482,"tutti i giorni, 10-12.30, 15.30-19",http://www.visit.marche.it/Portals/1/Immagini/Iat/logo_iat.jpg,Punto IAT Unione dei Comuni Misa Nevola
3533,Centri e punti IAT,Centro IAT Civitanova Marche,043013,Civitanova Marche,Piazza XX Settembre,62,0733.813967,iat.civitanova@provincia.mc.it,,43.3074,13.7309,,http://www.visit.marche.it/Portals/1/Immagini/Iat/logo_iat.jpg,Centro IAT Civitanova Marche
3534,Centri e punti IAT,Centro IAT Macerata,043023,Macerata,Corso della Repubblica Italiana,32,0733.234807,iat.macerata@provincia.mc.it,,43.2998,13.4526,,http://www.visit.marche.it/Portals/1/Immagini/Iat/logo_iat.jpg,Centro IAT Macerata
3535,Centri e punti IAT,Centro IAT Sarnano,043049,Sarnano,Largo Ricciardi,1,0733.657144,iat.sarnano@provincia.mc.it,,43.0357,13.2985,,http://www.visit.marche.it/Portals/1/Immagini/Iat/logo_iat.jpg,Centro IAT Sarnano
3536,Centri e punti IAT,Punto  IAT - Cingoli,043012,Cingoli,Via Luigi Ferri,17,0733.602444,iat.cingoli@provincia.mc.it,,43.3771,13.2137,,http://www.visit.marche.it/Portals/1/Immagini/Iat/logo_iat.jpg,Punto IAT Cingoli
3537,Centri e punti IAT,Punto Informativo Locale - Montelupone,043030,Montelupone,Via Regina Margherita,1,0733.226419,,,43.3444,13.568,,http://www.visit.marche.it/Portals/1/Immagini/Iat/logo_iat.jpg,Punto IAT Montelupone
3538,Centri e punti IAT,Punto  IAT - Porto Recanati,043042,Porto Recanati,Corso Matteotti,130,071.9799084,,,43.4325,13.664,,http://www.visit.marche.it/Portals/1/Immagini/Iat/logo_iat.jpg,Punto IAT Porto Recanati
3539,Centri e punti IAT,Punto  IATT - Recanati,043044,Recanati,Via Leopardi,1,071.981471,,,43.3989,13.5526,,http://www.visit.marche.it/Portals/1/Immagini/Iat/logo_iat.jpg,Punto IAT Recanati
3540,Centri e punti IAT,Punto Informativo Locale - San Severino Marche,043047,San Severino Marche,Piazza del Popolo,43,0733.638414,,,43.2292,13.1775,,http://www.visit.marche.it/Portals/1/Immagini/Iat/logo_iat.jpg,Punto Informativo Locale San Severino Marche
3541,Centri e punti IAT,Centro IAT Fermo,109006,Fermo,Piazza del Popolo,6,0734.227940,iat.fermo@provincia.fm.it,,43.1617,13.7181,,http://www.visit.marche.it/Portals/1/Immagini/Iat/logo_iat.jpg,Centro IAT Fermo
3542,Centri e punti IAT,Centro IAT Porto San Giorgio,109033,Porto San Giorgio,Via G. Oberdan,5,0734.684868,iat.portosangiorgio@regione.marche.it,,43.1804,13.7977,,http://www.visit.marche.it/Portals/1/Immagini/Iat/logo_iat.jpg,Centro IAT Porto San Giorgio
3543,Centri e punti IAT,Punto  IAT - Altidona,109001,Altidona,Via Cristoforo Colombo,2,0734.917016,valdaso@libero.it,,43.1052,13.833,,http://www.visit.marche.it/Portals/1/Immagini/Iat/logo_iat.jpg,Punto IAT Altidona
3544,Centri e punti IAT,Punto  IAT - Amandola,109002,Amandola,Piazza Risorgimento,17,0736.840731,turismo.amandola@gmail.com,,42.9812,13.356,,http://www.visit.marche.it/Portals/1/Immagini/Iat/logo_iat.jpg,Punto IAT Amandola
3545,Centri e punti IAT,Punto  IAT - Porto Sant'Elpidio,109034,Porto Sant'Elpidio,Via Umberto I,485,0734.908263,,,43.2574,13.7586,,http://www.visit.marche.it/Portals/1/Immagini/Iat/logo_iat.jpg,Punto IAT Porto Sant'Elpidio
3546,Centri e punti IAT,Centro IAT San Benedetto del Tronto,044066,San Benedetto del Tronto,Via Cristoforo Colombo,5,0735.781179,iat.sbenedetto@provincia.ap.it,,42.9527,13.884,,http://www.visit.marche.it/Portals/1/Immagini/Iat/logo_iat.jpg,Centro IAT San Benedetto del Tronto
3547,Centri e punti IAT,Centro IAT Ascoli Piceno,044007,Ascoli Piceno,Piazza Arringo,7,0736.253045,iat.ascoli@provincia.ap.it,,42.8536,13.5767,,http://www.visit.marche.it/Portals/1/Immagini/Iat/logo_iat.jpg,Centro IAT Ascoli Piceno
3548,Centri e punti IAT,Punto  IAT - Grottammare,044023,Grottammare,Piazza Pericle Fazzini,6,0735.631087,iat.grottammare@provincia.ap.it,,42.9906,13.8686,,http://www.visit.marche.it/Portals/1/Immagini/Iat/logo_iat.jpg,Punto IAT Grottammare
3549,Centri e punti IAT,Punto  IAT - Porto D'Ascoli,044066,San Benedetto del Tronto,Via Mare,203,0735.751798,,,42.9163,13.9022,,http://www.visit.marche.it/Portals/1/Immagini/Iat/logo_iat.jpg,Punto IAT Porto D'Ascoli
9826,Centri e punti IAT,Punto IAT - Visso,043057,Visso,Via Paolo da Visso,,0737-9239,info@altonera.eu,www.altonera.net,42.9331,13.0862,"Apertura  tutti i sabati e domenica e festivi dalle ore 9.30 alle 12,30 e dalle 16 alle 19.00 e luglio e agosto tutti i giorni",http://www.visit.marche.it/Portals/1//Immagini/Iat/LOGO AS NE.JPG,logo IAT Visso
10000,Centri e punti IAT,Punto IAT San Ginesio,043046,San Ginesio,Via Capocastello,35,0733 652056,info@sanginesio.sinp.net; iatsanginesio@gmail.com,,43.1082,13.3167,,http://www.visit.marche.it/Portals/1//Immagini/Iat/logo_iat_20150525-092741_.jpg,Punto IAT San Ginesio
10215,Centri e punti IAT,Punto IAT - OSTRA,042035,Ostra,Corso Mazzini,4,071-7989080,ufficio-turistico@libero.it,,43.6129,13.1582,,http://www.visit.marche.it/Portals/1//Immagini/Iat/logo_iat_20150702-151701_.jpg,Punto IAT di Ostra
7656,Centri Educazione Ambientale (CEA),Pietrarubbia - CEA del Parco Sasso Simone e Simoncello,041048,Pietrarubbia,"Strada Montefeltresca, Loc. Ponte Cappuccini",157,072275400,centrovisite@libero.it,http://www.parcosimone.it/?IDC=65&ID=162&page=1,43.8018,12.3634,,http://www.visit.marche.it/Portals/1//Immagini/Parchi/CEAParcoSSS.jpg,Logo CEA di Pietrarubbia
7657,Centri Educazione Ambientale (CEA),Visso - CEA Rifugio di Cupi,043057,Visso,Loc. Cupi di Visso Via Piana,1,0737.971041,rifugiocupi@gmail.com,www.asgaia.it/educazione-ambientale-scuole,42.9977,13.1132,,http://www.visit.marche.it/Portals/1//Immagini/Parchi/CEA_RIFUGIO_CUPI.jpg,Logo CEA Rifugio di Cupi
7658,Centri Educazione Ambientale (CEA),Urbisaglia - CEA della Riserva Naturale Abbadia di Fiastra,043055,Urbisaglia,Abbadia di Fiastra,,0733.202942,info@meridianasrl.it,http://www.meridianasrl.it/cea.html,43.2214,13.4044,,http://www.visit.marche.it/Portals/1//Immagini/Parchi/CEA_AbbadiaFiastra.jpg,Logo CEA della Riserva di Fiastra
7659,Centri Educazione Ambientale (CEA),Sirolo - CEA del Parco del Conero,042048,Sirolo,Via Peschiera,30,0719330066,info@forestalp.it,http://www.forestalp.com/EducazioneAmbientale/CEA/tabid/173/language/en-US/Default.aspx,43.5197,13.6178,,http://www.visit.marche.it/Portals/1//Immagini/Parchi/CEA_CONERO.jpg,Logo CEA del Parco del Conero
7660,Centri Educazione Ambientale (CEA),Serra San Quirico - CEA del Parco Gola della Rossa e di Frasassi,042047,Serra San Quirico,Via Marcellini,5,0731.86122,biblio.parco@parcogolarossa.it,http://ceaparcogolarossa.jimdo.com/,43.4477,13.0142,,http://www.visit.marche.it/Portals/1//Immagini/Parchi/CEAParcoGolaRossa.jpg,Logo CEA del Parco Gola della Rossa e di Frasassi
7661,Centri Educazione Ambientale (CEA),San Ginesio - CEA Credia WWF,043046,San Ginesio,Contrada Vallato,,0733.694431,crediawwf@gmail.com,http://www.querciadellamemoria.it/news-credia.html,43.053,13.2624,,http://www.visit.marche.it/Portals/1//Immagini/Parchi/CEA_crediaWWF.jpg,Logo CEA Credia WWF
7662,Centri Educazione Ambientale (CEA),San Benedetto del Tronto - CEA Torre sul porto,044066,San Benedetto del Tronto,Viale Alfredo Scipioni,6,0735.78971,info@riservasentina.it,http://www.riservasentina.it/cms/cea/,42.9346,13.8929,,http://www.visit.marche.it/Portals/1//Immagini/Parchi/Cea_TorrePorto.jpg,Logo CEA San Benedetto del Tronto
7663,Centri Educazione Ambientale (CEA),Montemonaco - CEA Sibilla,044044,Montemonaco,Via Trieste,15,0736.856340,ceamontemonaco@tiscali.it,http://www.ceasibilla.it/,42.8983,13.326,,http://www.visit.marche.it/Portals/1//Immagini/Parchi/CEA_Sibilla.jpg,Logo CEA della Sibilla
7664,Centri Educazione Ambientale (CEA),Montegallo - CEA,044038,Montegallo,"Fraz. Balzo, Via A. Caro",15,0736.807013,cea.montegallo@gmail.com,http://ceamontegallo.it/,42.8425,13.333,,http://www.visit.marche.it/Portals/1//Immagini/Parchi/CEA_Montegallo.jpg,Logo CEA di Montegallo
7665,Centri Educazione Ambientale (CEA),Jesi - CEA Sergio Romagnoli,042021,Jesi,Via Zanibelli,3 bis,0731.619213,info@riservaripabianca.it,http://www.riservaripabianca.it/index.php/cea-oasi-wwf,43.5323,13.2891,,http://www.visit.marche.it/Portals/1//Immagini/Parchi/CEA_3.jpg,Logo CEA
7666,Centri Educazione Ambientale (CEA),Gagliole - CEA Valle dei Grilli e dell'Elce,043020,Gagliole,Via Casetre,19,0737.641184,m.storianaturale@libero.it,,43.236,13.0658,,http://www.visit.marche.it/Portals/1//Immagini/Parchi/Cea_ValleGrilli.jpg,Logo CEA della Riserva Monte San Vicino e Monte Canfaito
7667,Centri Educazione Ambientale (CEA),Fiastra - CEA Valle del Fiastrone  e area faunistica del Camoscio appenninico,043017,Fiastra,Via del Lago,5,0737.52185,ceavalledelfiastrone@alcina.it,http://www.alcina.it/,43.0364,13.1577,LUGLIO: Tutti i giorni (festivi compresi) ad esclusione del lunedì - dalle 9:30 alle 12:30 e dalle 15:30 alle 18:30  AGOSTO: Tutti i giorni (festivi compresi) ad esclusione del 23 e del 30 - dalle 9:30 alle 12:30 e dalle 15:30 alle 18:30  Per maggiori inf,http://www.visit.marche.it/Portals/1//Immagini/Parchi/CEAValleFiastrone.jpg,Logo CEA Valle del Fiastrone
7668,Centri Educazione Ambientale (CEA),Cessapalombo - CEA Vallenatura,043011,Cessapalombo,Contrada Tribbio di Montalto,,338 9889440- 0733.1870712,info@palazzosimonelli.it,,43.1039,13.2225,Luglio e agosto tutti i giorni (festivi inclusi) - dalle 9.30 alle 12.30 e dalle 15.30 alle 18.30,http://www.visit.marche.it/Portals/1//Immagini/Parchi/CEA_Vallenatura.jpg,Logo CEA Vallenatura di Cessapalombo
7669,Centri Educazione Ambientale (CEA),Camerino - CEA Torricchio Renzo Videosott,043007,Camerino,Via Pontoni,5,0737.402108,cea.torricchio@unicam.it,,43.1374,13.0716,,http://www.visit.marche.it/Portals/1//Immagini/Parchi/CEA_3.jpg,Logo CEA
7670,Centri Educazione Ambientale (CEA),Arquata del Tronto - CEA dei Due Parchi,044006,Arquata del Tronto,Frazione Colle D'Arquata,,0736.803915,info@centrodueparchi.it,http://www.forestalp.com,42.773,13.2931,,http://www.visit.marche.it/Portals/1//Immagini/Parchi/CEA_3.jpg,Logo CEA
7671,Centri Educazione Ambientale (CEA),Amandola - CEA Legambiente Fillide,109002,Amandola,Via Indipendenza,73,0736.847294,ceachiro@tin.it,http://www.montisibillini.it/ragazzi.html,42.9795,13.3574,,http://www.visit.marche.it/Portals/1//Immagini/Parchi/CEA_Fillide.jpg,Logo CEA Fillide
7672,Centri Educazione Ambientale (CEA),Acqualagna - CEA Il Furlo e Valle del Metauro,041001,Acqualagna,Strada Pianacce,1,0721.700224,ceafurlo@lamacina.it,http://www.ceafurlo.it/,43.6356,12.6891,,http://www.visit.marche.it/Portals/1//Immagini/Parchi/CEA_furlo.jpg,logo CEA Il Furlo e Valle del Metauro
7673,Centri Educazione Ambientale (CEA),Acquasanta Terme - CEA Asaspeleoclub,044001,Acquasanta Terme,Via Frazione S.Maria,,3779942009 (presidente); 3387564860 ( segreteria),geotritone1@libero.it,www.asaspeleoclub.com,42.7784,13.4155,,http://www.visit.marche.it/Portals/1//Immagini/Parchi/CEA_acquasantaterme.jpg,Logo Cea di Acquasanta Terme
7674,Centri Educazione Ambientale (CEA),Ancona- CEA Selva di Gallignano,042002,Ancona,Contrada Selva,,071/8028088 – 071/2204642 (Direttore ),orto@univpm.it,http://www.ortobotanico.univpm.it,43.5633,13.4305,,http://www.visit.marche.it/Portals/1//Immagini/NaturaSport/logo cea selva gallignano.jpg,Logo CEA Gallignano
7675,Centri Educazione Ambientale (CEA),Ascoli Piceno- CEA Rifugio Escursionistico Mario Paci,044007,Ascoli Piceno,"Strada provinciale, 76 - Colle La Pelera - Montagna dei Fiori",,0736-403949 cell 333/2980252,info@rifugiopaci.it,www.rifugiopaci.it,42.8163,13.5756,,http://www.visit.marche.it/Portals/1//Immagini/NaturaSport/aula didattica Paci.jpg,aula didattica rifugio Paci
7676,Centri Educazione Ambientale (CEA),Belforte del Chienti- CEA Casa Ecologica,043004,Belforte del Chienti,Via Palmiro Togliatti,3,0733-906372 / (+39) 0733-906372,info@casaecologica.net,www.casaecologica.net,43.1626,13.2441,,http://www.visit.marche.it/Portals/1//Immagini/NaturaSport/CEA_casaecologica_logo.jpg,CEA Casa Ecologica logo
7677,Centri Educazione Ambientale (CEA),Cantiano- CEA Monte Catria e Bosco di Tecchie,041008,Cantiano,Via IV Novembre,46,0721 700224,ceacatria@lamacina.it,www.ceacatria.it,12.6284,43.4737,,http://www.visit.marche.it/Portals/1//Immagini/NaturaSport/logo CEA Monte Catria e Bosco di Tecchie.jpg,logo CEA Monte Catria
7678,Centri Educazione Ambientale (CEA),CEA Selva di Castelfidardo,042010,Castelfidardo,Via della Battaglia,52,(+39) 071-780156 / (+39) 071-780156,info@fondazioneferretti.org,www.fondazioneferretti.org,43.4691,13.576,,http://www.visit.marche.it/Portals/1//Immagini/NaturaSport/LOGO CEA Castelfidardo.jpg,logo CEA Castelfidardo
7679,Centri Educazione Ambientale (CEA),Fabriano- CEA Valleremita,042017,Fabriano,Frazione Valleremita,34,0732 72328 - (+39) 347 2702462 - (+39) 0732 24254,piermartini@alice.it,,43.2967,12.8733,,http://www.visit.marche.it/Portals/1//Immagini/NaturaSport/logo CEA Valleremita.jpg,logo CEA Valleremita
7680,Centri Educazione Ambientale (CEA),Falconara Marittima- CEA Centro Ambiente e Pace,042018,Falconara Marittima,Piazza Giosuè Carducci,4,071-91771,cea@comune.falconara-marittima.an.it,www.comune.falconara-marittima.an.it,43.623,13.3936,,http://www.visit.marche.it/Portals/1//Immagini/NaturaSport/CEA Falconara Logo.jpg,CEA Falconara logo
7681,Centri Educazione Ambientale (CEA),Fano- CEA Casa Archilei,041013,Fano,"Via Ugo Bassi, 6",,0721 805211,archilei@mobilia.it,www.archilei.it,43.8345,13.0172,,http://www.visit.marche.it/Portals/1//Immagini/NaturaSport/biblioteca CEa Fano.jpg,Biblioteca CEA fano
7682,Centri Educazione Ambientale (CEA),Fano- CEA La Città dei bambini Casa Cecchi,041013,Fano,"Via della Paleotta, 11",,0721-887374 / (+39) 0721-887810,angela.casanova@comune.fano.ps.it,http://www.comune.fano.ps.it/index.php?id=453,43.8472,13.0049,,http://www.visit.marche.it/Portals/1//Immagini/NaturaSport/casa Cecchi esterno.jpg,Cea Casa Cecchi
7683,Centri Educazione Ambientale (CEA),Frontone- CEA Medit Silva,041018,Frontone,"Via Fonte Avellana, 17",,0721 - 786012,info@meditsilva.it,http://www.meditsilva.it/Educazioneambientale.aspx,43.513,12.7279,,http://www.visit.marche.it/Portals/1//Immagini/NaturaSport/aula CEA Frontone.jpg,aula CEA Frontone
7684,Centri Educazione Ambientale (CEA),Macerata- CEA Parco di Fontescodella,043023,Macerata,"Via Mugnoz, 5/a",,0733.280035,ceamacerata@risorsecoop.it,http://www.ceamacerata.blogspot.it,43.297,13.4426,,http://www.visit.marche.it/Portals/1//Immagini/NaturaSport/logo CEA Fontescodella Macerata.jpg,logo CEA Macerata
7685,Centri Educazione Ambientale (CEA),Montefalcone Appennino- CEA Montefalcone Appennino,109014,Montefalcone Appennino,"Via Roma, 42",,0734/79136 -   Tisi Daniela 3393466752,Info@depturismoecultura.com,www.depturismoecultura.com/,42.9878,13.4597,,http://www.visit.marche.it/Portals/1//Immagini/NaturaSport/Logo CEA Montefalcone Appennino.JPG,Logo CEA Montefalcone Appennino
7686,Centri Educazione Ambientale (CEA),Monteprandone- CEA Ambiente e Mare,044045,Monteprandone,"Via 81 ma. Strada, 19",,0735/701028;  0736/091188 Mob: 393.5659969,cea.ambientemare@gmail.com,https://www.facebook.com/pages/CEA-Ambiente-e-Mare/755137091199137?fref=ts,42.8897,13.8478,,http://www.visit.marche.it/Portals/1//Immagini/NaturaSport/sede cea Monteprandone.JPG,sede CEA Monteprandone
7687,Centri Educazione Ambientale (CEA),Monterubbiano- CEA Giano,109022,Monterubbiano,"Via Pagani, 25",,0734-259980 - 338-3365114 (Stefano Properzi),turismomonterubbiano@libero.it,http://www.museipiceni.it/page.asp?id=106040100,43.0859,13.7169,,http://www.visit.marche.it/Portals/1//Immagini/NaturaSport/Plastico della Valdaso CEA Monterubbiano.jpg,Palstico della Valdaso CEA Monterubbiano
7688,Centri Educazione Ambientale (CEA),Offida- CEA Giano di Offida,044054,Offida,Via Roma,17,0736888609,info.oikos@libero.it,http://www.museipiceni.it/page.asp?id=106010100,42.9341,13.6896,,http://www.visit.marche.it/Portals/1/Immagini/Localita/AP/Offida_Coccia_2013_004.jpg,Offida - La tradizione del Tombolo
7689,Centri Educazione Ambientale (CEA),Pesaro- CEA Provincia di Pesaro e Urbino,041044,Pesaro,Via Eugenio Barsanti,18,0721 208085,cea@provincia.ps.it,www.provincia.pu.it/ambiente/educazione-ambientale/,43.8919,12.9274,dal lunedì al venerdì dalle 09 alle 13,http://www.visit.marche.it/Portals/1//Immagini/NaturaSport/Giardino CEA PU.JPG,CEA PU Giardino
7690,Centri Educazione Ambientale (CEA),Piobbico- CEA Monte Nerone e Alpe della Luna,041049,Piobbico,"Via Pianacce, 1",,0721 700224,ceapiobbico@lamacina.it,www.ceanerone.it,43.6356,12.6889,,http://www.visit.marche.it/Portals/1//Immagini/NaturaSport/logo CEA Monte Catria e Bosco di Tecchie.jpg,logo CEA Monte Catria
7691,Centri Educazione Ambientale (CEA),Polverigi- CEA Inteatro,042038,Polverigi,"Via Marconi, 77",,071.9090007,cea@inteatro.it,http://www.inteatro.it/ambiente,43.525,13.3978,,http://www.visit.marche.it/Portals/1//Immagini/Parco di Villa Nappi CEA Inteatro.jpg,Parco Villa Nappi  CEA Inteatro
7692,Centri Educazione Ambientale (CEA),Porto San Giorgio- CEA La Marina Ecoidee,109033,Porto San Giorgio,Via Guglielmo Oberdan,1,0734/936336- 347/4515460,cea.lamarina@gmail.com,http://cealamarina.blogspot.com,43.1804,13.7976,,http://www.visit.marche.it/Portals/1//Immagini/NaturaSport/Logo CEA  Porto San Giorgio.jpg,logo CEA Porto San Giorgio
7693,Centri Educazione Ambientale (CEA),Recanati- CEA WWF Villa Colloredo,043044,Recanati,"Via Campo dei fiori, 5",,071 7573203,cea.recanati@libero.it,www.ceavillacolloredo.it,43.4061,13.5428,,http://www.visit.marche.it/Portals/1//Immagini/NaturaSport/logo Villa Colloredo Recanati.jpg,logo CEA Villa Colloredo Recanati
7695,Centri Educazione Ambientale (CEA),Smerillo- CEA Bosco di Smerillo e Lago di San Ruffino,109039,Smerillo,Via Nobili,,0734.79423- 328. 9455977 (Sig.Tossici),info@smerillo.com,www.smerillo.com/cea/a_index.htm,43.005,13.4446,,http://www.visit.marche.it/Portals/1//Immagini/Area museale Smerillo.jpg,Area museale Smerillo CEA
7696,Centri Educazione Ambientale (CEA),Spinetoli- CEA Oasi la Valle,044071,Spinetoli,"Via Piave, 58",,0736 898029,info@oasilavalle.com,www.oasilavalle.com,42.8691,13.7791,,http://www.visit.marche.it/Portals/1//Immagini/NaturaSport/logo CEA Spinetoli.jpg,logo CEA Spinetoli
7697,Centri Educazione Ambientale (CEA),Tolentino- CEA Il Pettirosso,043053,Tolentino,"Via Gullini, 6",,0733 961807,cea.pettirosso@libero.it,,43.2065,13.2864,,http://www.visit.marche.it/Portals/1//Immagini/NaturaSport/LOGO CEA PETTIROSSO Tolentino.jpg,logo CEA Tolentino
7698,Centri Educazione Ambientale (CEA),Urbania- CEA San Martino,041066,Urbania,"Via Leopardi, 19",,0722318448 - Mobile 347 9305711,ostellosanmartino@yahoo.it,www.boscodeifolletti.it,43.667,12.52,,http://www.visit.marche.it/Portals/1//Immagini/Fattoria San Martino.JPG,Fattoria San Martino
7699,Centri Educazione Ambientale (CEA),Urbino- CEA Casa delle Vigne,041067,Urbino,"Via F.lli Rosselli, 1",,0722350301,ceaurbino@gmail.com,www.legambienteurbino.it,43.724,12.6332,,http://www.visit.marche.it/Portals/1//Immagini/NaturaSport/logo CEA Urbino.JPG,LOgo CEA Urbino
8982,Centri Educazione Ambientale (CEA),Senigallia- CEA Bettino Padovano,042045,Senigallia,Via Cupetta,20,071 9330066,info@forestalp.it,www.forestalp.com,43.7126,13.2045,,http://www.visit.marche.it/Portals/1//Immagini/NaturaSport/logo Cea Senigallia Bettino Padovano.jpg,logo CEA Senigallia
8988,Centri Educazione Ambientale (CEA),Amandola- CEA Smerillo e Lago di San Ruffino,109002,Amandola,Contrada S. Lorenzo,17/19,0736.848099 Giuseppe Millozzi- mobile 333 2163287,info@dimensionenatura.org,www.dimensionenatura.org,42.9828,13.4279,,http://www.visit.marche.it/Portals/1//Immagini/NaturaSport/Lago di san Ruffino.JPG,Lago di San Ruffino
122,Chiese,Chiesa della Maternità della Madonna,041044,Pesaro,Via della Maternità,,0721.31569,,,43.9083,12.9106,,http://www.visit.marche.it/Portals/1/Immagini/Chiese/Pesaro_maternita.jpg,Chiesa della Maternità della Madonna
123,Chiese,Santuario della Beata Vergine delle Grazie,041044,Pesaro,Via S. Francesco,s.n.c,0721.30043,info@arcidiocesipesaro.it,www.arcidiocesipesaro.it,43.9121,12.9157,,http://www.visit.marche.it/Portals/1/Immagini/Chiese/Pesaro_MadonnaGrazie.jpg,Santuario della Beata Vergine delle Grazie
125,Chiese,Macerata - Santuario della Madonna della Misericordia,043023,Macerata,Piazza S. Vincenzo Maria Strambi,4,,,,43.3008,13.4563,,http://www.visit.marche.it/Portals/1/Immagini/Chiese/Macerata_Misericordia.jpg,Facciata della Basilica di Santa Maria della Misericordia
126,Chiese,Macerata - Chiesa di S. Filippo,043023,Macerata,Corso della Repubblica,,0733.1824005,,,43.2993,13.452,,http://www.visit.marche.it/Portals/1/Immagini/Chiese/Macerata_FilippoNeri_ext.jpg,Facciata della Chiesa di S. Filippo Neri
127,Chiese,Macerata - Cattedrale di San Giuliano,043023,Macerata,Piazza San Vincenzo Strambi,s.n.c,0733.291114,iat.macerata@provincia.mc.it,http://www.diocesimacerata.it/,43.3008,13.4566,,http://www.visit.marche.it/Portals/1/Immagini/Chiese/Macerata_Giuliano.jpg,Interno della Cattedrale di San Giuliano
128,Chiese,Chiesa di S. Giovanni,043023,Macerata,Piazza Vittorio Veneto,,,,,43.2989,13.4509,,http://www.visit.marche.it/Portals/1/Immagini/Chiese/Macerata_Giovanni_ext.jpg,Panorama della città di Macerata e Cupola della Chiesa di S. Giovanni
129,Chiese,Chiesa di S. Maria delle Vergini,043023,Macerata,Via Lattanzio Ventura,,,,,43.2931,13.471,,http://www.visit.marche.it/Portals/1/Immagini/Chiese/Macerata_Vergini.jpg,Facciata della Chiesa di S. Maria delle Vergini
130,Chiese,Chiesa di S. Maria della Porta,043023,Macerata,Via S. Maria della Porta,,,,,43.2994,13.4538,,http://www.visit.marche.it/Portals/1/Immagini/Chiese/Macerata_MariaPorta.jpg,Chiesa di S. Maria della Porta
131,Chiese,Chiesa di S. Paolo,043023,Macerata,Piazza della Libertà,,0733.256361,cultura@comune.macerata.it,,43.3005,13.4544,,http://www.visit.marche.it/Portals/1/Immagini/Chiese/Macerata_Paoloalto.jpg,Veduta dall'alto della Chiesa di S. Paolo
134,Chiese,Chiesa di S. Maria di Civita,042017,Fabriano,,,,,,43.3326,12.8905,,http://www.visit.marche.it/Portals/1/Immagini/Chiese/Fabriano_Civita.jpg,Chiesa di S. Maria di Civita
135,Chiese,Ancona - Abbazia di Santa Maria di Portonovo,042002,Ancona,Strada Comunale di Portonovo,,,,,43.5608,13.602,Guided tours: segreteria regionale FAI Marche (tel n. 075.5009658 dal lunedì al venerdì 8.30-14.30) comunica che fino al 31 agosto 2014 la chiesa sarà aperta al pubblico: dal mercoledì alla domenica dalle ore 17.30 alle ore 20.00. Dal 22 giugno al 31 agos,http://www.visit.marche.it/Portals/1/Immagini/Chiese/031T.jpg,Veduta della Chiesa di Santa Maria di Portonovo
139,Chiese,Chiesa di S. Giorgio,043023,Macerata,Piazza XXX Aprile,,,,,43.301,13.4504,,http://www.visit.marche.it/Portals/1/Immagini/Chiese/Macerata_Giorgio.jpg,Interno della Chiesa di S. Giorgio
140,Chiese,Ancona - Duomo di San Ciriaco,042002,Ancona,Piazzale del Duomo,,071.52688,museo.ancona@diocesi.ancona.it,http://www.diocesi.ancona.it,43.6251,13.5101,Orario invernale:<br/>dal lunedì alla domenica dalle ore 8.00 alle ore 12.00 e dalle ore 15.00 alle ore 18.00.<br/>Orario estivo:<br/>dal lunedì alla domenica dalle ore 8.00 alle ore 12.00 e dalle ore 15.00 alle ore 19.00,http://www.visit.marche.it/Portals/1/Immagini/Chiese/Ancona_07.jpg,Particolare della Cattedrale di San Ciriaco
141,Chiese,Ancona - Chiesa di Santa Maria della Piazza,042002,Ancona,Via della Loggia,,071.200391 - 071.52688 per visite guidate,museo.ancona@diocesi.ancona.it,http://www.diocesi.ancona.it,43.6206,13.5104,,http://www.visit.marche.it/Portals/1/Immagini/Chiese/018T.jpg,Chiesa di Santa Maria della Piazza
142,Chiese,Chiesa dei Ss. Pellegrino e Teresa (o degli Scalzi),042002,Ancona,Piazza del Senato,,,,,43.6236,13.5105,,http://www.visit.marche.it/Portals/1/Immagini/Chiese/Ancona_PellegrinoTeresa.jpg,Interni della Chiesa dei Ss. Pellegrino e Teresa (o degli Scalzi)
143,Chiese,Ancona - Chiesa di S. Francesco alle Scale,042002,Ancona,Scale S. Francesco,4,071.358991,info@comune.ancona.it,www.diocesi.ancona.it,43.6216,13.5123,,http://www.visit.marche.it/Portals/1/Immagini/Chiese/Ancona_Francesco_portale.JPG,Particolare della facciata principale della Chiesa di S. Francesco alle Scale
144,Chiese,Chiesa di S. Domenico,042002,Ancona,Piazza del Plebiscito,,,,,43.6194,13.5126,,http://www.visit.marche.it/Portals/1/Immagini/Chiese/Ancona_Domenico.JPG,Prospetto principale della Chiesa di S. Domenico
145,Chiese,Basilica della S. Casa di Loreto,042022,Loreto,Piazza della Madonna,1,071.9747155,sacrestia@delegazioneloreto.it,www.santuarioloreto.it,43.4408,13.61,Da Aprile a Settembre dalle ore 6.00 alle 20.00 La Santa Casa rimane chiusa tutti i giorni dalle 12.30 alle 14.30 - Da Ottobre a Marzo dalle ore 6.15 alle 19.30 La Santa Casa rimane chiusa tutti i giorni dalle 12.30 alle 14.30,http://www.visit.marche.it/Portals/1/Immagini/Localita/AN/Loreto_066T.jpg,Loreto e il suo territorio
157,Chiese,Cupramontana - Chiesa di S. Giacomo della Romita,042016,Cupramontana,Via Romita,,0731 780199 (Ufficio Turistico),comune@comune.cupramontana.an.it,http://www.turismo-cupramontana.com,43.4516,13.0974,,,
164,Chiese,Genga - Tempietto ottagonale nelle grotte,042020,Genga,,,,,,43.4032,12.9529,,http://www.visit.marche.it/Portals/1/Immagini/Chiese/Genga_tempietto1.jpg,Tempietto all'ingresso della Frotta di Frasassi
166,Chiese,Chiesa dell'Adorazione,042021,Jesi,Piazza della Repubblica,,,,,43.5224,13.2442,,http://www.visit.marche.it/Portals/1/Immagini/Chiese/Jesi_Adorazione.jpg,Facciata della Chiesa dell'Adorazione
169,Chiese,Chiesa di S. Floriano,042021,Jesi,Piazza Federico II,,,,,43.5249,13.2452,,http://www.visit.marche.it/Portals/1/Immagini/Chiese/Jesi_Floriano.jpg,Facciata della Chiesa di S. Floriano
170,Chiese,Chiesa parrocchiale di S. Pietro Apostolo,042021,Jesi,Piazza Franciolini,,,,,43.5228,13.246,,http://www.visit.marche.it/Portals/1/Immagini/Chiese/Jesi_Apostolo.jpg,Facciata settecentesca della Chiesa di S. Pietro Apostolo
174,Chiese,Jesi - Cattedrale di San Settimio,042021,Jesi,Piazza Federico II,6,0731.538420,turismo@comune.jesi.an.it,http://www.jesi.chiesacattolica.it/jesi/diocesi/home.htm,43.5247,13.2459,,http://www.visit.marche.it/Portals/1/Immagini/Chiese/Jesi_Settimio.jpg,Facciata della Chiesa di S. Settimio
177,Chiese,Chiesa di S. Giovanni Battista,042021,Jesi,Corso Matteotti,15,,,,43.5222,13.2425,,http://www.visit.marche.it/Portals/1/Immagini/Chiese/Jesi_Battista_.jpg,Facciata della Chiesa di S. Giovanni Battista
178,Chiese,Chiesa di S. Marco,042021,Jesi,Via S. Marco,8,,,,43.5263,13.244,,http://www.visit.marche.it/Portals/1/Immagini/Chiese/Jesi_Marco.jpg,Facciata della Chiesa di S. Marco
183,Chiese,Montecarotto - Chiesa della SS. Annunziata,042026,Montecarotto,Via Castello,,,,,43.5263,13.0623,,http://www.visit.marche.it/Portals/1/Immagini/Chiese/Montecarotto_Chiesa_Collegiata_della_Santissima_Annunziata_di_Montecarotto.jpg,Facciata della Chiesa della SS. Annunziata
197,Chiese,Serra San Quirico - Chiesa di S. Lucia,042047,Serra San Quirico,Corso del Popolo,26,0731.880079,comune.serrasanquirico@provincia.ancona.it,www.comune.serrasanquirico.an.it,43.4478,13.0147,Apertura solo nei giorni festivi 10.30-12.30 e 15.30-18.30.,http://www.visit.marche.it/Portals/1/Immagini/Chiese/SerraSanQuirico_SantaLucia_PasqualinoRossi.jpg,Tribuna della Chiesa di Santa Lucia
203,Chiese,Chiesa di S. Francesco ex conventuale,042049,Staffolo,,,,,,43.4335,13.1864,,http://www.visit.marche.it/Portals/1/Immagini/Chiese/Staffolo_Francesco.jpg,Particolare del portale d'ingresso della Chiesa di San Francesco
208,Chiese,Apiro – Chiesa di S. Francesco di Favete,043002,Apiro,Strada Vicinale di S. Francesco,19,+39.0733.611131 (Comune),comune@apiro.sinp.net,www.comune.apiro.mc.it,43.4291,13.1115,,http://www.visit.marche.it/Portals/1//Immagini/Chiese/Apiro_ChiesaSFrancescoFavete.JPG,"Apiro, Chiesa di San Francesco"
209,Chiese,Chiesa di S. Maria Apparente,043013,Civitanova Marche,"Via del Torrione,S. C. del Molino",,0733.898113,,www.chiesainrete.it,43.2883,13.6966,contattare il parroco,http://www.visit.marche.it/Portals/1/Immagini/Chiese/Civitanova_Apparente.jpg,Facciata della Chiesa di S. Maria Apparente
211,Chiese,Civitanova Marche - Chiesa di S. Agostino,043013,Civitanova Marche,Via S. Agostino,,,,,43.3164,13.6798,,http://www.visit.marche.it/Portals/1/Immagini/Chiese/Civitanova_Agostino.jpg,Auditorium di S. Agostino
212,Chiese,Chiesa di S. Paolo Apostolo,043013,Civitanova Marche,Piazza della Libertà,,0733.890106,,www.chiesainrete.it,43.3159,13.6808,orario per il culto,http://www.visit.marche.it/Portals/1/Immagini/Chiese/Civitanovamarche_PaoloApostolo.jpg,Facciata della Chiesa di San Paolo Apostolo
221,Chiese,Chiesa di S. Gregorio Magno,043025,Mogliano,Via Roma,,+39.0733.557771,info@sgregorio.it,www.sgregorio.it,43.1854,13.4788,,,
229,Chiese,"Montecosaro - Abbazia di S, Maria a piè di Chienti",043028,Montecosaro,Via Abadia,,0733.865241 Don Lauro Marinelli,parrocchia@santamariapiedichienti.it,www.santamariapiedichienti.it,43.2804,13.6399,,http://www.visit.marche.it/Portals/1/Immagini/MonasteriConventi/Montecosaro_NSM_SantaMariaPieDiChienti.jpg,Chiesa dell'Annunziata a piè di Chienti
237,Chiese,Chiesa di S. Francesco,043043,Potenza Picena,Largo Giacomo Leopardi,,,,,43.3672,13.6203,,http://www.visit.marche.it/Portals/1/Immagini/Chiese/PotenzaPicena_Francesco.jpg,Facciata della Chiesa di San Francesco
238,Chiese,Chiesa di S. Lorenzo Martire (detta anche dei Cappuccini),043043,Potenza Picena,Via dei Cappuccini,,,,,43.3694,13.629,,http://www.visit.marche.it/Portals/1/Immagini/Chiese/PotenzaPicena_Cappuccini.jpg,Prospetto del complesso monastico di S. Lorenzo (o Cappuccini)
240,Chiese,Fermo - Chiesa di S. Agostino,109006,Fermo,"Via Crivelli, Torre di Palme",1,0734.228738,iat.fermo@provincia.fm.it,www.comune.fermo.it,43.1417,13.8113,Sabato e domenica 17.00-20.00.,http://www.visit.marche.it/Portals/1/Immagini/Chiese/TorreDiPalme_SantAgostino.jpg,Particolare del Polittico di Vittore Crivelli
243,Chiese,Pieve di S. Anatolia,043016,Esanatoglia,Corso Vittorio Emanuele,,,,,43.2509,12.9448,,http://www.visit.marche.it/Portals/1/Immagini/Chiese/Esanatoglia_Gatta_2013_8002449.jpg,Facciata della Chiesa dei Ss. Anatolia e Martino
250,Chiese,Chiesa e Convento S. Francesco,043024,Matelica,Piazza S. Francesco,,0737.781858,segreteria@comune.matelica.mc.it,www.comune.matelica.mc.it,43.2572,13.0104,,,
268,Chiese,Visso - Santuario di S. Maria di Macereto,043057,Visso,S. P. di Macereto,,0737.518045,macereto@libero.it,www.santuariomacereto.it,42.9763,13.1157,"Dal 1 Maggio al 30 Settembre Lunedì e Mercoledì 15:00-19:00, Martedì chiuso, Giovedì e Venerdì 10:00-12:00 e 16:00-18:00, Sabato e Domenica 10:00-13:00 e 15:30-18:30",http://www.visit.marche.it/Portals/1/Immagini/Chiese/Visso_84copia.jpg,Veduta del Santuario di Macereto
270,Chiese,Visso - Chiesa della Collegiata di S. Maria,043057,Visso,Piazza Martiri Vissani,,,,,42.9313,13.0873,,http://www.visit.marche.it/Portals/1/Immagini/Chiese/Visso_SMaria.jpg,Chiesa di S. Maria della Pieve sulla Piazza Martiri Vissani e sullo sfondo la Chiesa di S. Agostino
276,Chiese,Chiesa di S. Maria del Carmine,109006,Fermo,Corso Cefalonia,,,,,43.1619,13.716,,http://www.visit.marche.it/Portals/1/Immagini/Chiese/Fermo_Carmine.jpg,Interno della Chiesa di S. Maria del Carmine
277,Chiese,"Fermo - Chiesa di S. Agostino,Oratorio di S. Monica",109006,Fermo,Via Girolamo Montani,1,0734.228738,iat.fermo@provincia.fm.it,www.fermo.net,43.1613,13.71,"Giugno sabato e domenica 17.00-20.00. Luglio e agosto giovedì, venerdì, sabato e domenica 17.00-20.00. Giovedì anche 21.00-23.00.",http://www.visit.marche.it/Portals/1/Immagini/Chiese/Fermo_SantAgostino_OratorioSantaMonica.jpg,Affreschi dell'Oratorio di Santa Monica nella Chiesa di Sant'Agostino
278,Chiese,Chiesa di S. Zenone,109006,Fermo,Largo Fogliani,,,,,43.161,13.7106,,http://www.visit.marche.it/Portals/1/Immagini/Chiese/Fermo_Zenone_2.JPG,Prospetto principale della Chiesa di S. Zenone
279,Chiese,Chiesa di S. Francesco,109006,Fermo,Largo Carlo Mora,,,,,43.1637,13.721,,http://www.visit.marche.it/Portals/1/Immagini/Chiese/Fermo_Francesco_facciata.jpg,Prospetto principale della Chiesa di San Francesco
280,Chiese,Fermo - Cattedrale di Santa Maria Assunta in Cielo,109006,Fermo,Piazza del Girfalco,,0734.229005,info@fermodiocesi.it,http://www.fermodiocesi.it/,43.1611,13.7164,,http://www.visit.marche.it/Portals/1/Immagini/Chiese/Fermo_Assunta.jpg,Facciata del Duomo della SS. Assunta
281,Chiese,Fermo - Chiesa di S. Filippo,109006,Fermo,Corso Cavour,,,,,43.1621,13.7136,,http://www.visit.marche.it/Portals/1/Immagini/Chiese/Fermo_FilippoNeri.jpg,Facciata della Chiesa di San Filippo Neri
283,Chiese,Chiesa di S. Domenico,109006,Fermo,Largo Maranesi,,,,,43.1608,13.7198,,http://www.visit.marche.it/Portals/1/Immagini/Chiese/Fermo_Domenico.jpg,Facciata della Chiesa di San Domenico
287,Chiese,Porto San Giorgio - Chiesa di S. Giorgio,109033,Porto San Giorgio,Piazza S. Giorgio,,,,,43.1804,13.7921,,http://www.visit.marche.it/Portals/1/Immagini/Chiese/PortoSanGiorgio_Giorgio.jpg,Facciata della Chiesa di San Giorgio con la fontana antistante
295,Chiese,Chiesa del Gesù,042002,Ancona,Piazza Benvenuto Stracca,,,,,43.6226,13.5113,,http://www.visit.marche.it/Portals/1/Immagini/Chiese/Ancona_Gesu.jpg,Prospetto principale della Chiesa del Gesù
299,Chiese,Chiesa di S. Giovanni Battista,042002,Ancona,Via Astagno,,,,,43.6153,13.5083,,http://www.visit.marche.it/Portals/1/Immagini/Chiese/Ancona_Battistaext.jpg,Facciata principale della Chiesa di S. Giovanni Battista
302,Chiese,Arcevia - Collegiata di S. Medardo,042003,Arcevia,Via Ramazzani 136,,0731.9444,donsergiozandri@alice.it,www.diocesisenigallia.it/parrocchia_di_san_medardo,43.5008,12.9408,Aperta tutti i giorni dalle 9.00 alle 12.00 e dalle 15.30 alle 19.00,http://www.visit.marche.it/Portals/1/Immagini/Chiese/Arcevia_collegiata_SanMedardo.jpg,Particolare del dossale d'altare di Giovanni della Robbia
303,Chiese,Chiesa di S. Francesco in Piazza,042003,Arcevia,Corso Mazzini,64,,,,43.5003,12.9407,,http://www.visit.marche.it/Portals/1/Immagini/Chiese/Arcevia_francesco.jpg,Chiesa di S. Francesco in Piazza
304,Chiese,Chiesa di S. Agata,042003,Arcevia,Corso Mazzini,,,,,43.4993,12.9388,,http://www.visit.marche.it/Portals/1/Immagini/Chiese/Arcevia_Agata.jpg,Chiesa di S. Agata
305,Chiese,Chiesa di S. Maria del Soccorso,042003,Arcevia,Largo Francesco Cesari,,,,,43.5009,12.9395,,http://www.visit.marche.it/Portals/1/Immagini/Chiese/Arcevia_Santa_Maria_del_Soccorso.jpg,Interno della Chiesa di S. Maria del Soccorso
306,Chiese,Chiesa di S. Francesco di Paola,042003,Arcevia,,,,,,43.4989,12.9415,,http://www.visit.marche.it/Portals/1/Immagini/Chiese/Arcevia_FrancescoPaola.jpg,Veduta dall'alto della Chiesa di S. Francesco di Paola
310,Chiese,Ex Chiesa di S. Giovanni con portale gotico,042003,Arcevia,Corso Mazzini,10,,,,43.499,12.9385,,http://www.visit.marche.it/Portals/1/Immagini/Chiese/Arcevia_Giovanni.jpg,Ex Chiesa di S. Giovanni con portale gotico
317,Chiese,Fabriano - Cattedrale di San Venanzio,042017,Fabriano,Via Cesare Balbo,5,0732.21823,aldomei@libero.it,http://www.fabriano-matelica.it/node/85,43.3353,12.904,Tutti i giorni 9.00-12.30 e 14.30-18.30. Domenica 9.00-12.30 e 16.00 alle 17.30,http://www.visit.marche.it/Portals/1/Immagini/Chiese/AN_06_Fabriano_Cattedrale.jpg,Orazione di Cristo nell'orto
319,Chiese,Chiesa di S. Agostino,042017,Fabriano,Via Ramelli,,,,,43.3401,12.9066,,http://www.visit.marche.it/Portals/1/Immagini/Chiese/Fabriano_Agostino.jpg,Portale della Chiesa di S. Agostino
320,Chiese,Chiesa di S. Lucia e S. Domenico,042017,Fabriano,Largo Spacca,,,,,43.3337,12.9028,,http://www.visit.marche.it/Portals/1/Immagini/Chiese/Fabriano_Chiesa_di_S_Domenico.jpg,Chiesa di S. Lucia e S. Domenico
321,Chiese,Chiesa di S. Benedetto e S. Silvestro,042017,Fabriano,Piazza Altini,,,,,43.3356,12.9025,,http://www.visit.marche.it/Portals/1/Immagini/Chiese/Fabriano_san-benedetto-.jpg,Interno della Chiesa di S. Benedetto e S. Silvestro
322,Chiese,Fabriano - Chiesa di S. Nicolo',042017,Fabriano,Piazza Cairoli,,0732.21269,iat.fabriano@provincia.ancona.it,www.fabrianoturismo.it,43.3378,12.9012,"Lunedì, mercoledì e venerdì 17.30-19.00. Domenica 9.30-12.00.",http://www.visit.marche.it/Portals/1/Immagini/Chiese/AN_05_Fabriano_SanNiccolo.jpg,San Michele Arcangelo
327,Chiese,Fabriano - Chiesa di S. Filippo,042017,Fabriano,Corso della Repubblica,,,,,43.3353,12.9054,,http://www.visit.marche.it/Portals/1/Immagini/Chiese/Fabriano_Filippo.jpg,Facciata della Chiesa di S. Filippo
329,Chiese,Chiesa di S. Onofrio,042017,Fabriano,Via Gentile,,,,,43.3378,12.9055,,http://www.visit.marche.it/Portals/1/Immagini/Chiese/Fabriano_Onofrio.jpg,Particolare del portale della Chiesa di S. Onofrio
341,Chiese,Sassoferrato - Monastero di S. Chiara,042044,Sassoferrato,Via Bentivoglio,1,0732.9135,sorores.sassoferrato@alice.it,www.monasterosantachiara.it,43.4359,12.8595,,,
343,Chiese,Sassoferrato - Chiesa e Convento di S. Francesco,042044,Sassoferrato,,,0732 956218 (Comune Ufficio Cultura),ufficiocultura@comune.sassoferrato.an.it,www.sassoferratocultura.it,43.4379,12.8627,,,
391,Chiese,Chiesa di S. Martino Vescovo,043032,Monte San Martino,Via Ricci 23,,0733.660107,comune@montesanmartino.sinp.net,www.comune.montesanmartino.mc.it,43.033,13.4402,,http://www.visit.marche.it/Portals/1/Immagini/Chiese/MonteSanMartino_ChiesaSanMartino.jpg,Particolare del Polittico di Carlo e Vittore Crivelli
393,Chiese,Chiesa  e Convento S. Francesco,043035,Penna San Giovanni,Via Giuseppe Colucci,,0733 669 119,comune@pennasangiovanni.sinp.net,www.comune.pennasangiovanni.mc.it,43.0565,13.4243,,,
396,Chiese,Pievebovigliana - Chiesa di S. Giusto in S. Maroto,043037,Pievebovigliana,Via S. Maroto,,,,,43.0944,13.1389,,http://www.visit.marche.it/Portals/1/Immagini/Chiese/Pievebovigliana_Gatta_2013_8002262.jpg,Chiesa di San Giusto e il territorio circostante
398,Chiese,San Ginesio - Chiesa della SS. Annunziata,043046,San Ginesio,Piazza Alberigo Gentili,,,,,43.1086,13.3195,,http://www.visit.marche.it/Portals/1/Immagini/Chiese/SanGinesio_Annunziata.jpg,Facciata della Chiesa della SS. Annunziata
404,Chiese,Sarnano - Chiesa di S. Maria Assunta,043049,Sarnano,Piazza Alta,,0733.658080,info@sarnano.com,www.sarnano.com,43.0362,13.3015,,http://www.visit.marche.it/Portals/1/Immagini/Chiese/Sarnano_SantaMariaDiPiazza.jpg,Particolare della cappella affrescata da Lorenzo d'Alessandro
