Accessibile;Longitudine;Note;gid;Nome;Latitudine
no;16.611671;;0;San Leonardo;40.662238
no;16.612691;;1;Cripta di Porta Empia o San Giacomo;40.666032
si;16.619395;;2;Cappuccino Vecchio;40.653033
no;16.6091869999999;;3;Santa Cesarea;40.669572
si;16.612207;;4;San Giovanni in Monterrone;40.663947
con guida;16.549305;;5;San Lupo al Guirro o Crocifisso al Guirro;40.644292
con guida;16.613344;;6;Madonna degli Angeli;40.669938
con guida;16.657816;;7;Santa Maria de Olivara o San Nicola all'Annunziata;40.605767
con guida;16.5129969999999;;8;Cripta del Cristo;40.6863239999999
si;16.610212;;9;Madonna delle Grazie;40.66398
con guida;16.695011;;10;Madonna del Giglio;40.602989
no;16.607911;;11;San Martino dei Lombardi;40.6661649999999
no;16.611242;;12;San Nicola de Cupa;40.662117
si;16.6084889999999;;13;San Rocco;40.667631
no;16.6123249999999;;14;San Potito;40.666527
con guida;16.635376;;15;San Michele di Serra Sant'Angelo;40.634684
no;16.653728;pericoloso;16;San Nicola al Saraceno;40.61598
si;16.615597;;17;Sant'Agnese;40.663594
con guida;16.681398;;18;Cappella di Sant'Andrea ' Masseria Irene;40.59367
no;16.486657;pericoloso;19;Cripta dei Grottini;40.704959
con guida;16.6104689999999;;20;Santi Simeone e Giuda;40.664526
si;16.635211;;21;Villaggio di Murgia Timone Porta orientale;40.672899
si;16.611778;;22;San Benedetto alla Civita;40.668148
si;16.6110049999999;;23;Santa Maria de Armenis;40.66228
si;16.618549;;24;Cappella di San Giovanni da Matera;40.670296
si;16.606296;;25;S. Maria della Palomba (3);40.679372
si;16.617422;;26;Beata Maria Vergine dei Derelitti;40.671016
si;16.609424;;27;San Pietro Barisano;40.6687289999999
si;16.6121209999999;;28;Inedita Rione Casalnuovo;40.662125
si;16.6187189999999;;29;Cappella di San Vito alla Murgia;40.666789
si;16.606259;;30;Torre della Fontana;40.666902
si;16.6092459999999;;31;Santi Pietro e Paolo;40.665413
no;16.636562;pericoloso;32;Sant'Angelo della Mensa;40.642729
si;16.607894;;33;SS. Crocifisso a Scattolino;40.649664
con guida;16.655456;;34;Cripta del Vitisciulo;40.616892
si;16.5926319999999;;35;SS. Crocifisso della Gravinella;40.68222
con guida;16.6354289999999;;36;Grotta Funeraria;40.634632
con guida;16.6160369999999;;37;Asceterio di Murgia Timone o di San Lupo;40.664807
si;16.6166109999999;;38;Cappella di Masseria Brucoli;40.677627
si;16.611885;;39;Crocifisso Vecchio;40.667495
con guida;16.631229;;40;Oratorio dell'Ofra;40.639251
con guida;16.610555;;41;Santo Stefano al Cinto;40.663257
;16.516013;;42;Cripta delle Tre Croci;40.684542
no;16.6097019999999;;43;Inedita vicino San Paolo;40.668571
si;16.612711;;44;Santa Lucia alle Malve;40.663333
si;16.610109;;45;San Guglielmo;40.670206
si;16.6097709999999;;46;San Placido;40.668953
con guida;16.620522;;47;Cappella di Acito San Campo;40.658633
con guida;16.671603;;48;Cripta della Scaletta;40.592993
si;16.611532;;49;San Nicola dei Greci;40.668241
distrutta;16.582816;;50;San Giacomo;40.67137
si;16.608753;;51;San Lorenzo dei Lombardi;40.666333
con guida;16.642554;;52;Cripta di Serritella;40.640787
si;16.6061179999999;;53;S. Maria della Palomba (2);40.679617
no;16.6358959999999;pericoloso;54;San Pellegrino;40.643714
si;16.6105759999999;;55;Santa Maria La Vetera;40.667163
con guida;16.638268;;56;San Giorgio a Trasano;40.675691
no;16.613119;;57;Inedita sotto Santa Maria;40.66617
no;16.631895;pericoloso;58;Grotta del Brigante Padovani;40.650058
no;16.617712;;59;Madonna dell'Abbondanza;40.654628
no;16.579646;pericoloso;60;Santa Lucia al Bradano o San Gennaro al Bradano;40.592227
no;16.651485;pericoloso;61;Santa Maria degli Almari;40.608724
no;16.639952;pericoloso;62;Asceterio San Campo;40.652546
no;16.633434;pericoloso;63;Oratorio dell'Agna;40.649346
si;16.610126;;64;Sant'Agostino;40.67004
no;16.611124;;65;San Nicola del Sole;40.668201
no;16.714044;pericoloso;66;San Leucio;40.599144
con guida;16.612262;;67;San Nicola a Chiancalata;40.649802
no;16.60929;;68;San Giovanni Vecchio;40.667186
no;16.610046;;69;San Paolo;40.668309
si;16.580884;;70;Cripta degli Evangelisti;40.6771379999999
si;16.612262;;71;Madonna De Idris;40.664087
con guida;16.612777;;72;San Francesco a Chiancalata;40.643599
si;16.616274;;73;Santa Barbara;40.658279
con guida;16.671741;;74;Santuario della Madonna della Murgia o Madonna della Loe;40.593522
si;16.613088;;75;Sant'Antonio Abate;40.661385
si;16.628913;;76;Cappella di S. Pietro in Principibus;40.677439
no;16.6094599999999;;77;Inedita in Via Sant'Agostino;40.670076
no;16.669789;pericoloso;78;Cappella di S. Eustachio di Selva Venusio;40.595266
si;16.611639;privatizzata;79;Cripta della Civita;40.667838
si;16.61137;;80;San Pietro alla Civita;40.66696
no;16.610212;;81;San Clemente;40.664338
si;16.617035;;82;Santuario della Madonna delle Tre Porte;40.663207
si;16.6103139999999;;83;San Nicola al Seminario;40.662494
no;16.607106;;84;Cappella dello Spirito Santo;40.6790179999999
no;16.600888;pericoloso;85;Cappella di Sant'Antuono delli Appisi;40.681007
con guida;16.615511;;86;Madonna di Monteverde;40.669328
con guida;16.639813;;87;Villaggio di Trasano;40.676529
con guida;16.569227;;88;Annunziata alla Stradella;40.682656
si;16.618597;;89;Madonna delle Vergini;40.67054
si;16.60848;;90;San Biagio (2);40.6684839999999
si;16.608045;;91;San Giovanni Battista;40.667765
no;16.63748;;92;San Michele all'Ofra;40.641471
no;16.609857;;93;San Bartolomeo;40.664095
no;16.6350489999999;;94;Cappella di San Nicola all'Ofra;40.640481
si;16.592991;;95;S. Maria della Valle Verde;40.684184
si;16.6319589999999;;96;Villaggio di Murgia Timone Porta occidentale;40.673273
si;16.62131;;97;Madonna della Rena;40.65075
no;16.608979;;98;Santa Croce;40.664884
no;16.612352;;99;Sant'Angelo de Civita;40.665526
si;16.6116059999999;;100;Madonna delle Virt??;40.668404
no;16.6427629999999;;101;Santuario di Laurienzo;40.616151
si;16.607831;;102;Chiesa degli Artisti o Cristo Flagellato;40.667639
con guida;16.6944109999999;;103;Cappella di Monsignor de Querquis;40.603754
con guida;16.603625;;104;Cripta del Pantano;40.6802139999999
con guida;16.6102379999999;;105;Sant'Antonio Abate (2);40.668233
si;16.614965;;106;Villaggio di Murgecchia;40.677655
con guida;16.671882;;107;Cappella di Sant'Andrea;40.5932859999999
si;16.606151;;108;S. Maria della Palomba (1);40.67943
si;16.620951;;109;Cappella di San Falcione;40.667203
si;16.60901;;110;San Vito dei Lombardi;40.666854
no;16.6123839999999;;111;San Pietro in Monterrone;40.663879
con guida;16.670228;;112;S. Stefano di Pandona;40.595047
con guida;16.608409;;113;San Biagio (1);40.668399
no;16.669768;;114;Cripta di Pandona;40.5944509999999
no;16.598908;;115;Grotta del Sole;40.681764
si;16.615936;;116;Asceterio di Sant'Agnese o di Santa Maria dell'Arco;40.664343
no;16.61268;;117;San Primo;40.661709
no;16.611736;;118;Sant'Eustachio de Posterga;40.667121
con guida;16.655864;;119;San Luca alla Selva;40.617111
no;16.517085;;120;San Pietro al Bracciolo;40.679304
con guida;16.624894;;121;Chiesa di Cristo Docente;40.646754
no;16.61211;;122;Inedita all'Idris;40.6642399999999
no;16.573782;;123;Santa Lucia alla Gravina o Santo Stasio alla Gravina;40.60562
no;16.685421;;124;Santa Maria della Verdesca;40.669913
no;16.609798;;125;Cripta Triabsidata;40.6676059999999
no;16.609193;;126;Inedita alla cava di San Pietro Barisano;40.668472
no;16.612047;;127;Santi Cosma e Damiano;40.667341
con guida;16.652183;;128;Cristo la Selva;40.616118
no;16.609901;;129;San Marco in Platea;40.6656809999999
no;16.513587;;130;San Nicola al Birmigiglio;40.688822
no;16.50243;;131;San Pietro in Lama;40.691605
no;16.6067299999999;;132;Santo Spirito;40.666935
si;16.611553;;133;SS. Crocifisso a Chiancalata;40.648704
con guida;16.606902;;134;Mater Domini;40.66698
con guida;16.671752;;135;Cripta del Canarino;40.591819
si;16.6068369999999;;136;San Domenico;40.667236
si;16.6290459999999;;137;Cappella di Sant'Elia;40.675739
no;16.693683;;138;Cappella di Cozzo Sant'Angelo;40.57594
si;16.620566;;139;Cappella della Madonna della Croce;40.659114
si;16.563333;;140;Cripta del Peccato Originale;40.620761
no;16.547159;;141;San Martino;40.6409769999999
no;16.5105189999999;;142;San Giacinto;40.687049
con guida;16.638224;;143;Cappella di S.M. Lamacacchiola;40.625906
no;16.619368;;144;Cappuccino Nuovo;40.653294
no;16.501422;;145;Cripta del Falco;40.692791
no;16.511721;;146;Chiesa del Casale del Cristo;40.683632
con guida;16.612991;;147;San Donato;40.66136
no;16.6128399999999;;148;Santa Maria Annunziata;40.661515
