Collegamenti internet;Longitudine;gid;Nome;Tipologia;Latitudine
http://www.academia.edu/1497994/F._SOGLIANI_D._ROUBIS_Strategies_and_new_technologies_for_urban_archaeology_Matera_a_town_of_Unesco_World_Heritage_pp._283-298;16.6121;0;Necropoli Madonna dell'Idris;Necropoli;40.66407
http://www.academia.edu/1497994/F._SOGLIANI_D._ROUBIS_Strategies_and_new_technologies_for_urban_archaeology_Matera_a_town_of_Unesco_World_Heritage_pp._283-298;16.61247;1;Chiesa di Santa Lucia alle Malve;Chiesa rupestre;40.66317
http://www.academia.edu/1497994/F._SOGLIANI_D._ROUBIS_Strategies_and_new_technologies_for_urban_archaeology_Matera_a_town_of_Unesco_World_Heritage_pp._283-298;16.61233;2;Necropoli di Santa Lucia alle Malve;Necropoli;40.66308
http://www.academia.edu/1497994/F._SOGLIANI_D._ROUBIS_Strategies_and_new_technologies_for_urban_archaeology_Matera_a_town_of_Unesco_World_Heritage_pp._283-298;16.60915;3;Piazza San Francesco;Necropoli;40.66503
http://www.academia.edu/1497994/F._SOGLIANI_D._ROUBIS_Strategies_and_new_technologies_for_urban_archaeology_Matera_a_town_of_Unesco_World_Heritage_pp._283-298;16.60886;4;Banca d'Italia;Necropoli;40.66553
