{"version":0.6,
"generator":"Overpass API",
"osm3s":{"timestamp_osm_base":"2016-06-22T06:46:02Z","timestamp_areas_base":"2016-06-20T10:06:03Z","copyright":"The data included in this document is from www.openstreetmap.org. The data is made available under ODbL."},
"elements": [
{"type":"node","id":3907388152,"lat":39.5061695,"lon":16.3826937,"timestamp":"2015-12-23T23:29:14Z","version":1,"changeset":36136610,"user":"Fastbyte01","uid":3427222,"tags":{"amenity":"bar","addr:city":"Acri"}},
{"type":"node","id":3907388170,"lat":39.5003762,"lon":16.3883496,"timestamp":"2015-12-23T23:29:14Z","version":1,"changeset":36136610,"user":"Fastbyte01","uid":3427222,"tags":{"amenity":"bar","addr:city":"Acri"}},
{"type":"node","id":3907388171,"lat":39.5010985,"lon":16.3928853,"timestamp":"2015-12-23T23:29:15Z","version":1,"changeset":36136610,"user":"Fastbyte01","uid":3427222,"tags":{"amenity":"bar","addr:city":"Acri"}},
{"type":"node","id":3907388114,"lat":39.5328813,"lon":16.3834608,"timestamp":"2015-12-23T23:29:13Z","version":1,"changeset":36136610,"user":"Fastbyte01","uid":3427222,"tags":{"amenity":"bar","addr:city":"Acri"}},
{"type":"node","id":3907388113,"lat":39.5444463,"lon":16.3716966,"timestamp":"2015-12-23T23:29:13Z","version":1,"changeset":36136610,"user":"Fastbyte01","uid":3427222,"tags":{"amenity":"drinking_water","addr:city":"Acri"}},
{"type":"node","id":2368309127,"lat":39.4886521,"lon":16.3830106,"timestamp":"2013-07-01T10:29:42Z","version":1,"changeset":16775299,"user":"Garr Otto","uid":1572306,"tags":{"amenity":"restaurant","name":"Old Movie","addr:city":"Acri"}},
{"type":"node","id":2358245074,"lat":39.4883267,"lon":16.389191,"timestamp":"2013-06-24T07:14:00Z","version":1,"changeset":16679611,"user":"Garr Otto","uid":1572306,"tags":{"amenity":"restaurant","name":"Ristorante Romano","addr:city":"Acri"}},
{"type":"node","id":2362913511,"lat":39.4983613,"lon":16.3831775,"timestamp":"2013-06-27T10:25:33Z","version":1,"changeset":16724131,"user":"Garr Otto","uid":1572306,"tags":{"amenity":"restaurant","cuisine":"italian","name":"Ristorante Venere","addr:city":"Acri"}},
{"type":"node","id":3907388139,"lat":39.5106436,"lon":16.3904426,"timestamp":"2015-12-23T23:29:14Z","version":1,"changeset":36136610,"user":"Fastbyte01","uid":3427222,"tags":{"amenity":"restaurant","addr:city":"Acri"}},
{"type":"node","id":3907388133,"lat":39.5120155,"lon":16.3913492,"timestamp":"2015-12-23T23:29:14Z","version":1,"changeset":36136610,"user":"Fastbyte01","uid":3427222,"tags":{"amenity":"restaurant","addr:city":"Acri"}},
{"type":"node","id":3907388112,"lat":39.5471496,"lon":16.3704896,"timestamp":"2015-12-23T23:29:13Z","version":1,"changeset":36136610,"user":"Fastbyte01","uid":3427222,"tags":{"amenity":"restaurant","cuisine":"italian","addr:city":"Acri"}},
{"type":"node","id":2355778555,"lat":39.497745,"lon":16.3900569,"timestamp":"2014-03-14T16:43:50Z","version":2,"changeset":21102477,"user":"Garr Otto","uid":1572306,"tags":{"amenity":"fuel","name":"Esso","addr:city":"Acri"}},
{"type":"node","id":2717300610,"lat":39.5265648,"lon":16.4561568,"timestamp":"2014-03-14T15:33:10Z","version":1,"changeset":21101368,"user":"Garr Otto","uid":1572306,"tags":{"amenity":"fuel","name":"Benzina","operator":"Esso","addr:city":"Acri"}},
{"type":"node","id":2358340828,"lat":39.4911416,"lon":16.388778,"timestamp":"2014-03-11T10:01:50Z","version":2,"changeset":21041634,"user":"Garr Otto","uid":1572306,"tags":{"amenity":"parking","capacity":"15","name":"Parcheggi Ospedale Gratuito","addr:city":"Acri"}},
{"type":"node","id":2368309212,"lat":39.4887386,"lon":16.3831105,"timestamp":"2013-07-01T10:29:43Z","version":1,"changeset":16775299,"user":"Garr Otto","uid":1572306,"tags":{"amenity":"bank","atm":"yes","name":"UBI Banca Carime","addr:city":"Acri"}},
{"type":"node","id":2358340869,"lat":39.4914873,"lon":16.3893333,"timestamp":"2014-03-11T10:01:50Z","version":3,"changeset":21041634,"user":"Garr Otto","uid":1572306,"tags":{"amenity":"hospital","emergency":"yes","name":"Presidio ospedalaliere Beato Angelo","addr:city":"Acri"}},
{"type":"node","id":2365410695,"lat":39.4910923,"lon":16.3830241,"timestamp":"2013-06-29T09:14:35Z","version":1,"changeset":16749310,"user":"Garr Otto","uid":1572306,"tags":{"amenity":"fountain","name":"Fontana Piazza Matteotti","addr:city":"Acri"}},
{"type":"node","id":4162993006,"lat":39.5089586,"lon":16.3729634,"timestamp":"2016-05-03T10:17:04Z","version":1,"changeset":39063040,"user":"Garr Otto","uid":1572306,"tags":{"amenity":"fountain","name":"Acqua potabile","addr:city":"Acri"}},
{"type":"node","id":2355778562,"lat":39.4957452,"lon":16.3876354,"timestamp":"2013-06-22T09:58:27Z","version":1,"changeset":16653953,"user":"Garr Otto","uid":1572306,"tags":{"amenity":"theatre","addr:city":"Acri"}},
{"type":"node","id":2358416324,"lat":39.5005635,"lon":16.4052467,"timestamp":"2013-06-24T10:18:49Z","version":1,"changeset":16680703,"user":"Garr Otto","uid":1572306,"tags":{"amenity":"fire_station","addr:city":"Acri"}},
{"type":"node","id":2358340893,"lat":39.4884757,"lon":16.3808655,"timestamp":"2013-06-24T09:28:50Z","version":1,"changeset":16680703,"user":"Garr Otto","uid":1572306,"tags":{"amenity":"marketplace","name":"Mercato ogni sabato","addr:city":"Acri"}},
{"type":"node","id":2435419618,"lat":39.4884757,"lon":16.3808655,"timestamp":"2015-09-12T17:16:47Z","version":2,"changeset":33984209,"user":"Garr Otto","uid":1572306,"tags":{"amenity":"marketplace","name":"Piazza Purgatoio","note":"Zona in cui si effettua il mercato il sabato mattina","addr:city":"Acri"}},
{"type":"node","id":2358340885,"lat":39.4872789,"lon":16.3851395,"timestamp":"2016-06-11T17:00:12Z","version":2,"changeset":39956500,"user":"Garr Otto","uid":1572306,"tags":{"amenity":"place_of_worship","denomination":"Convento Padri Cappuccini","name":"Basilica Beato Angelo D'Acri","religion":"christian","addr:city":"Acri"}},
{"type":"node","id":2368755242,"lat":39.5125489,"lon":16.3908553,"timestamp":"2013-07-01T15:44:00Z","version":1,"changeset":16779464,"user":"Garr Otto","uid":1572306,"tags":{"amenity":"place_of_worship","building":"yes","name":"Chiesa Duglia","religion":"christian","addr:city":"Acri"}},
{"type":"node","id":2358245078,"lat":39.4896593,"lon":16.3827026,"timestamp":"2016-03-25T15:54:25Z","version":4,"changeset":38065562,"user":"Garr Otto","uid":1572306,"tags":{"amenity":"police","name":"Carabinieri di Acri","operator":"Arma dei Carabinieri","addr:city":"Acri"}},
{"type":"node","id":2358340904,"lat":39.4914437,"lon":16.3847578,"timestamp":"2014-02-25T11:27:53Z","version":2,"changeset":20768251,"user":"Garr Otto","uid":1572306,"tags":{"amenity":"police","name":"Polizia Municipale","addr:city":"Acri"}},
{"type":"node","id":2358245076,"lat":39.4905043,"lon":16.3854681,"timestamp":"2013-06-24T07:14:00Z","version":1,"changeset":16679611,"user":"Garr Otto","uid":1572306,"tags":{"amenity":"toilets","addr:city":"Acri"}},
{"type":"node","id":2715663888,"lat":39.4870153,"lon":16.3810243,"timestamp":"2014-03-13T16:32:43Z","version":1,"changeset":21085266,"user":"Garr Otto","uid":1572306,"tags":{"historic":"monument","name":"Statua di Giovanni Battista Falcone di Acri","wikipedia":"it:Giovan Battista Falcone","addr:city":"Acri"}},
{"type":"node","id":2358307798,"lat":39.4998515,"lon":16.3813912,"timestamp":"2013-06-24T08:43:42Z","version":1,"changeset":16680703,"user":"Garr Otto","uid":1572306,"tags":{"leisure":"sports_centre","name":"Palazzetto","addr:city":"Acri"}},
{"type":"node","id":2358307802,"lat":39.4990319,"lon":16.3814019,"timestamp":"2013-06-24T08:43:42Z","version":1,"changeset":16680703,"user":"Garr Otto","uid":1572306,"tags":{"leisure":"sports_centre","name":"Bocciodromo Comunale","addr:city":"Acri"}},
{"type":"node","id":3907388150,"lat":39.5063309,"lon":16.3829002,"timestamp":"2015-12-23T23:29:14Z","version":1,"changeset":36136610,"user":"Fastbyte01","uid":3427222,"tags":{"leisure":"sports_centre","addr:city":"Acri"}},
{"type":"node","id":2368309185,"lat":39.4923713,"lon":16.3801735,"timestamp":"2013-07-01T10:29:43Z","version":1,"changeset":16775299,"user":"Garr Otto","uid":1572306,"tags":{"name":"Conad","shop":"supermarket","addr:city":"Acri"}},
{"type":"node","id":2358340916,"lat":39.4946233,"lon":16.3842665,"timestamp":"2013-06-24T09:28:51Z","version":1,"changeset":16680703,"user":"Garr Otto","uid":1572306,"tags":{"name":"S4","shop":"supermarket","addr:city":"Acri"}},
{"type":"node","id":3907388180,"lat":39.4923828,"lon":16.3885669,"timestamp":"2015-12-23T23:29:15Z","version":1,"changeset":36136610,"user":"Fastbyte01","uid":3427222,"tags":{"shop":"supermarket","addr:city":"Acri"}},
{"type":"node","id":3907388140,"lat":39.5092116,"lon":16.3826588,"timestamp":"2015-12-23T23:29:14Z","version":1,"changeset":36136610,"user":"Fastbyte01","uid":3427222,"tags":{"shop":"supermarket","addr:city":"Acri"}},
{"type":"node","id":3907388173,"lat":39.5006287,"lon":16.3913054,"timestamp":"2015-12-23T23:29:15Z","version":1,"changeset":36136610,"user":"Fastbyte01","uid":3427222,"tags":{"shop":"supermarket","addr:city":"Acri"}},
{"type":"node","id":2358416344,"lat":39.4993166,"lon":16.4059911,"timestamp":"2014-09-12T14:33:20Z","version":2,"changeset":25391886,"user":"Garr Otto","uid":1572306,"tags":{"name":"Famila","shop":"supermarket","addr:city":"Acri"}},
{"type":"node","id":3907388151,"lat":39.5062544,"lon":16.3829082,"timestamp":"2015-12-23T23:29:14Z","version":1,"changeset":36136610,"user":"Fastbyte01","uid":3427222,"tags":{"shop":"electronics","addr:city":"Acri"}},
{"type":"node","id":3907388172,"lat":39.5011606,"lon":16.3923354,"timestamp":"2015-12-23T23:29:15Z","version":1,"changeset":36136610,"user":"Fastbyte01","uid":3427222,"tags":{"shop":"electronics","addr:city":"Acri"}},
{"type":"node","id":2355778603,"lat":39.4877264,"lon":16.3835745,"timestamp":"2013-06-22T09:58:27Z","version":1,"changeset":16653953,"user":"Garr Otto","uid":1572306,"tags":{"name":"Maca","tourism":"museum","addr:city":"Acri"}},

{"type":"node","id":2822658542,"lat":39.1170997,"lon":16.1673129,"timestamp":"2014-04-28T13:36:21Z","version":1,"changeset":22002145,"user":"Danilo Amendola","uid":1212356,"tags":{"amenity":"bar","name":"Bar Art Caffé","addr:city":"Aiello Calabro"}},
{"type":"node","id":2822658543,"lat":39.1169763,"lon":16.1670635,"timestamp":"2014-04-28T13:36:21Z","version":1,"changeset":22002145,"user":"Danilo Amendola","uid":1212356,"tags":{"amenity":"bar","addr:city":"Aiello Calabro"}},
{"type":"node","id":2822700122,"lat":39.1176434,"lon":16.1666534,"timestamp":"2014-04-28T13:46:32Z","version":1,"changeset":22002324,"user":"Danilo Amendola","uid":1212356,"tags":{"amenity":"doctors","name":"Studio Medico Nicastro","addr:city":"Aiello Calabro"}},
{"type":"node","id":2822700123,"lat":39.117358,"lon":16.1668965,"timestamp":"2014-04-28T13:46:32Z","version":1,"changeset":22002324,"user":"Danilo Amendola","uid":1212356,"tags":{"amenity":"doctors","name":"Studio Medico Ianni Lucio","addr:city":"Aiello Calabro"}},
{"type":"node","id":2822738219,"lat":39.1157445,"lon":16.1656231,"timestamp":"2015-04-02T00:03:40Z","version":3,"changeset":29918071,"user":"mcheckimport","uid":893327,"tags":{"addr:city":"Aiello Calabro","addr:housenumber":"19","addr:street":"Via De Seta","amenity":"pharmacy","dispensing":"yes","name":"Farmacia San Giuseppe","phone":"+39 0982 43380","myadd:city":"Aiello Calabro"}},
{"type":"node","id":2822658509,"lat":39.1166522,"lon":16.1651213,"timestamp":"2014-04-28T13:36:20Z","version":1,"changeset":22002145,"user":"Danilo Amendola","uid":1212356,"tags":{"amenity":"theatre","name":"Teatro Comunale di Aiello Calabro","operator":"Comune di Aiello Calabro","addr:city":"Aiello Calabro"}},
{"type":"node","id":2822658544,"lat":39.1167153,"lon":16.1669043,"timestamp":"2014-04-28T13:36:21Z","version":1,"changeset":22002145,"user":"Danilo Amendola","uid":1212356,"tags":{"shop":"newsagent","addr:city":"Aiello Calabro"}},
{"type":"node","id":2972710508,"lat":39.9266085,"lon":15.828758,"timestamp":"2014-07-21T09:01:34Z","version":1,"changeset":24268743,"user":"Wolfgang Mück","uid":1293257,"tags":{"amenity":"drinking_water","addr:city":"Aieta"}},
{"type":"node","id":2972710565,"lat":39.9283393,"lon":15.8247447,"timestamp":"2014-07-21T09:01:35Z","version":1,"changeset":24268743,"user":"Wolfgang Mück","uid":1293257,"tags":{"amenity":"restaurant","name":"Le Due Lanterne","addr:city":"Aieta"}},
{"type":"node","id":2972710507,"lat":39.939549,"lon":15.8409286,"timestamp":"2014-07-21T09:01:34Z","version":1,"changeset":24268743,"user":"Wolfgang Mück","uid":1293257,"tags":{"amenity":"restaurant","addr:city":"Aieta"}},
{"type":"node","id":2972710564,"lat":39.9293254,"lon":15.8238498,"timestamp":"2014-07-21T09:01:35Z","version":1,"changeset":24268743,"user":"Wolfgang Mück","uid":1293257,"tags":{"historic":"castle","name":"Palazzo marchionale Martirano-Spinelli XVI secolo","addr:city":"Aieta"}},
{"type":"node","id":1621585065,"lat":39.1318054,"lon":16.2426111,"timestamp":"2012-02-07T12:59:50Z","version":2,"changeset":10611832,"user":"tourbiker64","uid":524938,"tags":{"amenity":"bar","addr:city":"Altilia"}},
{"type":"node","id":1621585353,"lat":39.1335618,"lon":16.2442424,"timestamp":"2012-02-07T12:54:56Z","version":1,"changeset":10611832,"user":"tourbiker64","uid":524938,"tags":{"amenity":"bar","addr:city":"Altilia"}},
{"type":"node","id":1621585354,"lat":39.1339279,"lon":16.2460127,"timestamp":"2012-02-07T12:54:56Z","version":1,"changeset":10611832,"user":"tourbiker64","uid":524938,"tags":{"amenity":"restaurant","addr:city":"Altilia"}},
{"type":"node","id":1621589264,"lat":39.1330708,"lon":16.244296,"timestamp":"2012-02-07T12:59:50Z","version":1,"changeset":10611832,"user":"tourbiker64","uid":524938,"tags":{"amenity":"post_office","addr:city":"Altilia"}},
{"type":"node","id":3870793021,"lat":39.6987668,"lon":16.1282359,"timestamp":"2015-12-01T13:25:27Z","version":1,"changeset":35684426,"user":"Lino G","uid":2616629,"tags":{"amenity":"parking","capacity":"10","fee":"yes","surface":"asphalt","addr:city":"Altomonte"}},
{"type":"node","id":2942448340,"lat":39.1334948,"lon":16.0723193,"timestamp":"2014-07-01T19:45:56Z","version":1,"changeset":23417113,"user":"dromedar61","uid":542047,"tags":{"addr:city":"Amantea","addr:country":"IT","addr:housenumber":"92","addr:postcode":"87032","addr:street":"Via Dogana","amenity":"restaurant","cuisine":"italian","name":"Due Bicchieri","phone":"+39 0982 424 409","myadd:city":"Amantea"}},
{"type":"node","id":228132215,"lat":39.051668,"lon":16.09555,"timestamp":"2014-03-04T14:26:12Z","version":4,"changeset":20911091,"user":"Aury88","uid":579545,"tags":{"amenity":"fuel","brand":"Agip","name":"Agip","operator":"Agip","addr:city":"Amantea"}},
{"type":"node","id":3054424787,"lat":39.1422928,"lon":16.0674785,"timestamp":"2014-09-01T20:52:22Z","version":1,"changeset":25169928,"user":"DnaX","uid":69259,"tags":{"amenity":"fuel","addr:city":"Amantea"}},
{"type":"node","id":2002566493,"lat":39.1345181,"lon":16.0719784,"timestamp":"2012-11-08T13:57:21Z","version":1,"changeset":13797320,"user":"maorin","uid":897063,"tags":{"amenity":"fuel","addr:city":"Amantea"}},
{"type":"node","id":1923309770,"lat":39.1352396,"lon":16.0746687,"timestamp":"2012-09-20T06:56:12Z","version":1,"changeset":13179766,"user":"maorin","uid":897063,"tags":{"amenity":"cinema","name":"Arena Sicoli","source":"survey","addr:city":"Amantea"}},
{"type":"node","id":1923330238,"lat":39.1323061,"lon":16.0756182,"timestamp":"2012-09-20T07:26:51Z","version":1,"changeset":13179766,"user":"maorin","uid":897063,"tags":{"amenity":"marketplace","name":"Mercato","addr:city":"Amantea"}},
{"type":"node","id":1923322118,"lat":39.131478,"lon":16.0788905,"timestamp":"2014-09-01T20:52:23Z","version":2,"changeset":25169928,"user":"DnaX","uid":69259,"tags":{"amenity":"place_of_worship","denomination":"catholic","religion":"christian","addr:city":"Amantea"}},
{"type":"node","id":2002527013,"lat":39.1378447,"lon":16.0705434,"timestamp":"2012-11-08T13:05:57Z","version":1,"changeset":13797320,"user":"maorin","uid":897063,"tags":{"leisure":"playground","name":"Parco La Grotta","addr:city":"Amantea"}},
{"type":"node","id":1923328961,"lat":39.132123,"lon":16.0759186,"timestamp":"2012-09-20T07:25:48Z","version":1,"changeset":13179766,"user":"maorin","uid":897063,"tags":{"name":"Forno del Mercato","shop":"bakery","addr:city":"Amantea"}},
{"type":"node","id":4200694010,"lat":39.1351914,"lon":16.0696055,"timestamp":"2016-05-22T19:26:48Z","version":2,"changeset":39494414,"user":"Walter Schlögl","uid":78656,"tags":{"name":"Lidl","shop":"supermarket","addr:city":"Amantea"}},
{"type":"node","id":3634022201,"lat":39.9185976,"lon":16.585216,"timestamp":"2015-07-04T09:28:51Z","version":1,"changeset":32405340,"user":"dgitto","uid":554973,"tags":{"amenity":"fuel","brand":"Ip","fuel:diesel":"yes","fuel:lpg":"yes","fuel:octane_95":"yes","name":"Ip","addr:city":"Amendolara"}},
{"type":"node","id":3634022616,"lat":39.9530557,"lon":16.618448,"timestamp":"2015-07-04T09:28:53Z","version":1,"changeset":32405340,"user":"dgitto","uid":554973,"tags":{"amenity":"fuel","brand":"Totalerg","fuel:diesel":"yes","fuel:octane_95":"yes","name":"way 0","addr:city":"Amendolara"}},
{"type":"node","id":2013355253,"lat":39.94245,"lon":16.5925184,"timestamp":"2012-11-14T07:20:10Z","version":1,"changeset":13868077,"user":"venerdi","uid":196617,"tags":{"man_made":"tower","tower:type":"communication","addr:city":"Amendolara"}},
{"type":"node","id":3496466205,"lat":39.1684993,"lon":16.5371183,"timestamp":"2016-01-26T19:54:47Z","version":2,"changeset":36824159,"user":"Ale_Zena_IT","uid":22290,"tags":{"addr:street":"SS179","amenity":"restaurant","name":"Capriolo","addr:city":"Aprigliano"}},
{"type":"node","id":1947638859,"lat":39.2395731,"lon":16.3287208,"timestamp":"2012-10-05T14:56:17Z","version":1,"changeset":13373971,"user":"Vittorio Lascala","uid":690221,"tags":{"name":"Aprigliano","platforms":"2","railway":"station","addr:city":"Aprigliano"}},
{"type":"node","id":3054430794,"lat":39.1640234,"lon":16.0840793,"timestamp":"2014-09-01T20:47:01Z","version":1,"changeset":25169802,"user":"DnaX","uid":69259,"tags":{"amenity":"place_of_worship","denomination":"catholic","religion":"christian","addr:city":"Belmonte Calabro"}},
{"type":"node","id":226949172,"lat":39.6236256,"lon":15.848529,"timestamp":"2014-03-04T14:26:13Z","version":5,"changeset":20911091,"user":"Aury88","uid":579545,"tags":{"amenity":"fuel","brand":"Agip","name":"Agip","operator":"Agip","addr:city":"Belvedere Marittimo"}},
{"type":"node","id":3815590402,"lat":39.6496229,"lon":15.9197065,"timestamp":"2015-11-03T14:28:56Z","version":2,"changeset":35057103,"user":"Vesuviano","uid":3343608,"tags":{"ele":"1355","name":"Rifugio Belvedere","tourism":"alpine_hut","addr:city":"Belvedere Marittimo"}},
{"type":"node","id":1269260831,"lat":39.1011135,"lon":16.4084273,"timestamp":"2012-10-05T16:06:46Z","version":4,"changeset":13373971,"user":"Vittorio Lascala","uid":690221,"tags":{"name":"Bianchi","operator":"Ferrovie della Calabria","railway":"station","addr:city":"Bianchi"}},
{"type":"node","id":3734069504,"lat":39.5029878,"lon":16.265346,"timestamp":"2015-09-21T16:36:04Z","version":3,"changeset":34165683,"user":"danidoedel","uid":3164012,"tags":{"amenity":"bar","addr:city":"Bisignano"}},
{"type":"node","id":696483622,"lat":39.4994587,"lon":16.2762743,"timestamp":"2015-09-07T07:49:10Z","version":4,"changeset":33849549,"user":"alex464655926","uid":3215319,"tags":{"amenity":"bar","name":"Bar Longo","addr:city":"Bisignano"}},
{"type":"node","id":3731804539,"lat":39.5014572,"lon":16.2726347,"timestamp":"2015-09-21T16:35:36Z","version":3,"changeset":34165683,"user":"danidoedel","uid":3164012,"tags":{"amenity":"bar","addr:city":"Bisignano"}},
{"type":"node","id":3732558789,"lat":39.4999596,"lon":16.2757379,"timestamp":"2015-09-21T16:36:04Z","version":3,"changeset":34165683,"user":"danidoedel","uid":3164012,"tags":{"amenity":"bar","addr:city":"Bisignano"}},
{"type":"node","id":3734052377,"lat":39.5009265,"lon":16.2739747,"timestamp":"2015-09-21T16:36:04Z","version":3,"changeset":34165683,"user":"danidoedel","uid":3164012,"tags":{"amenity":"bar","addr:city":"Bisignano"}},
{"type":"node","id":3731806011,"lat":39.5025966,"lon":16.2684895,"timestamp":"2015-09-08T07:13:20Z","version":2,"changeset":33874179,"user":"alex464655926","uid":3215319,"tags":{"amenity":"bar","addr:city":"Bisignano"}},
{"type":"node","id":3740284904,"lat":39.512458,"lon":16.2848981,"timestamp":"2015-09-12T15:11:30Z","version":1,"changeset":33982116,"user":"alex464655926","uid":3215319,"tags":{"amenity":"bar","addr:city":"Bisignano"}},
{"type":"node","id":3740284908,"lat":39.5125785,"lon":16.2856652,"timestamp":"2015-09-12T15:17:57Z","version":2,"changeset":33982217,"user":"alex464655926","uid":3215319,"tags":{"amenity":"bar","addr:city":"Bisignano"}},
{"type":"node","id":3740284895,"lat":39.5140977,"lon":16.2852638,"timestamp":"2015-09-21T16:36:05Z","version":5,"changeset":34165683,"user":"danidoedel","uid":3164012,"tags":{"amenity":"bar","addr:city":"Bisignano"}},
{"type":"node","id":3740284900,"lat":39.5126166,"lon":16.2864264,"timestamp":"2015-09-12T15:11:29Z","version":1,"changeset":33982116,"user":"alex464655926","uid":3215319,"tags":{"amenity":"bar","addr:city":"Bisignano"}},
{"type":"node","id":3740284901,"lat":39.5126029,"lon":16.2861931,"timestamp":"2015-09-12T15:11:29Z","version":1,"changeset":33982116,"user":"alex464655926","uid":3215319,"tags":{"amenity":"bar","addr:city":"Bisignano"}},
{"type":"node","id":3740284894,"lat":39.5138979,"lon":16.2864027,"timestamp":"2015-09-21T16:36:05Z","version":3,"changeset":34165683,"user":"danidoedel","uid":3164012,"tags":{"amenity":"bar","addr:city":"Bisignano"}},
{"type":"node","id":3740289658,"lat":39.5169652,"lon":16.2841566,"timestamp":"2015-09-12T15:17:56Z","version":1,"changeset":33982217,"user":"alex464655926","uid":3215319,"tags":{"amenity":"bar","addr:city":"Bisignano"}},
{"type":"node","id":3740289660,"lat":39.5169393,"lon":16.2843267,"timestamp":"2015-09-21T16:36:05Z","version":3,"changeset":34165683,"user":"danidoedel","uid":3164012,"tags":{"amenity":"fast_food","addr:city":"Bisignano"}},
{"type":"node","id":3734069505,"lat":39.5029919,"lon":16.2652682,"timestamp":"2015-09-21T16:35:57Z","version":3,"changeset":34165683,"user":"danidoedel","uid":3164012,"tags":{"amenity":"restaurant","cuisine":"pizza","name":"Pinocchio","addr:city":"Bisignano"}},
{"type":"node","id":3734069810,"lat":39.5029216,"lon":16.2645065,"timestamp":"2015-09-21T16:36:04Z","version":3,"changeset":34165683,"user":"danidoedel","uid":3164012,"tags":{"amenity":"restaurant","addr:city":"Bisignano"}},
{"type":"node","id":3732558515,"lat":39.4994239,"lon":16.2763779,"timestamp":"2015-09-08T06:55:47Z","version":2,"changeset":33873928,"user":"alex464655926","uid":3215319,"tags":{"amenity":"restaurant","cuisine":"pizza","name":"pizza si","addr:city":"Bisignano"}},
{"type":"node","id":3734052382,"lat":39.4996723,"lon":16.2758656,"timestamp":"2015-09-21T16:35:57Z","version":3,"changeset":34165683,"user":"danidoedel","uid":3164012,"tags":{"amenity":"restaurant","cuisine":"pizza","name":"arte pizza","addr:city":"Bisignano"}},
{"type":"node","id":324756402,"lat":39.5122734,"lon":16.285339,"timestamp":"2015-09-12T15:11:30Z","version":3,"changeset":33982116,"user":"alex464655926","uid":3215319,"tags":{"amenity":"library","name":"Biblioteca","addr:city":"Bisignano"}},
{"type":"node","id":3734975022,"lat":39.4903284,"lon":16.2421368,"timestamp":"2015-09-08T19:39:08Z","version":1,"changeset":33891990,"user":"alex464655926","uid":3215319,"tags":{"amenity":"car_wash","addr:city":"Bisignano"}},
{"type":"node","id":3734975019,"lat":39.4902666,"lon":16.2438106,"timestamp":"2015-09-08T19:39:08Z","version":1,"changeset":33891990,"user":"alex464655926","uid":3215319,"tags":{"amenity":"fuel","name":"Q8","addr:city":"Bisignano"}},
{"type":"node","id":3731794322,"lat":39.5008831,"lon":16.2737245,"timestamp":"2015-09-06T16:00:04Z","version":2,"changeset":33836025,"user":"alex464655926","uid":3215319,"tags":{"amenity":"fuel","name":"Tamoil","addr:city":"Bisignano"}},
{"type":"node","id":3732555626,"lat":39.5052081,"lon":16.2761107,"timestamp":"2015-09-07T07:42:33Z","version":1,"changeset":33849388,"user":"alex464655926","uid":3215319,"tags":{"amenity":"fuel","name":"Tamoil","addr:city":"Bisignano"}},
{"type":"node","id":338493770,"lat":39.513452,"lon":16.2874721,"timestamp":"2015-09-21T16:36:03Z","version":8,"changeset":34165683,"user":"danidoedel","uid":3164012,"tags":{"amenity":"bank","atm":"yes","addr:city":"Bisignano"}},
{"type":"node","id":338493925,"lat":39.5144758,"lon":16.2858917,"timestamp":"2015-09-21T16:36:03Z","version":4,"changeset":34165683,"user":"danidoedel","uid":3164012,"tags":{"amenity":"bank","addr:city":"Bisignano"}},
{"type":"node","id":338493955,"lat":39.5138038,"lon":16.2868873,"timestamp":"2015-09-07T07:34:20Z","version":3,"changeset":33849192,"user":"alex464655926","uid":3215319,"tags":{"amenity":"doctors","addr:city":"Bisignano"}},
{"type":"node","id":696483034,"lat":39.5024236,"lon":16.2682875,"timestamp":"2015-09-06T16:03:20Z","version":4,"changeset":33836102,"user":"alex464655926","uid":3215319,"tags":{"amenity":"pharmacy","dispensing":"yes","addr:city":"Bisignano"}},
{"type":"node","id":338493674,"lat":39.5136698,"lon":16.2844052,"timestamp":"2015-09-08T19:48:47Z","version":4,"changeset":33892241,"user":"alex464655926","uid":3215319,"tags":{"addr:city":"Bisignano","addr:housenumber":"54","addr:street":"Corso Vittorio Veneto","amenity":"pharmacy","dispensing":"yes","name":"Farmacia Cotroneo","phone":"+39 0984 951123","myadd:city":"Bisignano"}},
{"type":"node","id":338493622,"lat":39.5126273,"lon":16.2872674,"timestamp":"2015-09-21T16:35:57Z","version":6,"changeset":34165683,"user":"danidoedel","uid":3164012,"tags":{"addr:city":"Bisignano","addr:housenumber":"5","addr:street":"Via Principe di Piemonte","amenity":"pharmacy","dispensing":"yes","name":"Farmacia Berlingieri Andrea","phone":"+39 0984 951043","myadd:city":"Bisignano"}},
{"type":"node","id":3740284898,"lat":39.5145278,"lon":16.2867625,"timestamp":"2015-09-21T16:36:05Z","version":3,"changeset":34165683,"user":"danidoedel","uid":3164012,"tags":{"amenity":"pharmacy","addr:city":"Bisignano"}},
{"type":"node","id":696485980,"lat":39.5070134,"lon":16.2855131,"timestamp":"2014-07-17T12:47:06Z","version":3,"changeset":24200663,"user":"domefebbo","uid":75951,"tags":{"amenity":"place_of_worship","denomination":"catholic","name":"Sant'Umile","religion":"christian","addr:city":"Bisignano"}},
{"type":"node","id":2967515709,"lat":39.5109689,"lon":16.2901199,"timestamp":"2014-07-17T12:44:24Z","version":1,"changeset":24200614,"user":"domefebbo","uid":75951,"tags":{"amenity":"place_of_worship","denomination":"roman_catholic","name":"San Domenico","religion":"christian","addr:city":"Bisignano"}},
{"type":"node","id":324756401,"lat":39.5120553,"lon":16.2856803,"timestamp":"2015-09-21T16:35:57Z","version":4,"changeset":34165683,"user":"danidoedel","uid":3164012,"tags":{"amenity":"post_office","name":"Poste","addr:city":"Bisignano"}},
{"type":"node","id":3734052381,"lat":39.499813,"lon":16.2756242,"timestamp":"2015-09-21T16:36:04Z","version":4,"changeset":34165683,"user":"danidoedel","uid":3164012,"tags":{"craft":"shoemaker","addr:city":"Bisignano"}},
{"type":"node","id":3734052380,"lat":39.4997012,"lon":16.2762653,"timestamp":"2015-09-08T06:55:47Z","version":1,"changeset":33873928,"user":"alex464655926","uid":3215319,"tags":{"historic":"monument","addr:city":"Bisignano"}},
{"type":"node","id":3732559740,"lat":39.5095752,"lon":16.284945,"timestamp":"2015-09-07T07:51:09Z","version":1,"changeset":33849595,"user":"alex464655926","uid":3215319,"tags":{"historic":"monument","addr:city":"Bisignano"}},
{"type":"node","id":324756403,"lat":39.5122974,"lon":16.2858279,"timestamp":"2015-09-07T07:42:34Z","version":2,"changeset":33849388,"user":"alex464655926","uid":3215319,"tags":{"historic":"monument","name":"Monumento ai caduti","addr:city":"Bisignano"}},
{"type":"node","id":3740277140,"lat":39.5147414,"lon":16.2869444,"timestamp":"2015-09-12T14:58:56Z","version":1,"changeset":33981840,"user":"alex464655926","uid":3215319,"tags":{"historic":"monument","name":"San Pio","addr:city":"Bisignano"}},
{"type":"node","id":3731818997,"lat":39.5190109,"lon":16.2840338,"timestamp":"2015-09-06T16:20:49Z","version":1,"changeset":33836442,"user":"alex464655926","uid":3215319,"tags":{"historic":"monument","name":"statua San Francesco","addr:city":"Bisignano"}},
{"type":"node","id":3734987642,"lat":39.5132737,"lon":16.2856211,"timestamp":"2015-09-08T19:50:59Z","version":1,"changeset":33892294,"user":"alex464655926","uid":3215319,"tags":{"leisure":"sports_centre","addr:city":"Bisignano"}},
{"type":"node","id":3734052384,"lat":39.5002435,"lon":16.2764423,"timestamp":"2015-09-08T06:55:47Z","version":1,"changeset":33873928,"user":"alex464655926","uid":3215319,"tags":{"leisure":"stadium","addr:city":"Bisignano"}},
{"type":"node","id":3901461838,"lat":39.5004525,"lon":16.3146619,"timestamp":"2015-12-20T14:46:19Z","version":1,"changeset":36066119,"user":"IlBano","uid":1720269,"tags":{"man_made":"tower","tower:type":"communication","addr:city":"Bisignano"}},
{"type":"node","id":3901463132,"lat":39.5032895,"lon":16.3055286,"timestamp":"2015-12-20T14:46:27Z","version":1,"changeset":36066119,"user":"IlBano","uid":1720269,"tags":{"man_made":"tower","tower:type":"communication","addr:city":"Bisignano"}},
{"type":"node","id":3734061524,"lat":39.4992604,"lon":16.2755035,"timestamp":"2015-09-08T07:13:20Z","version":1,"changeset":33874179,"user":"alex464655926","uid":3215319,"tags":{"shop":"bakery","addr:city":"Bisignano"}},
{"type":"node","id":3734052374,"lat":39.5010072,"lon":16.2734033,"timestamp":"2015-09-21T16:36:04Z","version":3,"changeset":34165683,"user":"danidoedel","uid":3164012,"tags":{"shop":"bakery","addr:city":"Bisignano"}},
{"type":"node","id":3740274021,"lat":39.5192027,"lon":16.2833598,"timestamp":"2015-09-12T14:58:56Z","version":1,"changeset":33981840,"user":"alex464655926","uid":3215319,"tags":{"shop":"bakery","addr:city":"Bisignano"}},
{"type":"node","id":3740289657,"lat":39.5170079,"lon":16.2838106,"timestamp":"2015-09-21T16:36:05Z","version":3,"changeset":34165683,"user":"danidoedel","uid":3164012,"tags":{"shop":"bakery","addr:city":"Bisignano"}},
{"type":"node","id":3740284905,"lat":39.5125037,"lon":16.2851452,"timestamp":"2015-09-21T16:36:05Z","version":3,"changeset":34165683,"user":"danidoedel","uid":3164012,"tags":{"shop":"butcher","addr:city":"Bisignano"}},
{"type":"node","id":3740284906,"lat":39.5125098,"lon":16.2851966,"timestamp":"2015-09-12T15:11:30Z","version":1,"changeset":33982116,"user":"alex464655926","uid":3215319,"tags":{"shop":"greengrocer","addr:city":"Bisignano"}},
{"type":"node","id":3740284902,"lat":39.5124153,"lon":16.2863374,"timestamp":"2015-09-21T16:36:05Z","version":3,"changeset":34165683,"user":"danidoedel","uid":3164012,"tags":{"shop":"greengrocer","addr:city":"Bisignano"}},
{"type":"node","id":3734063029,"lat":39.5039025,"lon":16.272419,"timestamp":"2015-09-08T07:13:20Z","version":1,"changeset":33874179,"user":"alex464655926","uid":3215319,"tags":{"shop":"tailor","addr:city":"Bisignano"}},
{"type":"node","id":3734069500,"lat":39.503112,"lon":16.2657188,"timestamp":"2015-09-21T16:35:57Z","version":3,"changeset":34165683,"user":"danidoedel","uid":3164012,"tags":{"name":"EuroSpin","shop":"supermarket","addr:city":"Bisignano"}},
{"type":"node","id":3734052372,"lat":39.501241,"lon":16.2730922,"timestamp":"2015-09-08T06:55:47Z","version":1,"changeset":33873928,"user":"alex464655926","uid":3215319,"tags":{"shop":"supermarket","addr:city":"Bisignano"}},
{"type":"node","id":3734052378,"lat":39.5007464,"lon":16.2734087,"timestamp":"2015-09-08T06:55:47Z","version":1,"changeset":33873928,"user":"alex464655926","uid":3215319,"tags":{"shop":"supermarket","addr:city":"Bisignano"}},
{"type":"node","id":3740293568,"lat":39.5092806,"lon":16.2851116,"timestamp":"2015-09-12T15:23:34Z","version":1,"changeset":33982310,"user":"alex464655926","uid":3215319,"tags":{"name":"maxi 1","shop":"supermarket","addr:city":"Bisignano"}},
{"type":"node","id":3740284897,"lat":39.5147109,"lon":16.2867091,"timestamp":"2015-09-21T16:36:05Z","version":3,"changeset":34165683,"user":"danidoedel","uid":3164012,"tags":{"shop":"supermarket","addr:city":"Bisignano"}},
{"type":"node","id":3740284899,"lat":39.5129705,"lon":16.2869503,"timestamp":"2015-09-21T16:36:05Z","version":3,"changeset":34165683,"user":"danidoedel","uid":3164012,"tags":{"shop":"supermarket","addr:city":"Bisignano"}},
{"type":"node","id":3734063031,"lat":39.5006988,"lon":16.2698709,"timestamp":"2015-09-08T07:13:20Z","version":1,"changeset":33874179,"user":"alex464655926","uid":3215319,"tags":{"shop":"clothes","addr:city":"Bisignano"}},
{"type":"node","id":3732556404,"lat":39.5006219,"lon":16.2761295,"timestamp":"2015-09-07T07:45:24Z","version":1,"changeset":33849456,"user":"alex464655926","uid":3215319,"tags":{"shop":"clothes","addr:city":"Bisignano"}},
{"type":"node","id":3734052376,"lat":39.5009182,"lon":16.273052,"timestamp":"2015-09-08T06:55:47Z","version":1,"changeset":33873928,"user":"alex464655926","uid":3215319,"tags":{"shop":"clothes","addr:city":"Bisignano"}},
{"type":"node","id":3734974937,"lat":39.4977389,"lon":16.2770243,"timestamp":"2015-09-08T19:39:07Z","version":1,"changeset":33891990,"user":"alex464655926","uid":3215319,"tags":{"shop":"clothes","addr:city":"Bisignano"}},
{"type":"node","id":3734069506,"lat":39.5029919,"lon":16.2650027,"timestamp":"2015-09-21T16:36:04Z","version":3,"changeset":34165683,"user":"danidoedel","uid":3164012,"tags":{"shop":"shoes","addr:city":"Bisignano"}},
{"type":"node","id":3734063025,"lat":39.5008913,"lon":16.2731432,"timestamp":"2015-09-08T07:13:20Z","version":1,"changeset":33874179,"user":"alex464655926","uid":3215319,"tags":{"shop":"shoes","addr:city":"Bisignano"}},
{"type":"node","id":3734974936,"lat":39.4980783,"lon":16.2775929,"timestamp":"2015-09-08T19:39:07Z","version":1,"changeset":33891990,"user":"alex464655926","uid":3215319,"tags":{"name":"pelle e cuoio","shop":"shoes","addr:city":"Bisignano"}},
{"type":"node","id":3732556531,"lat":39.5005267,"lon":16.2761617,"timestamp":"2015-09-07T07:44:59Z","version":1,"changeset":33849444,"user":"alex464655926","uid":3215319,"tags":{"shop":"beauty","addr:city":"Bisignano"}},
{"type":"node","id":3734069503,"lat":39.5029816,"lon":16.2654238,"timestamp":"2015-09-21T16:36:04Z","version":3,"changeset":34165683,"user":"danidoedel","uid":3164012,"tags":{"shop":"hairdresser","addr:city":"Bisignano"}},
{"type":"node","id":3734052385,"lat":39.5013818,"lon":16.2768232,"timestamp":"2015-09-08T06:55:47Z","version":1,"changeset":33873928,"user":"alex464655926","uid":3215319,"tags":{"shop":"hairdresser","addr:city":"Bisignano"}},
{"type":"node","id":3734063030,"lat":39.503737,"lon":16.2723466,"timestamp":"2015-09-08T07:13:20Z","version":1,"changeset":33874179,"user":"alex464655926","uid":3215319,"tags":{"shop":"hairdresser","addr:city":"Bisignano"}},
{"type":"node","id":3734063034,"lat":39.502578,"lon":16.2685593,"timestamp":"2015-09-08T07:13:20Z","version":1,"changeset":33874179,"user":"alex464655926","uid":3215319,"tags":{"shop":"hairdresser","addr:city":"Bisignano"}},
{"type":"node","id":3740293569,"lat":39.5092516,"lon":16.2848091,"timestamp":"2015-09-21T16:36:05Z","version":3,"changeset":34165683,"user":"danidoedel","uid":3164012,"tags":{"shop":"optician","addr:city":"Bisignano"}},
{"type":"node","id":3734052371,"lat":39.50121,"lon":16.2729313,"timestamp":"2015-09-08T06:55:47Z","version":1,"changeset":33873928,"user":"alex464655926","uid":3215319,"tags":{"shop":"florist","addr:city":"Bisignano"}},
{"type":"node","id":3740289659,"lat":39.5169606,"lon":16.2842436,"timestamp":"2015-09-21T16:36:05Z","version":3,"changeset":34165683,"user":"danidoedel","uid":3164012,"tags":{"shop":"florist","addr:city":"Bisignano"}},
{"type":"node","id":3734052373,"lat":39.5011334,"lon":16.2731244,"timestamp":"2015-09-21T16:36:04Z","version":4,"changeset":34165683,"user":"danidoedel","uid":3164012,"tags":{"shop":"computer","addr:city":"Bisignano"}},
{"type":"node","id":3734069502,"lat":39.503054,"lon":16.2645199,"timestamp":"2015-09-21T16:36:04Z","version":3,"changeset":34165683,"user":"danidoedel","uid":3164012,"tags":{"shop":"electronics","addr:city":"Bisignano"}},
{"type":"node","id":3734052370,"lat":39.5012348,"lon":16.2728669,"timestamp":"2015-09-08T06:55:46Z","version":1,"changeset":33873928,"user":"alex464655926","uid":3215319,"tags":{"shop":"tobacco","addr:city":"Bisignano"}},
{"type":"node","id":3740284907,"lat":39.5125708,"lon":16.285592,"timestamp":"2015-09-12T15:17:57Z","version":2,"changeset":33982217,"user":"alex464655926","uid":3215319,"tags":{"shop":"tobacco","addr:city":"Bisignano"}},
{"type":"node","id":3740284896,"lat":39.514688,"lon":16.2866241,"timestamp":"2015-09-12T15:11:29Z","version":1,"changeset":33982116,"user":"alex464655926","uid":3215319,"tags":{"shop":"tobacco","addr:city":"Bisignano"}},
{"type":"node","id":3027716601,"lat":39.6906189,"lon":15.8866809,"timestamp":"2014-08-19T15:46:31Z","version":1,"changeset":24862640,"user":"GeofixFe","uid":323641,"tags":{"historic":"monument","name":"San Ciriaco","addr:city":"Buonvicino"}},
{"type":"node","id":2696147064,"lat":39.5617409,"lon":16.830166,"timestamp":"2014-03-01T09:54:36Z","version":1,"changeset":20841976,"user":"FraPla","uid":354689,"tags":{"amenity":"fuel","addr:city":"Calopezzati"}},
{"type":"node","id":2056859698,"lat":39.4085603,"lon":16.8276731,"timestamp":"2012-12-08T23:45:57Z","version":1,"changeset":14206855,"user":"Campanaelefante","uid":1121397,"tags":{"amenity":"bar","addr:city":"Campana"}},
{"type":"node","id":2056849480,"lat":39.4123215,"lon":16.8228559,"timestamp":"2012-12-08T23:33:21Z","version":1,"changeset":14206855,"user":"Campanaelefante","uid":1121397,"tags":{"amenity":"bar","addr:city":"Campana"}},
{"type":"node","id":2056850035,"lat":39.4121102,"lon":16.8227325,"timestamp":"2012-12-08T23:33:50Z","version":1,"changeset":14206855,"user":"Campanaelefante","uid":1121397,"tags":{"amenity":"bar","addr:city":"Campana"}},
{"type":"node","id":2056852047,"lat":39.412479,"lon":16.8217964,"timestamp":"2012-12-08T23:35:42Z","version":1,"changeset":14206855,"user":"Campanaelefante","uid":1121397,"tags":{"amenity":"bar","addr:city":"Campana"}},
{"type":"node","id":2056853066,"lat":39.4134095,"lon":16.8192858,"timestamp":"2012-12-08T23:37:05Z","version":1,"changeset":14206855,"user":"Campanaelefante","uid":1121397,"tags":{"amenity":"bar","addr:city":"Campana"}},
{"type":"node","id":2056863360,"lat":39.4127464,"lon":16.8229578,"timestamp":"2012-12-08T23:50:29Z","version":1,"changeset":14206855,"user":"Campanaelefante","uid":1121397,"tags":{"amenity":"bar","addr:city":"Campana"}},
{"type":"node","id":2056848104,"lat":39.4131442,"lon":16.8276865,"timestamp":"2012-12-08T23:32:05Z","version":1,"changeset":14206855,"user":"Campanaelefante","uid":1121397,"tags":{"amenity":"bar","addr:city":"Campana"}},
{"type":"node","id":2056848728,"lat":39.4130593,"lon":16.8273137,"timestamp":"2012-12-08T23:32:29Z","version":1,"changeset":14206855,"user":"Campanaelefante","uid":1121397,"tags":{"amenity":"bar","addr:city":"Campana"}},
{"type":"node","id":2056848747,"lat":39.4126013,"lon":16.8275605,"timestamp":"2012-12-08T23:32:48Z","version":1,"changeset":14206855,"user":"Campanaelefante","uid":1121397,"tags":{"amenity":"bar","addr:city":"Campana"}},
{"type":"node","id":2056834194,"lat":39.4142384,"lon":16.8131221,"timestamp":"2012-12-08T23:17:39Z","version":1,"changeset":14206855,"user":"Campanaelefante","uid":1121397,"tags":{"amenity":"drinking_water","addr:city":"Campana"}},
{"type":"node","id":2056826635,"lat":39.408438,"lon":16.8286038,"timestamp":"2012-12-08T23:10:04Z","version":1,"changeset":14206855,"user":"Campanaelefante","uid":1121397,"tags":{"amenity":"drinking_water","addr:city":"Campana"}},
{"type":"node","id":2056827493,"lat":39.4079945,"lon":16.8295721,"timestamp":"2012-12-08T23:10:38Z","version":1,"changeset":14206855,"user":"Campanaelefante","uid":1121397,"tags":{"amenity":"drinking_water","addr:city":"Campana"}},
{"type":"node","id":2056830592,"lat":39.4088214,"lon":16.8266914,"timestamp":"2012-12-08T23:13:22Z","version":1,"changeset":14206855,"user":"Campanaelefante","uid":1121397,"tags":{"amenity":"drinking_water","addr:city":"Campana"}},
{"type":"node","id":2056831056,"lat":39.4099736,"lon":16.8257526,"timestamp":"2012-12-08T23:14:54Z","version":1,"changeset":14206855,"user":"Campanaelefante","uid":1121397,"tags":{"amenity":"drinking_water","addr:city":"Campana"}},
{"type":"node","id":2056822321,"lat":39.4124625,"lon":16.8223516,"timestamp":"2012-12-08T23:07:14Z","version":1,"changeset":14206855,"user":"Campanaelefante","uid":1121397,"tags":{"amenity":"drinking_water","addr:city":"Campana"}},
{"type":"node","id":2056824315,"lat":39.4138136,"lon":16.8213726,"timestamp":"2012-12-08T23:08:32Z","version":1,"changeset":14206855,"user":"Campanaelefante","uid":1121397,"tags":{"amenity":"drinking_water","addr:city":"Campana"}},
{"type":"node","id":2056825444,"lat":39.4128852,"lon":16.8273995,"timestamp":"2012-12-08T23:09:13Z","version":1,"changeset":14206855,"user":"Campanaelefante","uid":1121397,"tags":{"amenity":"drinking_water","addr:city":"Campana"}},
{"type":"node","id":2056839084,"lat":39.4123112,"lon":16.8248917,"timestamp":"2012-12-08T23:22:49Z","version":1,"changeset":14206855,"user":"Campanaelefante","uid":1121397,"tags":{"amenity":"drinking_water","addr:city":"Campana"}},
{"type":"node","id":2056833688,"lat":39.4184738,"lon":16.813908,"timestamp":"2012-12-08T23:16:23Z","version":1,"changeset":14206855,"user":"Campanaelefante","uid":1121397,"tags":{"amenity":"drinking_water","addr:city":"Campana"}},
{"type":"node","id":2056830230,"lat":39.4075738,"lon":16.8307657,"timestamp":"2012-12-08T23:12:20Z","version":1,"changeset":14206855,"user":"Campanaelefante","uid":1121397,"tags":{"amenity":"drinking_water","addr:city":"Campana"}},
{"type":"node","id":2056834966,"lat":39.410929,"lon":16.851188,"timestamp":"2012-12-08T23:20:12Z","version":1,"changeset":14206855,"user":"Campanaelefante","uid":1121397,"tags":{"amenity":"drinking_water","addr:city":"Campana"}},
{"type":"node","id":2056859726,"lat":39.4086598,"lon":16.826906,"timestamp":"2012-12-08T23:46:21Z","version":1,"changeset":14206855,"user":"Campanaelefante","uid":1121397,"tags":{"amenity":"restaurant","addr:city":"Campana"}},
{"type":"node","id":2056844981,"lat":39.4126863,"lon":16.8240682,"timestamp":"2012-12-08T23:30:25Z","version":1,"changeset":14206855,"user":"Campanaelefante","uid":1121397,"tags":{"amenity":"restaurant","addr:city":"Campana"}},
{"type":"node","id":2056846719,"lat":39.4131836,"lon":16.8263937,"timestamp":"2012-12-08T23:31:27Z","version":1,"changeset":14206855,"user":"Campanaelefante","uid":1121397,"tags":{"amenity":"restaurant","addr:city":"Campana"}},
{"type":"node","id":3540418283,"lat":-34.0347061,"lon":-57.9024615,"timestamp":"2015-05-24T02:42:00Z","version":1,"changeset":31410683,"user":"muralito","uid":755114,"tags":{"addr:city":"Campana","addr:country":"UY","addr:street":"Ruta 55","amenity":"fuel","brand":"ANCAP","operator":"Ruta 55 S.R.L.","phone":"+598 4570 6081","myadd:city":"Campana"}},
{"type":"node","id":2056820661,"lat":39.4121432,"lon":16.822797,"timestamp":"2012-12-08T23:34:41Z","version":2,"changeset":14206855,"user":"Campanaelefante","uid":1121397,"tags":{"amenity":"fuel","addr:city":"Campana"}},
{"type":"node","id":2056906573,"lat":39.4122988,"lon":16.8222604,"timestamp":"2012-12-09T00:19:26Z","version":1,"changeset":14206855,"user":"Campanaelefante","uid":1121397,"tags":{"amenity":"bank","addr:city":"Campana"}},
{"type":"node","id":2056879089,"lat":39.4123899,"lon":16.8291751,"timestamp":"2012-12-09T00:08:41Z","version":1,"changeset":14206855,"user":"Campanaelefante","uid":1121397,"tags":{"amenity":"hospital","addr:city":"Campana"}},
{"type":"node","id":2056859888,"lat":39.4141513,"lon":16.8242184,"timestamp":"2015-03-30T15:43:46Z","version":2,"changeset":29853824,"user":"nicproc","uid":1816336,"tags":{"amenity":"pharmacy","dispensing":"yes","name":"Farmacia Santoro","addr:city":"Campana"}},
{"type":"node","id":2056908019,"lat":39.4124314,"lon":16.8224026,"timestamp":"2012-12-09T00:20:10Z","version":1,"changeset":14206855,"user":"Campanaelefante","uid":1121397,"tags":{"amenity":"fountain","addr:city":"Campana"}},
{"type":"node","id":2056894865,"lat":39.4125681,"lon":16.8280057,"timestamp":"2012-12-09T00:14:14Z","version":1,"changeset":14206855,"user":"Campanaelefante","uid":1121397,"tags":{"amenity":"fountain","addr:city":"Campana"}},
{"type":"node","id":2056854540,"lat":39.4124687,"lon":16.8246368,"timestamp":"2012-12-08T23:39:58Z","version":1,"changeset":14206855,"user":"Campanaelefante","uid":1121397,"tags":{"amenity":"marketplace","addr:city":"Campana"}},
{"type":"node","id":2056951051,"lat":39.4305075,"lon":16.8130175,"timestamp":"2012-12-09T00:36:34Z","version":1,"changeset":14206855,"user":"Campanaelefante","uid":1121397,"tags":{"amenity":"marketplace","addr:city":"Campana"}},
{"type":"node","id":2056901666,"lat":39.4085064,"lon":16.8273834,"timestamp":"2012-12-09T00:16:57Z","version":1,"changeset":14206855,"user":"Campanaelefante","uid":1121397,"tags":{"amenity":"place_of_worship","addr:city":"Campana"}},
{"type":"node","id":2056901915,"lat":39.4083157,"lon":16.8281452,"timestamp":"2012-12-09T00:17:04Z","version":1,"changeset":14206855,"user":"Campanaelefante","uid":1121397,"tags":{"amenity":"place_of_worship","addr:city":"Campana"}},
{"type":"node","id":2056905644,"lat":39.4134136,"lon":16.8212036,"timestamp":"2012-12-09T00:18:57Z","version":1,"changeset":14206855,"user":"Campanaelefante","uid":1121397,"tags":{"amenity":"place_of_worship","addr:city":"Campana"}},
{"type":"node","id":2056898279,"lat":39.4131401,"lon":16.828982,"timestamp":"2012-12-09T00:15:38Z","version":1,"changeset":14206855,"user":"Campanaelefante","uid":1121397,"tags":{"amenity":"place_of_worship","addr:city":"Campana"}},
{"type":"node","id":2056900161,"lat":39.4130365,"lon":16.8278662,"timestamp":"2012-12-09T00:16:28Z","version":1,"changeset":14206855,"user":"Campanaelefante","uid":1121397,"tags":{"amenity":"place_of_worship","addr:city":"Campana"}},
{"type":"node","id":2056903866,"lat":39.4179144,"lon":16.8149112,"timestamp":"2012-12-09T00:18:00Z","version":1,"changeset":14206855,"user":"Campanaelefante","uid":1121397,"tags":{"amenity":"place_of_worship","addr:city":"Campana"}},
{"type":"node","id":2056902540,"lat":39.4077272,"lon":16.8298028,"timestamp":"2012-12-09T00:17:23Z","version":1,"changeset":14206855,"user":"Campanaelefante","uid":1121397,"tags":{"amenity":"place_of_worship","addr:city":"Campana"}},
{"type":"node","id":2056821764,"lat":39.4154589,"lon":16.8237195,"timestamp":"2012-12-08T23:06:31Z","version":1,"changeset":14206855,"user":"Campanaelefante","uid":1121397,"tags":{"amenity":"police","addr:city":"Campana"}},
{"type":"node","id":2056807420,"lat":39.4127298,"lon":16.8241058,"timestamp":"2012-12-08T22:52:35Z","version":1,"changeset":14206855,"user":"Campanaelefante","uid":1121397,"tags":{"amenity":"post_office","name":"Ufficio postale","addr:city":"Campana"}},
{"type":"node","id":2056957356,"lat":39.4005231,"lon":16.8164309,"timestamp":"2015-07-16T20:42:08Z","version":4,"changeset":32684405,"user":"ingcelsi","uid":260238,"tags":{"historic":"archaeological_site","name":"Pietre dell'Incavallicata","natural":"rock","addr:city":"Campana"}},
{"type":"node","id":2056921070,"lat":39.4084297,"lon":16.8278153,"timestamp":"2012-12-09T00:25:29Z","version":1,"changeset":14206855,"user":"Campanaelefante","uid":1121397,"tags":{"historic":"memorial","addr:city":"Campana"}},
{"type":"node","id":2056922600,"lat":39.4081976,"lon":16.8287031,"timestamp":"2012-12-09T00:26:22Z","version":1,"changeset":14206855,"user":"Campanaelefante","uid":1121397,"tags":{"historic":"monument","addr:city":"Campana"}},
{"type":"node","id":2056919302,"lat":39.4122552,"lon":16.822762,"timestamp":"2012-12-09T00:24:45Z","version":1,"changeset":14206855,"user":"Campanaelefante","uid":1121397,"tags":{"historic":"monument","addr:city":"Campana"}},
{"type":"node","id":2056923205,"lat":39.4077355,"lon":16.8300093,"timestamp":"2012-12-09T00:26:38Z","version":1,"changeset":14206855,"user":"Campanaelefante","uid":1121397,"tags":{"historic":"monument","addr:city":"Campana"}},
{"type":"node","id":2056927932,"lat":39.4068651,"lon":16.8332226,"timestamp":"2012-12-09T00:28:25Z","version":1,"changeset":14206855,"user":"Campanaelefante","uid":1121397,"tags":{"historic":"monument","addr:city":"Campana"}},
{"type":"node","id":2056924220,"lat":39.4074951,"lon":16.8295346,"timestamp":"2012-12-09T00:27:03Z","version":1,"changeset":14206855,"user":"Campanaelefante","uid":1121397,"tags":{"historic":"ruins","addr:city":"Campana"}},
{"type":"node","id":2056923808,"lat":39.4074018,"lon":16.8297947,"timestamp":"2012-12-09T00:26:54Z","version":1,"changeset":14206855,"user":"Campanaelefante","uid":1121397,"tags":{"historic":"ruins","addr:city":"Campana"}},
{"type":"node","id":2056926579,"lat":39.4076982,"lon":16.8305645,"timestamp":"2012-12-09T00:27:53Z","version":1,"changeset":14206855,"user":"Campanaelefante","uid":1121397,"tags":{"historic":"ruins","addr:city":"Campana"}},
{"type":"node","id":2056927651,"lat":39.4068568,"lon":16.8332709,"timestamp":"2012-12-09T00:28:19Z","version":1,"changeset":14206855,"user":"Campanaelefante","uid":1121397,"tags":{"historic":"ruins","addr:city":"Campana"}},
{"type":"node","id":2056817694,"lat":39.4127256,"lon":16.8273995,"timestamp":"2012-12-08T23:00:37Z","version":1,"changeset":14206855,"user":"Campanaelefante","uid":1121397,"tags":{"leisure":"playground","addr:city":"Campana"}},
{"type":"node","id":2056817698,"lat":39.4118719,"lon":16.829717,"timestamp":"2012-12-08T23:01:16Z","version":1,"changeset":14206855,"user":"Campanaelefante","uid":1121397,"tags":{"leisure":"sports_centre","addr:city":"Campana"}},
{"type":"node","id":2056816068,"lat":39.4250337,"lon":16.8375758,"timestamp":"2012-12-08T22:58:18Z","version":1,"changeset":14206855,"user":"Campanaelefante","uid":1121397,"tags":{"man_made":"tower","addr:city":"Campana"}},
{"type":"node","id":2056956069,"lat":39.408925,"lon":16.8270642,"timestamp":"2012-12-09T00:39:39Z","version":1,"changeset":14206855,"user":"Campanaelefante","uid":1121397,"tags":{"shop":"bakery","addr:city":"Campana"}},
{"type":"node","id":2056853668,"lat":39.4127857,"lon":16.8195219,"timestamp":"2012-12-08T23:39:08Z","version":1,"changeset":14206855,"user":"Campanaelefante","uid":1121397,"tags":{"shop":"bakery","addr:city":"Campana"}},
{"type":"node","id":2056855941,"lat":39.4134302,"lon":16.8274719,"timestamp":"2012-12-08T23:40:41Z","version":1,"changeset":14206855,"user":"Campanaelefante","uid":1121397,"tags":{"shop":"bakery","addr:city":"Campana"}},
{"type":"node","id":2056858112,"lat":39.4129577,"lon":16.8198357,"timestamp":"2012-12-08T23:43:32Z","version":1,"changeset":14206855,"user":"Campanaelefante","uid":1121397,"tags":{"shop":"butcher","addr:city":"Campana"}},
{"type":"node","id":2056858435,"lat":39.4126883,"lon":16.8181995,"timestamp":"2012-12-08T23:44:08Z","version":1,"changeset":14206855,"user":"Campanaelefante","uid":1121397,"tags":{"shop":"butcher","addr:city":"Campana"}},
{"type":"node","id":2056867734,"lat":39.4123734,"lon":16.8262435,"timestamp":"2012-12-08T23:57:33Z","version":1,"changeset":14206855,"user":"Campanaelefante","uid":1121397,"tags":{"shop":"convenience","addr:city":"Campana"}},
{"type":"node","id":2056870659,"lat":39.4129867,"lon":16.8207772,"timestamp":"2012-12-09T00:00:28Z","version":1,"changeset":14206855,"user":"Campanaelefante","uid":1121397,"tags":{"shop":"greengrocer","addr:city":"Campana"}},
{"type":"node","id":2056865603,"lat":39.4125371,"lon":16.8225286,"timestamp":"2012-12-08T23:53:33Z","version":1,"changeset":14206855,"user":"Campanaelefante","uid":1121397,"tags":{"shop":"kiosk","addr:city":"Campana"}},
{"type":"node","id":2056866180,"lat":39.4118491,"lon":16.823513,"timestamp":"2012-12-08T23:54:50Z","version":1,"changeset":14206855,"user":"Campanaelefante","uid":1121397,"tags":{"shop":"kiosk","addr:city":"Campana"}},
{"type":"node","id":2056841709,"lat":39.4132354,"lon":16.8177516,"timestamp":"2012-12-08T23:26:20Z","version":1,"changeset":14206855,"user":"Campanaelefante","uid":1121397,"tags":{"shop":"supermarket","addr:city":"Campana"}},
{"type":"node","id":2056841774,"lat":39.412448,"lon":16.8223087,"timestamp":"2012-12-08T23:26:50Z","version":1,"changeset":14206855,"user":"Campanaelefante","uid":1121397,"tags":{"shop":"supermarket","addr:city":"Campana"}},
{"type":"node","id":2056844730,"lat":39.412995,"lon":16.8207423,"timestamp":"2012-12-08T23:29:43Z","version":1,"changeset":14206855,"user":"Campanaelefante","uid":1121397,"tags":{"shop":"supermarket","addr:city":"Campana"}},
{"type":"node","id":2056871413,"lat":39.4124832,"lon":16.8226654,"timestamp":"2012-12-09T00:02:19Z","version":1,"changeset":14206855,"user":"Campanaelefante","uid":1121397,"tags":{"shop":"clothes","addr:city":"Campana"}},
{"type":"node","id":2056871876,"lat":39.4139711,"lon":16.8229015,"timestamp":"2012-12-09T00:03:04Z","version":1,"changeset":14206855,"user":"Campanaelefante","uid":1121397,"tags":{"shop":"clothes","addr:city":"Campana"}},
{"type":"node","id":2056853282,"lat":39.4124562,"lon":16.8218527,"timestamp":"2012-12-08T23:38:10Z","version":1,"changeset":14206855,"user":"Campanaelefante","uid":1121397,"tags":{"shop":"hairdresser","addr:city":"Campana"}},
{"type":"node","id":2056853651,"lat":39.4128106,"lon":16.8193583,"timestamp":"2012-12-08T23:38:46Z","version":1,"changeset":14206855,"user":"Campanaelefante","uid":1121397,"tags":{"shop":"hairdresser","addr:city":"Campana"}},
{"type":"node","id":2056864198,"lat":39.41268,"lon":16.8229632,"timestamp":"2012-12-08T23:51:11Z","version":1,"changeset":14206855,"user":"Campanaelefante","uid":1121397,"tags":{"shop":"florist","addr:city":"Campana"}},
{"type":"node","id":2056870366,"lat":39.4136146,"lon":16.8261389,"timestamp":"2012-12-08T23:59:42Z","version":1,"changeset":14206855,"user":"Campanaelefante","uid":1121397,"tags":{"shop":"florist","addr:city":"Campana"}},
{"type":"node","id":2056954579,"lat":39.4126054,"lon":16.8218983,"timestamp":"2012-12-09T00:38:05Z","version":1,"changeset":14206855,"user":"Campanaelefante","uid":1121397,"tags":{"shop":"bicycle","addr:city":"Campana"}},
{"type":"node","id":2056866721,"lat":39.4118905,"lon":16.8249292,"timestamp":"2012-12-08T23:56:32Z","version":1,"changeset":14206855,"user":"Campanaelefante","uid":1121397,"tags":{"shop":"gift","addr:city":"Campana"}},
{"type":"node","id":2056867731,"lat":39.4123734,"lon":16.8262006,"timestamp":"2012-12-08T23:57:33Z","version":1,"changeset":14206855,"user":"Campanaelefante","uid":1121397,"tags":{"shop":"gift","addr:city":"Campana"}},
{"type":"node","id":2056871344,"lat":39.4125018,"lon":16.8226467,"timestamp":"2012-12-09T00:02:01Z","version":1,"changeset":14206855,"user":"Campanaelefante","uid":1121397,"tags":{"shop":"toys","addr:city":"Campana"}},
{"type":"node","id":2056959125,"lat":39.3683114,"lon":16.7943386,"timestamp":"2012-12-09T00:45:43Z","version":1,"changeset":14206855,"user":"Campanaelefante","uid":1121397,"tags":{"tourism":"picnic_site","addr:city":"Campana"}},
{"type":"node","id":2056959189,"lat":39.3886294,"lon":16.8062047,"timestamp":"2012-12-09T00:46:49Z","version":1,"changeset":14206855,"user":"Campanaelefante","uid":1121397,"tags":{"tourism":"picnic_site","addr:city":"Campana"}},
{"type":"node","id":2056957354,"lat":39.4007304,"lon":16.8162684,"timestamp":"2012-12-09T00:43:29Z","version":1,"changeset":14206855,"user":"Campanaelefante","uid":1121397,"tags":{"tourism":"picnic_site","addr:city":"Campana"}},
{"type":"node","id":2056950030,"lat":39.4299522,"lon":16.8127708,"timestamp":"2012-12-09T00:36:06Z","version":1,"changeset":14206855,"user":"Campanaelefante","uid":1121397,"tags":{"tourism":"picnic_site","addr:city":"Campana"}},
{"type":"node","id":2056956226,"lat":39.4068858,"lon":16.8332628,"timestamp":"2012-12-09T00:40:55Z","version":1,"changeset":14206855,"user":"Campanaelefante","uid":1121397,"tags":{"tourism":"viewpoint","addr:city":"Campana"}},
{"type":"node","id":1414454878,"lat":39.4970809,"lon":16.9470058,"timestamp":"2012-08-11T16:37:16Z","version":2,"changeset":12692693,"user":"Vittorio Lascala","uid":690221,"tags":{"amenity":"bar","name":"Fortino","addr:city":"Cariati"}},
{"type":"node","id":1861774360,"lat":39.4927596,"lon":16.9559797,"timestamp":"2012-08-11T16:42:57Z","version":1,"changeset":12692693,"user":"Vittorio Lascala","uid":690221,"tags":{"amenity":"bus_station","addr:city":"Cariati"}},
{"type":"node","id":2696142205,"lat":39.4951375,"lon":16.9539392,"timestamp":"2014-03-01T09:50:20Z","version":1,"changeset":20841976,"user":"FraPla","uid":354689,"tags":{"amenity":"fuel","addr:city":"Cariati"}},
{"type":"node","id":2696142333,"lat":39.4994467,"lon":16.9456136,"timestamp":"2014-03-01T09:50:34Z","version":1,"changeset":20841976,"user":"FraPla","uid":354689,"tags":{"amenity":"fuel","addr:city":"Cariati"}},
{"type":"node","id":1414454680,"lat":39.4968325,"lon":16.9493447,"timestamp":"2014-05-29T15:57:20Z","version":3,"changeset":22621208,"user":"mcheckimport","uid":893327,"tags":{"amenity":"place_of_worship","denomination":"catholic","name":"Santa Maria delle Grazie","religion":"christian","addr:city":"Cariati"}},
{"type":"node","id":2091477578,"lat":39.5121885,"lon":16.9175075,"timestamp":"2013-01-01T20:57:53Z","version":1,"changeset":14492016,"user":"venerdi","uid":196617,"tags":{"man_made":"tower","tower:type":"communication","addr:city":"Cariati"}},
{"type":"node","id":2091477581,"lat":39.512298,"lon":16.9170767,"timestamp":"2013-01-01T20:57:53Z","version":1,"changeset":14492016,"user":"venerdi","uid":196617,"tags":{"man_made":"tower","tower:type":"communication","addr:city":"Cariati"}},
{"type":"node","id":1273615425,"lat":39.149156,"lon":16.3053397,"timestamp":"2012-10-05T15:45:02Z","version":3,"changeset":13373971,"user":"Vittorio Lascala","uid":690221,"tags":{"name":"Carpanzano","platforms":"2","railway":"station","addr:city":"Carpanzano"}},
{"type":"node","id":2979440831,"lat":39.3056513,"lon":16.2170135,"timestamp":"2014-07-25T15:04:23Z","version":2,"changeset":24352328,"user":"maxtaghy","uid":2212375,"tags":{"amenity":"theatre","name":"Anfiteatro","addr:city":"Castrolibero"}},
{"type":"node","id":2705393836,"lat":39.8130118,"lon":16.2039522,"timestamp":"2014-03-07T11:17:50Z","version":1,"changeset":20967430,"user":"FraPla","uid":354689,"tags":{"amenity":"bar","addr:city":"Castrovillari"}},
{"type":"node","id":2181835982,"lat":39.8188229,"lon":16.206264,"timestamp":"2013-03-02T18:20:14Z","version":1,"changeset":15224579,"user":"bobyoung86","uid":1245467,"tags":{"amenity":"bar","addr:city":"Castrovillari"}},
{"type":"node","id":4252972100,"lat":39.8211986,"lon":16.2110814,"timestamp":"2016-06-23T14:15:13Z","version":2,"changeset":40234714,"user":"ezy65","uid":3957088,"tags":{"amenity":"bar","name":"Pasticceria","addr:city":"Castrovillari"}},
{"type":"node","id":4252924326,"lat":39.825397,"lon":16.2031364,"timestamp":"2016-06-19T14:38:39Z","version":1,"changeset":40137186,"user":"mggm","uid":4087173,"tags":{"amenity":"bar","name":"Bar Gelateria","addr:city":"Castrovillari"}},
{"type":"node","id":2181835984,"lat":39.8211302,"lon":16.2089891,"timestamp":"2013-03-02T18:20:14Z","version":1,"changeset":15224579,"user":"bobyoung86","uid":1245467,"tags":{"amenity":"cafe","addr:city":"Castrovillari"}},
{"type":"node","id":4260927995,"lat":39.8080459,"lon":16.2108759,"timestamp":"2016-06-23T15:36:19Z","version":1,"changeset":40236970,"user":"mggm","uid":4087173,"tags":{"addr:city":"Castrovillari","addr:housenumber":"26","addr:postcode":"87012","addr:street":"Via Santa Maria del Castello","amenity":"pub","name":"Giudecca Cafè","myadd:city":"Castrovillari"}},
{"type":"node","id":4260938327,"lat":39.8090035,"lon":16.2086321,"timestamp":"2016-06-23T15:46:37Z","version":1,"changeset":40237208,"user":"mggm","uid":4087173,"tags":{"addr:city":"Castrovillari","addr:housenumber":"16","addr:postcode":"87012","addr:street":"Piazza Castello Aragonese","amenity":"restaurant","name":"Osteria \"Torre Infame\"","myadd:city":"Castrovillari"}},
{"type":"node","id":4260938328,"lat":39.8086642,"lon":16.2087066,"timestamp":"2016-06-23T15:46:37Z","version":1,"changeset":40237208,"user":"mggm","uid":4087173,"tags":{"addr:city":"Castrovillari","addr:housenumber":"1","addr:postcode":"87012","addr:street":"Via  Francesco Celio","amenity":"restaurant","name":"Il Teatro dei Sapori","myadd:city":"Castrovillari"}},
{"type":"node","id":2705393847,"lat":39.8148475,"lon":16.2001917,"timestamp":"2014-03-07T11:17:50Z","version":1,"changeset":20967430,"user":"FraPla","uid":354689,"tags":{"amenity":"restaurant","cuisine":"regional","name":"Il Cavaliere","addr:city":"Castrovillari"}},
{"type":"node","id":3093008439,"lat":39.8162379,"lon":16.198246,"timestamp":"2016-06-16T08:26:55Z","version":2,"changeset":40059112,"user":"ezy65","uid":3957088,"tags":{"amenity":"restaurant","cuisine":"regional","name":"La Casa del Ferroviere","addr:city":"Castrovillari"}},
{"type":"node","id":4255932913,"lat":39.8094555,"lon":16.2072577,"timestamp":"2016-06-21T12:46:23Z","version":2,"changeset":40180056,"user":"mggm","uid":4087173,"tags":{"addr:city":"Castrovillari","addr:postcode":"87012","addr:street":"Largo Cavour Camillo Benso","amenity":"library","name":"Biblioteca Civica \"Umberto Caldora\"","myadd:city":"Castrovillari"}},
{"type":"node","id":4248074330,"lat":39.722003,"lon":16.2448231,"timestamp":"2016-06-17T09:04:56Z","version":1,"changeset":40086905,"user":"venerdi","uid":196617,"tags":{"amenity":"fuel","addr:city":"Castrovillari"}},
{"type":"node","id":2696149762,"lat":39.8022932,"lon":16.2367755,"timestamp":"2016-06-23T15:58:36Z","version":2,"changeset":40237480,"user":"dgitto","uid":554973,"tags":{"amenity":"fuel","fuel:cng":"yes","fuel:diesel":"yes","fuel:octane_95":"yes","name":"Esso","addr:city":"Castrovillari"}},
{"type":"node","id":2696149984,"lat":39.8181335,"lon":16.2150014,"timestamp":"2014-03-01T10:02:50Z","version":1,"changeset":20841976,"user":"FraPla","uid":354689,"tags":{"amenity":"fuel","addr:city":"Castrovillari"}},
{"type":"node","id":2696149985,"lat":39.8195797,"lon":16.2216801,"timestamp":"2014-03-01T10:02:50Z","version":1,"changeset":20841976,"user":"FraPla","uid":354689,"tags":{"amenity":"fuel","addr:city":"Castrovillari"}},
{"type":"node","id":2016890131,"lat":39.8282883,"lon":16.219128,"timestamp":"2016-06-20T00:14:58Z","version":3,"changeset":40146436,"user":"mcheckimport","uid":893327,"tags":{"amenity":"fuel","wheelchair":"yes","addr:city":"Castrovillari"}},
{"type":"node","id":4252204772,"lat":39.8112683,"lon":16.2356256,"timestamp":"2016-06-19T07:52:43Z","version":1,"changeset":40129984,"user":"mggm","uid":4087173,"tags":{"amenity":"fuel","addr:city":"Castrovillari"}},
{"type":"node","id":4246230484,"lat":39.8137786,"lon":16.2062239,"timestamp":"2016-06-16T11:12:21Z","version":1,"changeset":40063858,"user":"ezy65","uid":3957088,"tags":{"amenity":"parking","addr:city":"Castrovillari"}},
{"type":"node","id":4213432967,"lat":39.8179817,"lon":16.2114108,"timestamp":"2016-06-20T00:14:40Z","version":2,"changeset":40146436,"user":"mcheckimport","uid":893327,"tags":{"amenity":"hospital","name":"Pronto soccorso","addr:city":"Castrovillari"}},
{"type":"node","id":4256190445,"lat":39.8134663,"lon":16.2044789,"timestamp":"2016-06-21T11:59:14Z","version":1,"changeset":40179117,"user":"ezy65","uid":3957088,"tags":{"amenity":"pharmacy","name":"Farmacia Giannoni","addr:city":"Castrovillari"}},
{"type":"node","id":4256227064,"lat":39.8117954,"lon":16.2030859,"timestamp":"2016-06-21T12:23:42Z","version":1,"changeset":40179541,"user":"ezy65","uid":3957088,"tags":{"amenity":"pharmacy","name":"Farmacia Caterini Filpo","addr:city":"Castrovillari"}},
{"type":"node","id":4258132705,"lat":39.8123929,"lon":16.2028376,"timestamp":"2016-06-22T06:12:54Z","version":1,"changeset":40196472,"user":"ezy65","uid":3957088,"tags":{"amenity":"pharmacy","name":"Farmacia D'Atri","addr:city":"Castrovillari"}},
{"type":"node","id":4256210377,"lat":39.8227063,"lon":16.2065232,"timestamp":"2016-06-21T12:15:51Z","version":1,"changeset":40179383,"user":"ezy65","uid":3957088,"tags":{"amenity":"pharmacy","name":"Farmacia Blandi","addr:city":"Castrovillari"}},
{"type":"node","id":4237048785,"lat":39.8224607,"lon":16.2029083,"timestamp":"2016-06-22T06:06:28Z","version":3,"changeset":40196397,"user":"ezy65","uid":3957088,"tags":{"amenity":"pharmacy","name":"Parafarmacia D.g.z. S.r.l.","addr:city":"Castrovillari"}},
{"type":"node","id":4256211914,"lat":39.8179741,"lon":16.2128303,"timestamp":"2016-06-21T12:17:18Z","version":1,"changeset":40179404,"user":"ezy65","uid":3957088,"tags":{"amenity":"pharmacy","name":"Farmacia Caccuri","addr:city":"Castrovillari"}},
{"type":"node","id":4252204771,"lat":39.8105422,"lon":16.2368107,"timestamp":"2016-06-19T07:52:43Z","version":1,"changeset":40129984,"user":"mggm","uid":4087173,"tags":{"amenity":"pharmacy","name":"Farmacia Restieri","addr:city":"Castrovillari"}},
{"type":"node","id":4252198314,"lat":39.817399,"lon":16.2051765,"timestamp":"2016-06-20T00:14:40Z","version":2,"changeset":40146436,"user":"mcheckimport","uid":893327,"tags":{"amenity":"theatre","name":"Teatro della Sirena","addr:city":"Castrovillari"}},
{"type":"node","id":4251249648,"lat":39.7922639,"lon":16.2365897,"timestamp":"2016-06-18T20:17:29Z","version":1,"changeset":40123160,"user":"mggm","uid":4087173,"tags":{"addr:street":"Contrada Palombari","amenity":"place_of_worship","denomination":"catholic","name":"Auxilium Christianorum","religion":"christian","addr:city":"Castrovillari"}},
{"type":"node","id":4251400979,"lat":39.8122003,"lon":16.2017582,"timestamp":"2016-06-23T08:42:02Z","version":2,"changeset":40223191,"user":"dgitto","uid":554973,"tags":{"amenity":"police","email":"cpcs426500cdo@carabinieri.it","name":"Compagnia Carabinieri di Castrovillari","opening_hours":"24\/7","phone":"+39 0981 21045","addr:city":"Castrovillari"}},
{"type":"node","id":4260084868,"lat":39.8122319,"lon":16.2017991,"timestamp":"2016-06-23T08:42:01Z","version":1,"changeset":40223191,"user":"dgitto","uid":554973,"tags":{"amenity":"police","email":"stcs426510@carabinieri.it","name":"Stazione Carabinieri di Castrovillari","opening_hours":"24\/7","phone":"+39 0981 489048","addr:city":"Castrovillari"}},
{"type":"node","id":4248253219,"lat":39.8257983,"lon":16.2080183,"timestamp":"2016-06-17T11:24:10Z","version":1,"changeset":40090776,"user":"mggm","uid":4087173,"tags":{"amenity":"police","name":"Polizia di Stato","addr:city":"Castrovillari"}},
{"type":"node","id":4251400980,"lat":39.82365,"lon":16.2123401,"timestamp":"2016-06-18T21:13:47Z","version":1,"changeset":40123922,"user":"mggm","uid":4087173,"tags":{"amenity":"police","name":"Guardia di Finanza","addr:city":"Castrovillari"}},
{"type":"node","id":4256194350,"lat":39.807722,"lon":16.211457,"timestamp":"2016-06-23T08:11:17Z","version":2,"changeset":40222550,"user":"dgitto","uid":554973,"tags":{"emergency":"defibrillator","addr:city":"Castrovillari"}},
{"type":"node","id":4256171411,"lat":39.8275419,"lon":16.2362378,"timestamp":"2016-06-23T08:11:17Z","version":2,"changeset":40222550,"user":"dgitto","uid":554973,"tags":{"emergency":"defibrillator","addr:city":"Castrovillari"}},
{"type":"node","id":2658947409,"lat":39.7642956,"lon":16.2318483,"timestamp":"2014-02-07T05:41:02Z","version":1,"changeset":20424215,"user":"jabecker","uid":944876,"tags":{"historic":"archaeological_site","name":"Celimarro, Castrovillari","website":"http:\/\/www.museoarcheologicocastrovillari.it\/","addr:city":"Castrovillari"}},
{"type":"node","id":2705393844,"lat":39.8137473,"lon":16.2007577,"timestamp":"2016-06-16T21:28:30Z","version":2,"changeset":40078354,"user":"ezy65","uid":3957088,"tags":{"historic":"memorial","name":"Monumento ai Caduti","addr:city":"Castrovillari"}},
{"type":"node","id":2658794773,"lat":39.7589979,"lon":16.2424993,"timestamp":"2014-02-07T03:51:02Z","version":1,"changeset":20423591,"user":"jabecker","uid":944876,"tags":{"historic":"ruins","name":"resti di una villa romana","addr:city":"Castrovillari"}},
{"type":"node","id":2016890133,"lat":39.8290289,"lon":16.2211275,"timestamp":"2012-11-16T17:51:31Z","version":1,"changeset":13897004,"user":"venerdi","uid":196617,"tags":{"man_made":"tower","tower:type":"communication","addr:city":"Castrovillari"}},
{"type":"node","id":3901941697,"lat":39.8447403,"lon":16.2373742,"timestamp":"2015-12-20T18:46:19Z","version":1,"changeset":36071105,"user":"niubii","uid":1987,"tags":{"man_made":"tower","tower:type":"communication","addr:city":"Castrovillari"}},
{"type":"node","id":4252924327,"lat":39.8247388,"lon":16.2023915,"timestamp":"2016-06-19T14:38:39Z","version":1,"changeset":40137186,"user":"mggm","uid":4087173,"tags":{"name":"Panetteria","shop":"bakery","addr:city":"Castrovillari"}},
{"type":"node","id":4250051990,"lat":39.808745,"lon":16.2102673,"timestamp":"2016-06-18T09:38:08Z","version":1,"changeset":40112098,"user":"ezy65","uid":3957088,"tags":{"name":"Pinacoteca Andrea Alfano","tourism":"museum","addr:city":"Castrovillari"}},
{"type":"node","id":3785914583,"lat":39.3109509,"lon":16.3439319,"timestamp":"2015-10-14T09:24:37Z","version":1,"changeset":34628975,"user":"kipple","uid":1906486,"tags":{"amenity":"drinking_water","addr:city":"Celico"}},
{"type":"node","id":1827306051,"lat":39.341312,"lon":16.4005369,"timestamp":"2012-07-16T08:24:35Z","version":1,"changeset":12240929,"user":"Arus","uid":189399,"tags":{"amenity":"drinking_water","addr:city":"Celico"}},
{"type":"node","id":3785914592,"lat":39.3108493,"lon":16.3435537,"timestamp":"2015-10-14T09:24:37Z","version":1,"changeset":34628975,"user":"kipple","uid":1906486,"tags":{"amenity":"place_of_worship","religion":"christian","addr:city":"Celico"}},
{"type":"node","id":3785914593,"lat":39.310648,"lon":16.338707,"timestamp":"2015-10-14T09:24:37Z","version":1,"changeset":34628975,"user":"kipple","uid":1906486,"tags":{"amenity":"place_of_worship","name":"Chiesa di San Michele","religion":"christian","addr:city":"Celico"}},
{"type":"node","id":1806209352,"lat":39.3870525,"lon":16.4120254,"timestamp":"2012-07-11T18:11:14Z","version":3,"changeset":12188669,"user":"Arus","uid":189399,"tags":{"leisure":"nature_reserve","name":"Serra della Guardia","natural":"wood","tourism":"attraction","addr:city":"Celico"}},
{"type":"node","id":1756978293,"lat":39.3292282,"lon":16.3954871,"timestamp":"2012-05-18T08:20:16Z","version":1,"changeset":11630576,"user":"Cirano80","uid":428160,"tags":{"man_made":"tower","tower:type":"communication","addr:city":"Celico"}},
{"type":"node","id":1806209351,"lat":39.3290531,"lon":16.3955569,"timestamp":"2012-06-30T11:03:56Z","version":2,"changeset":12064678,"user":"Arus","uid":189399,"tags":{"name":"Rifugio Monte Scuro","tourism":"alpine_hut","addr:city":"Celico"}},
{"type":"node","id":1806209352,"lat":39.3870525,"lon":16.4120254,"timestamp":"2012-07-11T18:11:14Z","version":3,"changeset":12188669,"user":"Arus","uid":189399,"tags":{"leisure":"nature_reserve","name":"Serra della Guardia","natural":"wood","tourism":"attraction","addr:city":"Celico"}},
{"type":"node","id":1409193241,"lat":39.3350175,"lon":16.3993362,"timestamp":"2011-08-23T00:22:53Z","version":1,"changeset":9099146,"user":"Arus","uid":189399,"tags":{"tourism":"viewpoint","addr:city":"Celico"}},
{"type":"node","id":3598494784,"lat":39.8617145,"lon":16.3813482,"timestamp":"2015-06-16T12:33:38Z","version":1,"changeset":32005510,"user":"fedc","uid":602784,"tags":{"amenity":"cafe","addr:city":"Cerchiara di Calabria"}},
{"type":"node","id":3598494783,"lat":39.8617795,"lon":16.3812908,"timestamp":"2015-06-16T12:33:38Z","version":1,"changeset":32005510,"user":"fedc","uid":602784,"tags":{"amenity":"restaurant","name":"Fontana vecchia","addr:city":"Cerchiara di Calabria"}},
{"type":"node","id":1772868822,"lat":39.5054333,"lon":15.9444156,"timestamp":"2012-06-01T18:09:29Z","version":1,"changeset":11770065,"user":"giacomop","uid":683319,"tags":{"amenity":"drinking_water","addr:city":"Cetraro"}},
{"type":"node","id":3717680738,"lat":39.5554019,"lon":15.9530086,"timestamp":"2015-08-27T22:54:32Z","version":1,"changeset":33632801,"user":"Sandro Bosio","uid":3133703,"tags":{"amenity":"drinking_water","addr:city":"Cetraro"}},
{"type":"node","id":2921542040,"lat":39.5377855,"lon":15.9020336,"timestamp":"2014-06-18T08:03:18Z","version":1,"changeset":22999417,"user":"FraPla","uid":354689,"tags":{"amenity":"restaurant","addr:city":"Cetraro"}},
{"type":"node","id":1772868225,"lat":39.4994647,"lon":15.9492543,"timestamp":"2012-06-01T18:08:31Z","version":1,"changeset":11770065,"user":"giacomop","uid":683319,"tags":{"amenity":"fuel","addr:city":"Cetraro"}},
{"type":"node","id":4200688016,"lat":39.5129475,"lon":15.9420075,"timestamp":"2016-05-22T19:21:08Z","version":1,"changeset":39494262,"user":"Walter Schlögl","uid":78656,"tags":{"amenity":"fuel","addr:city":"Cetraro"}},
{"type":"node","id":1772868135,"lat":39.5029996,"lon":15.9475162,"timestamp":"2012-06-01T18:08:08Z","version":1,"changeset":11770065,"user":"giacomop","uid":683319,"tags":{"shop":"supermarket","addr:city":"Cetraro"}},
{"type":"node","id":4200691407,"lat":39.5086111,"lon":15.9452778,"timestamp":"2016-05-22T19:22:59Z","version":1,"changeset":39494307,"user":"Walter Schlögl","uid":78656,"tags":{"name":"Spar","shop":"supermarket","addr:city":"Cetraro"}},
{"type":"node","id":2655784330,"lat":39.8274101,"lon":16.3129627,"timestamp":"2014-02-05T11:11:32Z","version":1,"changeset":20390167,"user":"FraPla","uid":354689,"tags":{"amenity":"restaurant","addr:city":"Civita"}},
{"type":"node","id":2655784328,"lat":39.827167,"lon":16.312995,"timestamp":"2014-02-05T11:11:32Z","version":1,"changeset":20390167,"user":"FraPla","uid":354689,"tags":{"historic":"memorial","addr:city":"Civita"}},
{"type":"node","id":2655784329,"lat":39.8274348,"lon":16.313373,"timestamp":"2014-02-05T11:11:32Z","version":1,"changeset":20390167,"user":"FraPla","uid":354689,"tags":{"name":"Museo Etnico Arbreshe Gennaro Placco","tourism":"museum","addr:city":"Civita"}},
{"type":"node","id":3451007468,"lat":39.0936402,"lon":16.155401,"timestamp":"2015-04-11T19:15:26Z","version":1,"changeset":30149793,"user":"kipple","uid":1906486,"tags":{"amenity":"drinking_water","addr:city":"Cleto"}},
{"type":"node","id":3451119171,"lat":39.0908126,"lon":16.1589852,"timestamp":"2015-04-11T20:43:33Z","version":1,"changeset":30151471,"user":"kipple","uid":1906486,"tags":{"amenity":"drinking_water","addr:city":"Cleto"}},
{"type":"node","id":3451119173,"lat":39.0902593,"lon":16.1585096,"timestamp":"2015-04-11T20:43:33Z","version":1,"changeset":30151471,"user":"kipple","uid":1906486,"tags":{"amenity":"drinking_water","addr:city":"Cleto"}},
{"type":"node","id":3450958862,"lat":39.0902803,"lon":16.1594444,"timestamp":"2015-04-11T18:32:48Z","version":1,"changeset":30148880,"user":"kipple","uid":1906486,"tags":{"amenity":"parking","addr:city":"Cleto"}},
{"type":"node","id":3450958877,"lat":39.0905165,"lon":16.1569366,"timestamp":"2015-04-11T19:15:27Z","version":2,"changeset":30149793,"user":"kipple","uid":1906486,"tags":{"addr:city":"Cleto","addr:postcode":"87030","amenity":"place_of_worship","denomination":"roman_catholic","name":"Chiesa della Consolazione","religion":"christian","myadd:city":"Cleto"}},
{"type":"node","id":3451007470,"lat":39.0909131,"lon":16.1593532,"timestamp":"2015-04-11T19:15:26Z","version":1,"changeset":30149793,"user":"kipple","uid":1906486,"tags":{"addr:city":"Cleto","addr:postcode":"87030","amenity":"place_of_worship","denomination":"roman_catholic","name":"Chiesa del Santissimo Rosario","religion":"christian","myadd:city":"Cleto"}},
{"type":"node","id":3451007473,"lat":39.0905394,"lon":16.1579089,"timestamp":"2015-04-11T19:15:26Z","version":1,"changeset":30149793,"user":"kipple","uid":1906486,"tags":{"addr:city":"Cleto","addr:postcode":"87030","amenity":"place_of_worship","denomination":"roman_catholic","name":"Chiesa di Santa Maria Assunta","religion":"christian","myadd:city":"Cleto"}},
{"type":"node","id":3450958861,"lat":39.0904801,"lon":16.1598709,"timestamp":"2015-04-11T19:15:27Z","version":2,"changeset":30149793,"user":"kipple","uid":1906486,"tags":{"addr:city":"Cleto","addr:postcode":"87030","amenity":"post_office","operator":"Poste Italiane","myadd:city":"Cleto"}},
{"type":"node","id":3451007471,"lat":39.090402,"lon":16.1595544,"timestamp":"2015-04-11T19:15:26Z","version":1,"changeset":30149793,"user":"kipple","uid":1906486,"tags":{"addr:city":"Cleto","addr:postcode":"87030","name":"Alimentari","shop":"convenience","myadd:city":"Cleto"}},
{"type":"node","id":3451119172,"lat":39.0912102,"lon":16.1593849,"timestamp":"2015-04-11T20:43:33Z","version":1,"changeset":30151471,"user":"kipple","uid":1906486,"tags":{"tourism":"viewpoint","addr:city":"Cleto"}},
{"type":"node","id":1947691531,"lat":39.1190633,"lon":16.3954772,"timestamp":"2012-10-05T15:52:38Z","version":1,"changeset":13373971,"user":"Vittorio Lascala","uid":690221,"tags":{"name":"Colosimi","platforms":"2","railway":"station","addr:city":"Colosimi"}},
{"type":"node","id":639923473,"lat":39.5916212,"lon":16.5227877,"timestamp":"2013-06-03T18:50:31Z","version":2,"changeset":16411042,"user":"albertux","uid":118185,"tags":{"amenity":"drinking_water","addr:city":"Corigliano Calabro"}},
{"type":"node","id":639923475,"lat":39.5977801,"lon":16.5194698,"timestamp":"2010-02-15T16:27:47Z","version":1,"changeset":3884529,"user":"glaucos","uid":113023,"tags":{"amenity":"drinking_water","addr:city":"Corigliano Calabro"}},
{"type":"node","id":639923484,"lat":39.62733,"lon":16.5081701,"timestamp":"2010-02-15T16:27:48Z","version":1,"changeset":3884529,"user":"glaucos","uid":113023,"tags":{"amenity":"drinking_water","addr:city":"Corigliano Calabro"}},
{"type":"node","id":639923480,"lat":39.60582,"lon":16.5189598,"timestamp":"2010-02-15T16:27:48Z","version":1,"changeset":3884529,"user":"glaucos","uid":113023,"tags":{"amenity":"drinking_water","addr:city":"Corigliano Calabro"}},
{"type":"node","id":3903859062,"lat":39.6404033,"lon":16.3578622,"timestamp":"2015-12-22T02:07:01Z","version":1,"changeset":36097745,"user":"Fastbyte01","uid":3427222,"tags":{"amenity":"fuel","addr:city":"Corigliano Calabro"}},
{"type":"node","id":227977056,"lat":39.618747,"lon":16.518931,"timestamp":"2014-03-04T14:26:12Z","version":5,"changeset":20911091,"user":"Aury88","uid":579545,"tags":{"amenity":"fuel","brand":"Agip","name":"Agip","operator":"Agip","addr:city":"Corigliano Calabro"}},
{"type":"node","id":3898944784,"lat":39.6374694,"lon":16.5278703,"timestamp":"2015-12-18T21:18:28Z","version":1,"changeset":36036122,"user":"Ale_Zena_IT","uid":22290,"tags":{"amenity":"fuel","addr:city":"Corigliano Calabro"}},
{"type":"node","id":2696147885,"lat":39.6430163,"lon":16.5288413,"timestamp":"2014-03-01T09:57:13Z","version":1,"changeset":20841976,"user":"FraPla","uid":354689,"tags":{"amenity":"fuel","addr:city":"Corigliano Calabro"}},
{"type":"node","id":2696157025,"lat":39.6744309,"lon":16.5081731,"timestamp":"2014-03-01T10:08:25Z","version":1,"changeset":20842201,"user":"FraPla","uid":354689,"tags":{"amenity":"fuel","addr:city":"Corigliano Calabro"}},
{"type":"node","id":3181103633,"lat":39.5978778,"lon":16.5193365,"timestamp":"2014-11-11T15:18:15Z","version":1,"changeset":26713695,"user":"ciarci84","uid":2456206,"tags":{"amenity":"post_office","addr:city":"Corigliano Calabro"}},
{"type":"node","id":3098934759,"lat":39.6248284,"lon":16.5166498,"timestamp":"2014-09-27T17:01:49Z","version":1,"changeset":25709894,"user":"ligfietser","uid":67141,"tags":{"shop":"supermarket","addr:city":"Corigliano Calabro"}},
{"type":"node","id":2916174673,"lat":39.6723014,"lon":16.5079955,"timestamp":"2014-06-14T16:40:58Z","version":1,"changeset":22928996,"user":"sergio7826","uid":411998,"tags":{"name":"Decathlon","shop":"sports","addr:city":"Corigliano Calabro"}},
{"type":"node","id":3181103272,"lat":39.5965509,"lon":16.5172337,"timestamp":"2014-11-11T15:17:17Z","version":1,"changeset":26713672,"user":"ciarci84","uid":2456206,"tags":{"name":"Castello di Corigliano Calabro","tourism":"attraction","addr:city":"Corigliano Calabro"}},
{"type":"node","id":2758570705,"lat":39.3014749,"lon":16.2553436,"timestamp":"2014-04-01T15:57:57Z","version":1,"changeset":21442236,"user":"FraPla","uid":354689,"tags":{"amenity":"cafe","addr:city":"Cosenza"}},
{"type":"node","id":1823196308,"lat":39.2840423,"lon":16.2641761,"timestamp":"2012-07-12T18:40:38Z","version":1,"changeset":12198998,"user":"Arus","uid":189399,"tags":{"amenity":"drinking_water","name":"Tredici Canali","addr:city":"Cosenza"}},
{"type":"node","id":1409217766,"lat":39.2939,"lon":16.2560579,"timestamp":"2012-07-06T18:10:18Z","version":3,"changeset":12133154,"user":"Davio","uid":217070,"tags":{"amenity":"drinking_water","addr:city":"Cosenza"}},
{"type":"node","id":1409259713,"lat":39.3009781,"lon":16.2543199,"timestamp":"2011-08-23T01:06:50Z","version":1,"changeset":9099146,"user":"Arus","uid":189399,"tags":{"amenity":"pub","name":"Jazz Cafè","addr:city":"Cosenza"}},
{"type":"node","id":1416766088,"lat":39.3137131,"lon":16.2534193,"timestamp":"2011-08-29T00:42:59Z","version":1,"changeset":9153157,"user":"Arus","uid":189399,"tags":{"amenity":"pub","name":"Blow","addr:city":"Cosenza"}},
{"type":"node","id":1352416352,"lat":39.2843024,"lon":16.2724027,"timestamp":"2011-07-07T10:17:10Z","version":1,"changeset":8655953,"user":"WolfgangFaber","uid":94190,"tags":{"amenity":"restaurant","cuisine":"pizza","name":"Pizzeria Le Magnolie","phone":"+39 0984 791683","website":"http:\/\/www.pizzerialemagnolie.it","addr:city":"Cosenza"}},
{"type":"node","id":3081362914,"lat":39.287101,"lon":16.260904,"timestamp":"2014-10-11T11:58:25Z","version":2,"changeset":26002357,"user":"kipple","uid":1906486,"tags":{"amenity":"library","name":"Biblioteca civica","wikipedia":"it:Biblioteca civica di Cosenza","addr:city":"Cosenza"}},
{"type":"node","id":1817468979,"lat":39.2984773,"lon":16.2474151,"timestamp":"2012-07-08T10:55:47Z","version":1,"changeset":12148412,"user":"Arus","uid":189399,"tags":{"amenity":"fuel","addr:city":"Cosenza"}},
{"type":"node","id":227771052,"lat":39.3046588,"lon":16.2505444,"timestamp":"2014-03-04T14:26:12Z","version":6,"changeset":20911091,"user":"Aury88","uid":579545,"tags":{"amenity":"fuel","brand":"Agip","name":"Agip","operator":"Agip","addr:city":"Cosenza"}},
{"type":"node","id":3066411895,"lat":39.3031214,"lon":16.2478437,"timestamp":"2014-09-24T12:52:18Z","version":2,"changeset":25644258,"user":"KonTur","uid":43262,"tags":{"amenity":"fuel","name":"IP","addr:city":"Cosenza"}},
{"type":"node","id":227586627,"lat":39.3098454,"lon":16.2470733,"timestamp":"2014-03-04T17:10:29Z","version":7,"changeset":20914248,"user":"Aury88","uid":579545,"tags":{"amenity":"fuel","brand":"Esso","name":"Esso","operator":"Esso","addr:city":"Cosenza"}},
{"type":"node","id":1416742336,"lat":39.3037066,"lon":16.2549218,"timestamp":"2011-08-28T23:32:06Z","version":1,"changeset":9152919,"user":"Arus","uid":189399,"tags":{"amenity":"fuel","brand":"Q8","fuel:diesel":"yes","addr:city":"Cosenza"}},
{"type":"node","id":226950853,"lat":39.3242745,"lon":16.2558194,"timestamp":"2014-09-17T13:36:00Z","version":5,"changeset":25501059,"user":"dgitto","uid":554973,"tags":{"amenity":"fuel","brand":"Tamoil","name":"Tamoil","operator":"Tamoil","addr:city":"Cosenza"}},
{"type":"node","id":1818345017,"lat":39.3236984,"lon":16.2559892,"timestamp":"2014-09-17T13:36:00Z","version":4,"changeset":25501059,"user":"dgitto","uid":554973,"tags":{"amenity":"fuel","brand":"Tamoil","name":"Tamoil","operator":"Tamoil","addr:city":"Cosenza"}},
{"type":"node","id":3785045808,"lat":39.2854098,"lon":16.2663667,"timestamp":"2015-10-13T17:31:16Z","version":1,"changeset":34617516,"user":"kipple","uid":1906486,"tags":{"amenity":"parking","addr:city":"Cosenza"}},
{"type":"node","id":1418386961,"lat":39.2974866,"lon":16.2555271,"timestamp":"2011-08-30T17:55:50Z","version":1,"changeset":9169588,"user":"Arus","uid":189399,"tags":{"amenity":"atm","operator":"Postamat","addr:city":"Cosenza"}},
{"type":"node","id":1409086932,"lat":39.2930342,"lon":16.2490369,"timestamp":"2011-08-22T22:31:01Z","version":1,"changeset":9098714,"user":"Arus","uid":189399,"tags":{"amenity":"hospital","emergency":"yes","name":"Pronto Soccorso","addr:city":"Cosenza"}},
{"type":"node","id":1409270597,"lat":39.2933915,"lon":16.2558487,"timestamp":"2015-04-02T00:03:37Z","version":3,"changeset":29918071,"user":"mcheckimport","uid":893327,"tags":{"addr:city":"Cosenza","addr:housenumber":"21","addr:street":"Piazza dei Bruzi","amenity":"pharmacy","dispensing":"yes","name":"Farmacia Beneduce Antonietta","phone":"+39 0984 26565","myadd:city":"Cosenza"}},
{"type":"node","id":1805848564,"lat":39.2986513,"lon":16.251746,"timestamp":"2012-06-29T08:41:56Z","version":1,"changeset":12054095,"user":"Arus","uid":189399,"tags":{"amenity":"veterinary","addr:city":"Cosenza"}},
{"type":"node","id":1409285028,"lat":39.3067791,"lon":16.2477235,"timestamp":"2011-08-23T01:57:18Z","version":1,"changeset":9099568,"user":"Arus","uid":189399,"tags":{"amenity":"fountain","addr:city":"Cosenza"}},
{"type":"node","id":3081362929,"lat":39.2853415,"lon":16.2592006,"timestamp":"2014-09-17T07:31:46Z","version":1,"changeset":25494490,"user":"Roberto Mizar Ferraro","uid":1916349,"tags":{"amenity":"fountain","addr:city":"Cosenza"}},
{"type":"node","id":3081362930,"lat":39.2859456,"lon":16.2624285,"timestamp":"2014-09-17T07:31:46Z","version":1,"changeset":25494490,"user":"Roberto Mizar Ferraro","uid":1916349,"tags":{"amenity":"fountain","addr:city":"Cosenza"}},
{"type":"node","id":3081362924,"lat":39.2897295,"lon":16.258179,"timestamp":"2014-09-17T07:31:46Z","version":1,"changeset":25494490,"user":"Roberto Mizar Ferraro","uid":1916349,"tags":{"amenity":"place_of_worship","name":"Chiesa San Francesco d'Assisi","addr:city":"Cosenza"}},
{"type":"node","id":3081362927,"lat":39.2892406,"lon":16.2575042,"timestamp":"2014-09-17T07:31:46Z","version":1,"changeset":25494490,"user":"Roberto Mizar Ferraro","uid":1916349,"tags":{"amenity":"place_of_worship","name":"Monastero delle Cappuccinelle","addr:city":"Cosenza"}},
{"type":"node","id":3081362919,"lat":39.2870312,"lon":16.2600988,"timestamp":"2014-09-17T07:31:46Z","version":1,"changeset":25494490,"user":"Roberto Mizar Ferraro","uid":1916349,"tags":{"amenity":"place_of_worship","name":"Monastero delle Vergini","addr:city":"Cosenza"}},
{"type":"node","id":3081362925,"lat":39.2879529,"lon":16.2599783,"timestamp":"2014-09-17T07:31:46Z","version":1,"changeset":25494490,"user":"Roberto Mizar Ferraro","uid":1916349,"tags":{"amenity":"place_of_worship","name":"Minestra di San Lorenzo","addr:city":"Cosenza"}},
{"type":"node","id":3081362931,"lat":39.2877032,"lon":16.2630376,"timestamp":"2014-09-17T07:31:46Z","version":1,"changeset":25494490,"user":"Roberto Mizar Ferraro","uid":1916349,"tags":{"amenity":"place_of_worship","name":"Chiesa dello Spirito Santo","addr:city":"Cosenza"}},
{"type":"node","id":3081362922,"lat":39.2871636,"lon":16.2615805,"timestamp":"2014-09-17T07:31:46Z","version":1,"changeset":25494490,"user":"Roberto Mizar Ferraro","uid":1916349,"tags":{"amenity":"police","name":"Polizia Provinciale","addr:city":"Cosenza"}},
{"type":"node","id":1409222183,"lat":39.2939332,"lon":16.2564334,"timestamp":"2013-11-29T09:52:40Z","version":2,"changeset":19175206,"user":"SldrHartman","uid":64392,"tags":{"amenity":"police","name":"Carabinieri","operator":"Arma dei Carabinieri","addr:city":"Cosenza"}},
{"type":"node","id":1409259746,"lat":39.3038963,"lon":16.2521258,"timestamp":"2011-08-23T01:06:51Z","version":1,"changeset":9099146,"user":"Arus","uid":189399,"tags":{"amenity":"post_office","name":"Poste","addr:city":"Cosenza"}},
{"type":"node","id":1352416351,"lat":39.286552,"lon":16.2619051,"timestamp":"2011-07-07T10:17:10Z","version":1,"changeset":8655953,"user":"WolfgangFaber","uid":94190,"tags":{"historic":"monument","name":"Bernardino Telesio","addr:city":"Cosenza"}},
{"type":"node","id":2235200736,"lat":39.3159311,"lon":16.2432632,"timestamp":"2013-03-29T17:44:49Z","version":1,"changeset":15541711,"user":"Salvatore Migliari","uid":1314319,"tags":{"man_made":"tower","name":"RAI","addr:city":"Cosenza"}},
{"type":"node","id":1746641676,"lat":39.2948049,"lon":16.2580851,"timestamp":"2014-10-14T15:49:41Z","version":4,"changeset":26075142,"user":"kipple","uid":1906486,"tags":{"name":"Cosenza Centro","railway":"station","wikipedia":"it:Stazione di Cosenza Centro","addr:city":"Cosenza"}},
{"type":"node","id":1947624546,"lat":39.2879852,"lon":16.2661269,"timestamp":"2012-10-05T14:38:42Z","version":1,"changeset":13373971,"user":"Vittorio Lascala","uid":690221,"tags":{"name":"Cosenza Casali","railway":"station","addr:city":"Cosenza"}},
{"type":"node","id":1279759981,"lat":39.3030771,"lon":16.2615472,"timestamp":"2012-06-06T09:34:30Z","version":4,"changeset":11813912,"user":"Davio","uid":217070,"tags":{"name":"Cosenza Campanella","railway":"station","addr:city":"Cosenza"}},
{"type":"node","id":1279764779,"lat":39.3117911,"lon":16.2607182,"timestamp":"2012-06-06T09:34:30Z","version":4,"changeset":11813912,"user":"Davio","uid":217070,"tags":{"name":"Cosenza Monaco","railway":"station","addr:city":"Cosenza"}},
{"type":"node","id":1279764780,"lat":39.3177651,"lon":16.2604727,"timestamp":"2012-10-13T01:39:15Z","version":7,"changeset":13474052,"user":"Vittorio Lascala","uid":690221,"tags":{"name":"Cosenza Vaglio Lise","railway":"station","addr:city":"Cosenza"}},
{"type":"node","id":3154018838,"lat":39.3188403,"lon":16.2601819,"timestamp":"2014-10-28T10:44:37Z","version":1,"changeset":26384386,"user":"Alexander Roalter","uid":334153,"tags":{"name":"Cosenza","railway":"station","wikipedia":"it:Stazione di Cosenza","addr:city":"Cosenza"}},
{"type":"node","id":1873353815,"lat":39.3258124,"lon":16.2541995,"timestamp":"2012-08-19T19:34:12Z","version":1,"changeset":12787852,"user":"CiscoTEDE","uid":817850,"tags":{"shop":"convenience","addr:city":"Cosenza"}},
{"type":"node","id":1409259730,"lat":39.292337,"lon":16.2519917,"timestamp":"2011-08-23T01:06:50Z","version":1,"changeset":9099146,"user":"Arus","uid":189399,"tags":{"name":"Scarpelli","shop":"supermarket","addr:city":"Cosenza"}},
{"type":"node","id":1874586622,"lat":39.2964111,"lon":16.2549232,"timestamp":"2012-08-20T15:35:01Z","version":1,"changeset":12797573,"user":"Cristian1989","uid":429539,"tags":{"name":"GS","shop":"supermarket","addr:city":"Cosenza"}},
{"type":"node","id":2433762036,"lat":39.2958742,"lon":16.2569315,"timestamp":"2013-08-27T12:10:37Z","version":1,"changeset":17535083,"user":"Cristian1989","uid":429539,"tags":{"addr:city":"Cosenza","addr:housename":"Viale Giacomo Mancini","addr:postcode":"87100","name":"Interspar","shop":"supermarket","myadd:city":"Cosenza"}},
{"type":"node","id":1417884190,"lat":39.2995058,"lon":16.253001,"timestamp":"2012-05-25T13:08:10Z","version":2,"changeset":11698381,"user":"imagic","uid":202392,"tags":{"name":"Tempio della Musica","shop":"music","addr:city":"Cosenza"}},
{"type":"node","id":3200233997,"lat":39.3097662,"lon":16.2418083,"timestamp":"2014-11-22T17:24:04Z","version":1,"changeset":26956343,"user":"Kbyte","uid":2479911,"tags":{"name":"Verdebinario","source":"GPS","tourism":"museum","addr:city":"Cosenza"}},
{"type":"node","id":3081362918,"lat":39.2897747,"lon":16.2597212,"timestamp":"2014-09-17T07:31:46Z","version":1,"changeset":25494490,"user":"Roberto Mizar Ferraro","uid":1916349,"tags":{"name":"Casa delle Culture","tourism":"museum","addr:city":"Cosenza"}},
{"type":"node","id":3081362916,"lat":39.2868922,"lon":16.2609046,"timestamp":"2015-10-13T17:31:17Z","version":2,"changeset":34617516,"user":"kipple","uid":1906486,"tags":{"addr:city":"Cosenza","addr:housenumber":"1","addr:postcode":"87100","addr:street":"Via Salita Liceo","name":"Museo del Fumetto","tourism":"museum","website":"http:\/\/www.museofumetto.it","myadd:city":"Cosenza"}},
{"type":"node","id":3785045804,"lat":39.2874166,"lon":16.2613717,"timestamp":"2015-10-13T17:31:15Z","version":1,"changeset":34617516,"user":"kipple","uid":1906486,"tags":{"addr:city":"Cosenza","addr:housenumber":"17","addr:postcode":"87100","addr:street":"Corso Bernardino Telesio","name":"Museo delle Arti e dei Mestieri","operator":"Provincia di Cosenza","tourism":"museum","myadd:city":"Cosenza"}},
{"type":"node","id":2696147065,"lat":39.6050399,"lon":16.7747301,"timestamp":"2014-03-01T09:54:36Z","version":1,"changeset":20841976,"user":"FraPla","uid":354689,"tags":{"amenity":"fuel","addr:city":"Crosia"}},
{"type":"node","id":227779110,"lat":39.6050317,"lon":16.7735443,"timestamp":"2014-03-04T14:26:12Z","version":5,"changeset":20911091,"user":"Aury88","uid":579545,"tags":{"amenity":"fuel","brand":"Agip","name":"Agip","operator":"Agip","addr:city":"Crosia"}},
{"type":"node","id":2921564519,"lat":39.6766813,"lon":15.8237295,"timestamp":"2014-06-18T08:31:44Z","version":1,"changeset":22999784,"user":"FraPla","uid":354689,"tags":{"amenity":"cafe","addr:city":"Diamante"}},
{"type":"node","id":2921638165,"lat":39.6780542,"lon":15.8180478,"timestamp":"2014-06-18T09:48:21Z","version":1,"changeset":23001132,"user":"FraPla","uid":354689,"tags":{"amenity":"drinking_water","addr:city":"Diamante"}},
{"type":"node","id":2921560702,"lat":39.6776596,"lon":15.8164274,"timestamp":"2014-06-18T08:25:08Z","version":1,"changeset":22999475,"user":"FraPla","uid":354689,"tags":{"amenity":"fast_food","addr:city":"Diamante"}},
{"type":"node","id":2921560703,"lat":39.6784874,"lon":15.8180636,"timestamp":"2014-06-18T08:25:08Z","version":1,"changeset":22999475,"user":"FraPla","uid":354689,"tags":{"amenity":"restaurant","addr:city":"Diamante"}},
{"type":"node","id":1414409324,"lat":39.6780119,"lon":15.8152962,"timestamp":"2016-06-19T17:52:52Z","version":3,"changeset":40140850,"user":"WolfgangFaber","uid":94190,"tags":{"amenity":"restaurant","name":"L'Approdo","note":"Previously known as \"La Taverna del Pescatore\".","website":"http:\/\/www.lapprododiamante.it\/","addr:city":"Diamante"}},
{"type":"node","id":1414409411,"lat":39.6757098,"lon":15.8215402,"timestamp":"2011-08-27T10:10:39Z","version":1,"changeset":9135867,"user":"peppe10","uid":504502,"tags":{"amenity":"restaurant","name":"itacarè","addr:city":"Diamante"}},
{"type":"node","id":1414409342,"lat":39.6790871,"lon":15.8195446,"timestamp":"2011-08-27T10:10:36Z","version":1,"changeset":9135867,"user":"peppe10","uid":504502,"tags":{"amenity":"restaurant","name":"pizzeria il giardino","addr:city":"Diamante"}},
{"type":"node","id":1414409363,"lat":39.6762878,"lon":15.8202849,"timestamp":"2011-08-27T10:10:37Z","version":1,"changeset":9135867,"user":"peppe10","uid":504502,"tags":{"amenity":"bank","name":"carime","addr:city":"Diamante"}},
{"type":"node","id":1414409471,"lat":39.6774769,"lon":15.8214436,"timestamp":"2011-08-27T10:10:40Z","version":1,"changeset":9135867,"user":"peppe10","uid":504502,"tags":{"amenity":"cinema","name":"vittoria","addr:city":"Diamante"}},
{"type":"node","id":1414409415,"lat":39.6784926,"lon":15.8175491,"timestamp":"2014-06-18T08:07:56Z","version":2,"changeset":22999475,"user":"FraPla","uid":354689,"tags":{"amenity":"place_of_worship","name":"immacolata concezione","religion":"christian","addr:city":"Diamante"}},
{"type":"node","id":2921554539,"lat":39.6774428,"lon":15.819241,"timestamp":"2014-06-18T08:19:03Z","version":1,"changeset":22999475,"user":"FraPla","uid":354689,"tags":{"amenity":"place_of_worship","religion":"christian","addr:city":"Diamante"}},
{"type":"node","id":2103221553,"lat":39.6845882,"lon":15.8281431,"timestamp":"2013-01-09T18:15:12Z","version":1,"changeset":14589208,"user":"venerdi","uid":196617,"tags":{"man_made":"tower","tower:type":"communication","addr:city":"Diamante"}},
{"type":"node","id":2080058244,"lat":39.6893519,"lon":15.8317413,"timestamp":"2012-12-23T15:51:40Z","version":1,"changeset":14379763,"user":"venerdi","uid":196617,"tags":{"man_made":"tower","tower:type":"communication","addr:city":"Diamante"}},
{"type":"node","id":2080058247,"lat":39.689427,"lon":15.8326616,"timestamp":"2012-12-23T15:51:40Z","version":1,"changeset":14379763,"user":"venerdi","uid":196617,"tags":{"man_made":"tower","tower:type":"communication","addr:city":"Diamante"}},
{"type":"node","id":2080058264,"lat":39.7127171,"lon":15.8267249,"timestamp":"2012-12-23T15:51:40Z","version":1,"changeset":14379763,"user":"venerdi","uid":196617,"tags":{"man_made":"tower","tower:type":"communication","addr:city":"Diamante"}},
{"type":"node","id":2921564520,"lat":39.6767122,"lon":15.8234747,"timestamp":"2014-06-18T08:31:44Z","version":1,"changeset":22999784,"user":"FraPla","uid":354689,"tags":{"shop":"convenience","addr:city":"Diamante"}},
{"type":"node","id":3900998751,"lat":39.2733856,"lon":16.0586959,"timestamp":"2015-12-20T08:10:55Z","version":1,"changeset":36060604,"user":"Ale_Zena_IT","uid":22290,"tags":{"amenity":"fuel","addr:city":"Falconara Albanese"}},
{"type":"node","id":1947644313,"lat":39.232672,"lon":16.3226952,"timestamp":"2012-10-05T15:04:52Z","version":1,"changeset":13373971,"user":"Vittorio Lascala","uid":690221,"tags":{"name":"Piane Crati","railway":"station","addr:city":"Figline Vegliaturo"}},
{"type":"node","id":1279690818,"lat":39.2279509,"lon":16.3264087,"timestamp":"2012-10-05T15:28:15Z","version":2,"changeset":13373971,"user":"Vittorio Lascala","uid":690221,"tags":{"name":"Figline-Cellara","operator":"Ferrovie della Calabria","railway":"station","addr:city":"Figline Vegliaturo"}},

{"type":"node","id":2342116788,"lat":39.2280949,"lon":16.0607378,"timestamp":"2013-06-12T16:03:30Z","version":1,"changeset":16525830,"user":"maorin","uid":897063,"tags":{"addr:city":"Fiumefreddo Bruzio","addr:housenumber":"25","addr:postcode":"87030","addr:street":"Viale Regio","amenity":"bar","name":"Onda Blu Cornetteria","source":"Survey","myadd:city":"Fiumefreddo Bruzio"}},
{"type":"node","id":2715825593,"lat":39.2271941,"lon":16.1369386,"timestamp":"2014-03-13T18:54:20Z","version":1,"changeset":21087475,"user":"kipple","uid":1906486,"tags":{"tourism":"information","addr:city":"Fiumefreddo Bruzio"}},
{"type":"node","id":2661794834,"lat":39.8077845,"lon":16.3684571,"timestamp":"2014-02-08T21:10:01Z","version":2,"changeset":20454844,"user":"jabecker","uid":944876,"tags":{"historic":"archaeological_site","name":"Timpone della Motta","source":"https:\/\/tools.wmflabs.org\/geohack\/geohack.php?pagename=Timpone_della_Motta&params=39_48_28_N_16_22_7_E_type:landmark","wikipedia":"en:Timpone della Motta","addr:city":"Francavilla Marittima"}},
{"type":"node","id":3093914299,"lat":39.3914176,"lon":16.0189759,"timestamp":"2014-09-24T12:52:10Z","version":1,"changeset":25644258,"user":"KonTur","uid":43262,"tags":{"amenity":"bar","addr:city":"Fuscaldo"}},
{"type":"node","id":3093913426,"lat":39.4079715,"lon":16.0145429,"timestamp":"2014-09-24T12:52:11Z","version":1,"changeset":25644258,"user":"KonTur","uid":43262,"tags":{"amenity":"cafe","addr:city":"Fuscaldo"}},
{"type":"node","id":3371727430,"lat":39.4129736,"lon":16.009404,"timestamp":"2015-02-25T13:39:05Z","version":1,"changeset":29091826,"user":"Francesco Maria Volpe Montesani","uid":2690038,"tags":{"amenity":"restaurant","name":"Raggio Verde","addr:city":"Fuscaldo"}},
{"type":"node","id":3093914287,"lat":39.3911449,"lon":16.0190844,"timestamp":"2014-09-24T12:52:10Z","version":1,"changeset":25644258,"user":"KonTur","uid":43262,"tags":{"amenity":"restaurant","addr:city":"Fuscaldo"}},
{"type":"node","id":3373431676,"lat":39.431112,"lon":16.0018777,"timestamp":"2015-02-26T16:40:36Z","version":1,"changeset":29117419,"user":"Francesco Maria Volpe Montesani","uid":2690038,"tags":{"amenity":"restaurant","name":"Banaker","addr:city":"Fuscaldo"}},