Identificatore,Categoria,Zona,Longitudine,Localita,Provincia,Comune,gid,Nome,Tipo sito archeologico,Latitudine
NUR2892,Nuraghe,Romangia,8.8125506,,SASSARI,Ploaghe,0,Nuraghe Alvisi,Nuraghe,40.669132
NUR2895,Nuraghe,Meilogu,8.6709326,,SASSARI,Thiesi,1,Nuraghe Su Eredu,Nuraghe,40.527084
NUR2896,Nuraghe,Guilcer,8.7118417,,ORISTANO,Paulilatino,2,Nuraghe Toroleo,Nuraghe,40.052597
NUR2897,Nuraghe,Nurra,8.4901429,,SASSARI,Sassari,3,Nuraghe Cappellone,Nuraghe,40.770986
NUR2898,Nuraghe,Marghine,8.9151263,,NUORO,Dualchi,4,Nuraghe Ono,Nuraghe,40.243794
NUR2899,Nuraghe,Romangia,8.6577228,,SASSARI,Osilo,5,Nuraghe Badu Canu,Nuraghe,40.715727
NUR2900,Nuraghe,Anglona,8.7794695,,SASSARI,Nulvi,6,Nuraghe Su Gastaldu,Nuraghe,40.782893
NUR2901,Nuraghe,Nurra,8.438328,,SASSARI,Sassari,7,Nuraghe Nidu 'e Coivu o La Viddazza,Nuraghe,40.723549
NUR2902,Nuraghe,Anglona,8.8632819,,SASSARI,Bulzi,8,Nuraghe Sarula o S' Arula,Nuraghe,40.847283
NUR2903,Nuraghe,Goceano,9.0751817,,SASSARI,Bono,9,Nuraghe Badde Cherchi o Babbe Cherchi,Nuraghe,40.389344
NUR4824,Nuraghe,Trexenta,9.0727973,,CAGLIARI,Gesico,10,Nuraghe Pettiou,Nuraghe,39.633861
NUR4826,Nuraghe,Sarcidano,9.1650974,,CAGLIARI,Isili,11,Nuraghe Sinnadroxiu,Nuraghe,39.737593
NUR4827,Nuraghe,Ogliastra,9.4669358,,OGLIASTRA,Osini,12,Nuraghe Sanu,Nuraghe,39.816676
NUR4829,Nuraghe,Trexenta,9.0856022,,CAGLIARI,Ortacesus,13,Nuraghe Bruncu Lau de Sebera,Nuraghe,39.521745
NUR4830,Nuraghe,Sulcis,8.6186456,,CARBONIA IGLESIAS,Giba,14,Nuraghe Panicasu,Nuraghe,39.077161
NUR4831,Nuraghe,Trexenta,9.0859615,,CAGLIARI,Ortacesus,15,Nuraghe Surbau,Nuraghe,39.529139
NUR4832,Nuraghe,Alta Marmilla,8.7775893,,ORISTANO,Mogoro,16,Nuraghe Pala Merenzia,Nuraghe,39.661758
NUR4833,Nuraghe,Trexenta,9.0948343,,CAGLIARI,Mandas,17,Nuraghe Ruina Fielli II,Nuraghe,39.640933
NUR4834,Nuraghe,Marmilla,9.0456024,,MEDIO CAMPIDANO,Villanovafranca,18,Nuraghe Ruinali sa Figu,Nuraghe,39.648656
NUR4835,Nuraghe,Sarrabus,9.5498979,,CAGLIARI,San Vito,19,Nuraghe Cardaxiu,Nuraghe,39.388501
NUR3365,Nuraghe,Montacuto,9.0878646,,SASSARI,Pattada,20,Nuraghe Su Casteddu,Nuraghe,40.648767
NUR3368,Nuraghe,Romangia,8.7006487,,SASSARI,Codrongianos,21,Nuraghe de Sa Urtja II,Nuraghe,40.691855
NUR4705,Nuraghe,Alta Marmilla,8.8717684,,ORISTANO,Albagiara,22,Nuraghe Bingias,Nuraghe,39.785149
NUR5201,Nuraghe,Gerrei,9.3654021,,CAGLIARI,Villasalto,23,Nuraghe Pranu Scandariu,Nuraghe,39.499179
NUR6257,Nuraghe,Marghine,8.9434504,,NUORO,Silanus,24,Nuraghe Corbos,Nuraghe,40.256726
NUR3902,Nuraghe,Gallura,9.5208938,,OLBIA-TEMPIO,Olbia,25,Nuraghe Riu Mulinu o Cabu Abbas,Nuraghe,40.955622
NUR2905,Nuraghe,Mandrolisai,9.091739,,NUORO,Austis,26,Nuraghe Turria,Nuraghe,40.093671
NUR2906,Nuraghe,Romangia,8.7986836,,SASSARI,Ploaghe,27,Nuraghe Pazza,Nuraghe,40.69134
NUR2908,Nuraghe,Marghine,8.7781888,,NUORO,Macomer,28,Nuraghe Pischinarza,Nuraghe,40.334531
NUR2909,Nuraghe,Barbagia,9.1636464,,NUORO,Oniferi,29,Nuraghe Carbai,Nuraghe,40.324865
NUR2910,Nuraghe,Meilogu,8.7433791,,SASSARI,Siligo,30,Nuraghe Scala Ruja o S'Iscala Ruja,Nuraghe,40.595576
NUR2911,Nuraghe,Baronia,9.6443814,,NUORO,Onifai,31,Nuraghe Lattas,Nuraghe,40.415239
NUR2913,Nuraghe,Barbagia,9.0222698,,NUORO,Olzai,32,Nuraghe Erchiles,Nuraghe,40.165051
NUR2914,Nuraghe,Montacuto,8.9199355,,SASSARI,Ozieri,33,Nuraghe Torol,Nuraghe,40.57961
NUR2915,Nuraghe,Coros,8.6166179,,SASSARI,Ossi,34,Nuraghe Formigiosu o Pintirinu,Nuraghe,40.655382
NUR2916,Nuraghe,Meilogu,8.6451083,,SASSARI,Banari,35,Nuraghe Domu Pabaras,Nuraghe,40.593011
NUR2917,Nuraghe,Marghine,8.6376384,,NUORO,Sindia,36,Nuraghe Corizanas o Corinzanas,Nuraghe,40.287366
NUR2918,Nuraghe,Guilcer,8.8650817,,ORISTANO,Ghilarza,37,Nuraghe Fruccas,Nuraghe,40.087632
NUR2919,Nuraghe,Romangia,8.7205133,,SASSARI,Ploaghe,38,Nuraghe Regos,Nuraghe,40.625025
NUR2920,Nuraghe,Barbagia,9.0473646,,NUORO,Ottana,39,Nuraghe Badde Suergiu,Nuraghe,40.241602
NUR2921,Nuraghe,Goceano,8.9857757,,SASSARI,Bono,40,Nuraghe Pilisserta II,Nuraghe,40.460501
NUR2923,Nuraghe,Coros,8.5624694,,SASSARI,Ittiri,41,Nuraghe Sa Gaipida,Nuraghe,40.588418
NUR2924,Nuraghe,Montacuto,8.8410088,,SASSARI,Ardara,42,Nuraghe Manuelle,Nuraghe,40.640689
NUR2925,Nuraghe,Goceano,9.1177833,,SASSARI,Benetutti,43,Nuraghe Ogoro,Nuraghe,40.410418
NUR2927,Nuraghe,Supramonte,9.5385843,,NUORO,Dorgali,44,Nuraghe Nostra Signora degli Angeli,Nuraghe,40.297395
NUR2928,Nuraghe,Gallura,9.4388839,,OLBIA-TEMPIO,Olbia,45,Nuraghe Paulelada,Nuraghe,40.926505
NUR2929,Nuraghe,Meilogu,8.7930885,,SASSARI,Giave,46,Nuraghe Bigialza II,Nuraghe,40.455984
NUR2930,Nuraghe,Supramonte,9.3310484,,NUORO,Orgosolo,47,Nuraghe Maninturtio,Nuraghe,40.148301
NUR2931,Nuraghe,Alta Gallura,9.096846,,OLBIA-TEMPIO,Tempio Pausania,48,Nuraghe Majori,Nuraghe,40.919461
NUR2932,Nuraghe,Barbagia,9.2316055,,NUORO,Orani,49,Nuraghe Ludriscas,Nuraghe,40.255917
NUR2933,Nuraghe,Montacuto,8.8493022,,SASSARI,Ozieri,50,Nuraghe Pittu,Nuraghe,40.657657
NUR2934,Nuraghe,Anglona,8.9025548,,SASSARI,Perfugas,51,Nuraghe Niedda II,Nuraghe,40.815094
NUR2935,Nuraghe,Guilcer,8.7540342,,ORISTANO,Paulilatino,52,Nuraghe Cuau o Quau,Nuraghe,40.087825
NUR4321,Nuraghe,Sulcis,8.708049,,CARBONIA IGLESIAS,Santadi,53,Nuraghe Sa Serra Andria Santus,Nuraghe,39.030371
NUR2937,Nuraghe,Sinis,8.4660766,,ORISTANO,San Vero Milis,54,Nuraghe Pala Naxi,Nuraghe,40.019162
NUR2940,Nuraghe,Campidano di Oristano,8.6787486,,ORISTANO,Bauladu,55,Nuraghe Onni,Nuraghe,40.046893
NUR2942,Nuraghe,Marghine,8.8194747,,NUORO,Bortigali,56,Nuraghe Pranu 'e Ruos,Nuraghe,40.282917
NUR4825,Nuraghe,Sulcis,8.6218643,,CARBONIA IGLESIAS,Sant'Anna Arresi,57,Nuraghe Paniesu,Nuraghe,39.017716
NUR2944,Nuraghe,Villanova,8.5410144,,SASSARI,Monteleone Rocca Doria,58,Nuraghe Su Nie,Nuraghe,40.491699
NUR2945,Nuraghe,Romangia,8.6542291,,SASSARI,Florinas,59,Nuraghe Sas Coas,Nuraghe,40.660171
NUR2948,Nuraghe,Romangia,8.7312823,,SASSARI,Ploaghe,60,Nuraghe Cannedu,Nuraghe,40.686441
NUR2949,Nuraghe,Marghine,8.9224621,,NUORO,Bolotana,61,Nuraghe Funtanassida o Sos Chircos,Nuraghe,40.360729
NUR2950,Nuraghe,Meilogu,8.9124065,,SASSARI,Bonorva,62,Nuraghe Tintinos,Nuraghe,40.443172
NUR2951,Nuraghe,Anglona,8.9353019,,SASSARI,Perfugas,63,Nuraghe Savruezzu,Nuraghe,40.816939
NUR2952,Nuraghe,Barigadu,8.8368675,,ORISTANO,Fordongianus,64,Nuraghe Santa Maria 'e Lodduo,Nuraghe,39.976612
NUR2953,Nuraghe,Romangia,8.7206232,,SASSARI,Ploaghe,65,Nuraghe Santuzzu,Nuraghe,40.676846
NUR2954,Nuraghe,Anglona,8.7819225,,SASSARI,Valledoria,66,Nuraghe Paltusu o Paltuso,Nuraghe,40.903251
NUR2955,Nuraghe,Nuorese,9.4554036,,NUORO,Onani,67,Nuraghe Su Crapulcu,Nuraghe,40.483158
NUR2956,Nuraghe,Gallura,9.0683797,,OLBIA-TEMPIO,Oschiri,68,Nuraghe Pittigone,Nuraghe,40.715169
NUR2957,Nuraghe,Montacuto,8.9031368,,SASSARI,Ozieri,69,Nuraghe Santu Lussurzu II,Nuraghe,40.707638
NUR2958,Nuraghe,Villanova,8.5973006,,SASSARI,Padria,70,Nuraghe Monte Su Furru,Nuraghe,40.387824
NUR2960,Nuraghe,Campidano di Oristano,8.6605311,,ORISTANO,Tramatza,71,Nuraghe Zira,Nuraghe,39.986676
NUR2963,Nuraghe,Montiferru,8.5992345,,ORISTANO,Seneghe,72,Nuraghe Comida,Nuraghe,40.068647
NUR2964,Nuraghe,Baronia,9.600817,,NUORO,Galtelli,73,Nuraghe Strulliu,Nuraghe,40.371176
NUR2965,Nuraghe,Guilcer,8.8776639,,ORISTANO,Aidomaggiore,74,Nuraghe Erighighine,Nuraghe,40.194536
NUR2966,Nuraghe,Meilogu,8.659662,,SASSARI,Bessude,75,Nuraghe Pedrosu,Nuraghe,40.563079
NUR2967,Nuraghe,Meilogu,8.7656683,,SASSARI,Torralba,76,Nuraghe Elies,Nuraghe,40.524762
NUR2968,Nuraghe,Meilogu,8.83017,,SASSARI,Bonorva,77,Nuraghe Cujaru,Nuraghe,40.475333
NUR2969,Nuraghe,Guilcer,8.8333403,,ORISTANO,Ghilarza,78,Nuraghe Irigheddai,Nuraghe,40.073936
NUR2970,Nuraghe,Marghine,8.7609744,,NUORO,Macomer,79,Nuraghe Iria,Nuraghe,40.234503
NUR2971,Nuraghe,Goceano,9.0918624,,SASSARI,Anela,80,Nuraghe Siana,Nuraghe,40.427612
NUR2972,Nuraghe,Montacuto,8.810319,,SASSARI,Ardara,81,Nuraghe Figu Ghia,Nuraghe,40.608933
NUR2973,Nuraghe,Montacuto,8.8015267,,SASSARI,Bonnanaro,82,Nuraghe Giorgittu,Nuraghe,40.520615
NUR2974,Nuraghe,Montiferru,8.4900659,,ORISTANO,Cuglieri,83,Nuraghe Sas Presones,Nuraghe,40.159763
NUR2976,Nuraghe,Baronia,9.5848631,,NUORO,Galtelli,84,Nuraghe Boniloghe,Nuraghe,40.358442
NUR2978,Nuraghe,Montacuto,9.1737208,,SASSARI,Pattada,85,Nuraghe Sas Giobadas,Nuraghe,40.523751
NUR2979,Nuraghe,Villanova,8.6350768,,SASSARI,Padria,86,Nuraghe Pedredu,Nuraghe,40.392574
NUR2980,Nuraghe,Romangia,8.64942,,SASSARI,Florinas,87,Protonuraghe Su Cannuju,Nuraghe,40.609911
NUR2982,Nuraghe,Barbagia,9.2608308,,NUORO,Mamoiada,88,Nuraghe Travessu,Nuraghe,40.190713
NUR2983,Nuraghe,Guilcer,8.8233009,,ORISTANO,Ghilarza,89,Nuraghe Madau,Nuraghe,40.093051
NUR2984,Nuraghe,Gennargentu,9.2382923,,NUORO,Desulo,90,Nuraghe Ura 'e Sole o Bruncu Nurage,Nuraghe,40.027684
NUR4954,Nuraghe,Sulcis,8.6279288,,CARBONIA IGLESIAS,Sant'Anna Arresi,91,Nuraghe Paniesu,Nuraghe,39.016611
NUR2986,Nuraghe,Guilcer,8.856925,,ORISTANO,Norbello,92,Nuraghe Sirbonica,Nuraghe,40.150574
NUR2987,Nuraghe,Marghine,8.9593076,,NUORO,Bolotana,93,Nuraghe Figu,Nuraghe,40.311994
NUR2988,Nuraghe,Anglona,8.7471074,,SASSARI,Nulvi,94,Nuraghe Cobelciada,Nuraghe,40.810066
NUR2989,Nuraghe,Barigadu,8.8960263,,ORISTANO,Samugheo,95,Nuraghe Perdaddossu,Nuraghe,39.942419
NUR2990,Nuraghe,Marghine,8.9812347,,NUORO,Bolotana,96,Nuraghe Santa Caterina,Nuraghe,40.322246
NUR2991,Nuraghe,Goceano,9.0814126,,SASSARI,Bultei,97,Nuraghe Gurzu,Nuraghe,40.466833
NUR2992,Nuraghe,Ogliastra,9.5963404,,OGLIASTRA,Triei,98,Nuraghe Sa Paule,Nuraghe,40.020815
NUR2993,Nuraghe,Meilogu,8.69798,,SASSARI,Cossoine,99,Nuraghe Alvu,Nuraghe,40.431965
NUR2996,Nuraghe,Barbagia,9.115136,,NUORO,Orotelli,100,Nuraghe Cossu,Nuraghe,40.310239
NUR2997,Nuraghe,Romangia,8.6154753,,SASSARI,Osilo,101,Nuraghe de sa Patada,Nuraghe,40.770418
NUR2998,Nuraghe,Montacuto,9.1201839,,SASSARI,Pattada,102,Nuraghe Elvanosu,Nuraghe,40.546272
NUR2999,Nuraghe,Meilogu,8.6032015,,SASSARI,Pozzomaggiore,103,Nuraghe Rosu,Nuraghe,40.371305
NUR3000,Nuraghe,Montiferru,8.5874309,,ORISTANO,Seneghe,104,Nuraghe Narva,Nuraghe,40.087293
NUR3001,Nuraghe,Supramonte,9.4819896,,NUORO,Oliena,105,Nuraghe Biriai,Nuraghe,40.328382
NUR5060,Nuraghe,Sulcis,8.6357555,,CARBONIA IGLESIAS,Sant'Anna Arresi,106,Nuraghe Coi Casu,Nuraghe,38.993201
NUR3003,Nuraghe,Romangia,8.6454476,,SASSARI,Florinas,107,Nuraghe Loddauro Basso o Giuanne Eli,Nuraghe,40.651951
NUR3004,Nuraghe,Montiferru,8.6221942,,ORISTANO,Seneghe,108,Nuraghe Umbulos,Nuraghe,40.100247
NUR3006,Nuraghe,Guilcer,8.6937046,,ORISTANO,Paulilatino,109,Nuraghe Trinchi,Nuraghe,40.051472
NUR3007,Nuraghe,Montiferru,8.4821373,,ORISTANO,Tresnuraghes,110,Nuraghe Magomadas,Nuraghe,40.191702
NUR3008,Nuraghe,Marghine,8.6375445,,NUORO,Sindia,111,Nuraghe Su Annagiu,Nuraghe,40.270844
NUR3009,Nuraghe,Guilcer,8.807736,,ORISTANO,Aidomaggiore,112,Nuraghe Maso 'e Maiore,Nuraghe,40.169986
NUR3010,Nuraghe,Meilogu,8.6404064,,SASSARI,Bessude,113,Nuraghe Crastu,Nuraghe,40.542326
NUR3011,Nuraghe,Romangia,8.6386751,,SASSARI,Osilo,114,Nuraghe Serra di Ghigulas,Nuraghe,40.711286
NUR3012,Nuraghe,Barigadu,8.8416311,,ORISTANO,Busachi,115,Nuraghe Pranu Nuraghe,Nuraghe,40.008126
NUR3014,Nuraghe,Anglona,8.8961711,,SASSARI,Perfugas,116,Nuraghe Sa Ruinosa II,Nuraghe,40.853187
NUR3015,Nuraghe,Gallura,9.2312246,,OLBIA-TEMPIO,Berchidda,117,Nuraghe de Mandras,Nuraghe,40.772638
NUR3016,Nuraghe,Supramonte,9.6331429,,NUORO,Dorgali,118,Nuraghe Buca d'Irghiriai,Nuraghe,40.299616
NUR3017,Nuraghe,Montacuto,9.0162643,,SASSARI,Tula,119,Nuraghe Pigalva,Nuraghe,40.722284
NUR3018,Nuraghe,Barbagia,9.270696,,NUORO,Gavoi,120,Nuraghe Istelazze o Istelathe,Nuraghe,40.161177
NUR3019,Nuraghe,Guilcer,8.8077789,,ORISTANO,Abbasanta,121,Nuraghe Izzi,Nuraghe,40.114195
NUR3020,Nuraghe,Villanova,8.5410252,,SASSARI,Villanova Monteleone,122,Nuraghe Ala Tennera,Nuraghe,40.541527
NUR3021,Nuraghe,Romangia,8.6576946,,SASSARI,Florinas,123,Nuraghe Sa Mina,Nuraghe,40.656185
NUR3023,Nuraghe,Anglona,8.7529171,,SASSARI,Nulvi,124,Nuraghe Ena Longa,Nuraghe,40.810488
NUR3024,Nuraghe,Barigadu,8.9096143,,ORISTANO,Samugheo,125,Nuraghe Paule Lutturu,Nuraghe,39.937448
NUR3025,Nuraghe,Montacuto,8.7985468,,SASSARI,Ardara,126,Nuraghe Mercurio,Nuraghe,40.618006
NUR3026,Nuraghe,Goceano,9.1474137,,SASSARI,Benetutti,127,Nuraghe Ortuine,Nuraghe,40.490907
NUR3027,Nuraghe,Gallura,9.2744216,,OLBIA-TEMPIO,Berchidda,128,Nuraghe Peddiu,Nuraghe,40.802773
NUR3028,Nuraghe,Marghine,8.8902153,,NUORO,Dualchi,129,Nuraghe Barile o Arile,Nuraghe,40.255983
NUR3029,Nuraghe,Anglona,8.910942,,SASSARI,Erula,130,Nuraghe Sa Toa,Nuraghe,40.791309
NUR3030,Nuraghe,Meilogu,8.6335426,,SASSARI,Giave,131,Nuraghe Anadde,Nuraghe,40.481056
NUR3031,Nuraghe,Alta Gallura,9.0691978,,OLBIA-TEMPIO,Tempio Pausania,132,Nuraghe Roccu,Nuraghe,40.829093
NUR3032,Nuraghe,Nuorese,9.2752128,,NUORO,Orune,133,Nuraghe Nuoradorzu,Nuraghe,40.467975
NUR3033,Nuraghe,Gallura,9.0439528,,OLBIA-TEMPIO,Oschiri,134,Nuraghe Spinalva,Nuraghe,40.675035
NUR3034,Nuraghe,Montacuto,9.116925,,SASSARI,Pattada,135,Nuraghe Sa Cadrea,Nuraghe,40.548785
NUR5117,Nuraghe,Sulcis,8.5955062,,CARBONIA IGLESIAS,Sant'Anna Arresi,136,Nuraghe Sarri,Nuraghe,39.010078
NUR3038,Nuraghe,Guilcer,8.7386799,,ORISTANO,Paulilatino,137,Nuraghe Buzzas,Nuraghe,40.100011
NUR3039,Nuraghe,Gennargentu,9.2729035,,NUORO,Fonni,138,Nuraghe Tanca Manna,Nuraghe,40.119281
NUR3040,Nuraghe,Guilcer,8.7389159,,ORISTANO,Paulilatino,139,Nuraghe Su Iddighinzu,Nuraghe,40.052024
NUR3042,Nuraghe,Marghine,8.7691551,,NUORO,Macomer,140,Nuraghe Toccori,Nuraghe,40.289693
NUR3043,Nuraghe,Ogliastra,9.5760923,,OGLIASTRA,Baunei,141,Nuraghe Perdusaccu,Nuraghe,40.129893
NUR3044,Nuraghe,Goceano,9.221212,,SASSARI,Benetutti,142,Nuraghe Nodu Liotto,Nuraghe,40.452804
NUR3048,Nuraghe,Meilogu,8.651323,,SASSARI,Cossoine,143,Nuraghe Sa Mandra 'e Sas Ebbas,Nuraghe,40.465633
NUR3049,Nuraghe,Villanova,8.5937252,,SASSARI,Padria,144,Nuraghe Mundigu,Nuraghe,40.434143
NUR3050,Nuraghe,Marghine,8.7308532,,NUORO,Macomer,145,Nuraghe Traina,Nuraghe,40.298388
NUR3052,Nuraghe,Barbagia,9.2098367,,NUORO,Orani,146,Nuraghe Naravile,Nuraghe,40.266825
NUR3053,Nuraghe,Meilogu,8.6401382,,SASSARI,Pozzomaggiore,147,Nuraghe Bassu,Nuraghe,40.360406
NUR3055,Nuraghe,Barigadu,8.9851347,,ORISTANO,Sorradile,148,Nuraghe Crabosu o Crabarzos,Nuraghe,40.142232
NUR3056,Nuraghe,Ogliastra,9.6604827,,OGLIASTRA,Lotzorai,149,Nuraghe Monte Piccinu o Piccinnu,Nuraghe,39.981191
NUR3058,Nuraghe,Guilcer,8.7077326,,ORISTANO,Paulilatino,150,Nuraghe Petito,Nuraghe,40.050363
NUR3059,Nuraghe,Montiferru,8.6120527,,ORISTANO,Scano di Montiferro,151,Nuraghe Sul,Nuraghe,40.224594
NUR3060,Nuraghe,Meilogu,8.8123602,,SASSARI,Bonorva,152,Nuraghe Sant'Elena,Nuraghe,40.468884
NUR3061,Nuraghe,Marghine,8.823148,,NUORO,Macomer,153,Nuraghe Mura Ulas,Nuraghe,40.367654
NUR3062,Nuraghe,Anglona,8.8724497,,SASSARI,Bulzi,154,Nuraghe Conte,Nuraghe,40.855478
NUR3065,Nuraghe,Meilogu,8.8263613,,SASSARI,Bonorva,155,Nuraghe Suldu II,Nuraghe,40.418921
NUR3066,Nuraghe,Barbagia,9.0881784,,NUORO,Sarule,156,Nuraghe Illudei,Nuraghe,40.207442
NUR3068,Nuraghe,Barigadu,8.9916819,,ORISTANO,Neoneli,157,Nuraghe Nole,Nuraghe,40.061166
NUR3070,Nuraghe,Anglona,8.7254566,,SASSARI,Nulvi,158,Nuraghe Figu Pinta,Nuraghe,40.836488
NUR3071,Nuraghe,Nuorese,9.44534,,NUORO,Onani,159,Nuraghe Sa Lamite,Nuraghe,40.503109
NUR3072,Nuraghe,Barbagia,9.2429365,,NUORO,Orani,160,Nuraghe Su Vrusciu,Nuraghe,40.271011
NUR3073,Nuraghe,Montacuto,9.0776521,,SASSARI,Pattada,161,Nuraghe Su Nelo,Nuraghe,40.568629
NUR3076,Nuraghe,Gallura,9.4280559,,OLBIA-TEMPIO,Olbia,162,Nuraghe Sana o Zucchitta,Nuraghe,40.869637
NUR3078,Nuraghe,Montiferru,8.5615548,,ORISTANO,Sennariolo,163,Nuraghe Rodeddu,Nuraghe,40.21379
NUR3079,Nuraghe,Meilogu,8.6596459,,SASSARI,Pozzomaggiore,164,Nuraghe Peidru Barra,Nuraghe,40.332215
NUR3081,Nuraghe,Barigadu,8.7609663,,ORISTANO,Villanova Truschedu,165,Nuraghe Suragheddu,Nuraghe,40.001537
NUR3082,Nuraghe,Meilogu,8.7821987,,SASSARI,Torralba,166,Nuraghe Fraigas,Nuraghe,40.485426
NUR3084,Nuraghe,Alta Gallura,8.9129886,,OLBIA-TEMPIO,Bortigiadas,167,Nuraghe La Tanchitta,Nuraghe,40.87246
NUR3086,Nuraghe,Marghine,8.7341456,,NUORO,Macomer,168,Nuraghe Pedrabardile,Nuraghe,40.224717
NUR3087,Nuraghe,Anglona,8.7407345,,SASSARI,Tergu,169,Nuraghe Cannas,Nuraghe,40.850783
NUR3088,Nuraghe,Goceano,9.1397023,,SASSARI,Benetutti,170,Nuraghe Bodoi,Nuraghe,40.481071
NUR3089,Nuraghe,Meilogu,8.7155082,,SASSARI,Siligo,171,Nuraghe Arzu,Nuraghe,40.587484
NUR3090,Nuraghe,Baronia,9.6245974,,NUORO,Galtelli,172,Nuraghe Su Marras,Nuraghe,40.358628
NUR3091,Nuraghe,Guilcer,8.8626932,,ORISTANO,Ghilarza,173,Nuraghe Mortos,Nuraghe,40.136056
NUR3092,Nuraghe,Meilogu,8.8213402,,SASSARI,Torralba,174,Nuraghe Trija,Nuraghe,40.501565
NUR3093,Nuraghe,Barbagia,9.132239,,NUORO,Oniferi,175,Nuraghe Lotzomu,Nuraghe,40.276398
NUR3094,Nuraghe,Barbagia,9.211623,,NUORO,Orani,176,Nuraghe Zommaria Corda,Nuraghe,40.280243
NUR3096,Nuraghe,Sinis,8.4485238,,ORISTANO,San Vero Milis,177,Nuraghe e' Mesu,Nuraghe,40.021335
NUR3097,Nuraghe,Nurra,8.4468421,,SASSARI,Sassari,178,Nuraghe Badde Funtana,Nuraghe,40.710712
NUR5231,Nuraghe,Sulcis,8.6539945,,CARBONIA IGLESIAS,Sant'Anna Arresi,179,Nuraghe Giara,Nuraghe,39.019325
NUR3099,Nuraghe,Goceano,8.9839974,,SASSARI,Bono,180,Nuraghe Florenzu,Nuraghe,40.458107
NUR3100,Nuraghe,Meilogu,8.6747977,,SASSARI,Pozzomaggiore,181,Nuraghe Ruggiu II,Nuraghe,40.394335
NUR3101,Nuraghe,Meilogu,8.6958396,,SASSARI,Siligo,182,Interno del Nuraghe Santu Ortolu,Nuraghe,40.598649
NUR3102,Nuraghe,Sinis,8.5557264,,ORISTANO,Narbolia,183,Nuraghe Erba Caggius,Nuraghe,40.055561
NUR3103,Nuraghe,Planargia,8.4879389,,ORISTANO,Bosa,184,Nuraghe Furru,Nuraghe,40.279067
NUR3104,Nuraghe,Marghine,8.6225563,,NUORO,Sindia,185,Nuraghe Sos Banditos,Nuraghe,40.311096
NUR3105,Nuraghe,Guilcer,8.9060228,,ORISTANO,Sedilo,186,Nuraghe Lighei,Nuraghe,40.182041
NUR3106,Nuraghe,Meilogu,8.6108484,,SASSARI,Thiesi,187,Nuraghe Sa Caddina,Nuraghe,40.509231
NUR3107,Nuraghe,Coros,8.5066004,,SASSARI,Uri,188,Nuraghe Lacuri,Nuraghe,40.638081
NUR3108,Nuraghe,Marghine,8.8704863,,NUORO,Bolotana,189,Nuraghe Sos Compensos,Nuraghe,40.373258
NUR3109,Nuraghe,Anglona,8.8672944,,SASSARI,Bulzi,190,Nuraghe Figone,Nuraghe,40.858344
NUR3111,Nuraghe,Anglona,8.9267564,,SASSARI,Erula,191,Nuraghe Pubattu,Nuraghe,40.788254
NUR3112,Nuraghe,Anglona,8.7352118,,SASSARI,Tergu,192,Nuraghe Li Sesini,Nuraghe,40.857965
NUR3113,Nuraghe,Meilogu,8.8135966,,SASSARI,Bonorva,193,Nuraghe Nurap,Nuraghe,40.445387
NUR3114,Nuraghe,Romangia,8.6396205,,SASSARI,Florinas,194,Nuraghe Coa Lada,Nuraghe,40.602421
NUR3115,Nuraghe,Anglona,8.9017997,,SASSARI,Perfugas,195,Nuraghe Bureu,Nuraghe,40.80996
NUR3116,Nuraghe,Guilcer,8.8957821,,ORISTANO,Sedilo,196,Nuraghe Santu Antine 'e Campu o Santu Antinu 'e Campu,Nuraghe,40.195363
NUR3117,Nuraghe,Sinis,8.6697927,,ORISTANO,Milis,197,Nuraghe 'e Procus,Nuraghe,40.060421
NUR3118,Nuraghe,Marghine,8.7435078,,NUORO,Macomer,198,Nuraghe 'e Mesu,Nuraghe,40.301169
NUR3119,Nuraghe,Marghine,8.7486523,,NUORO,Macomer,199,Nuraghe Columbos,Nuraghe,40.299163
NUR3120,Nuraghe,Guilcer,8.8601437,,ORISTANO,Boroneddu,200,Nuraghe Friscas,Nuraghe,40.112115
NUR3122,Nuraghe,Goceano,8.9855303,,SASSARI,Anela,201,Nuraghe Ferulas,Nuraghe,40.465014
NUR3123,Nuraghe,Barigadu,8.8750541,,ORISTANO,Allai,202,Nuraghe Pranu Ollisa,Nuraghe,39.966595
NUR3124,Nuraghe,Goceano,8.9350631,,SASSARI,Burgos,203,Nuraghe Su Fraile II,Nuraghe,40.420198
NUR3125,Nuraghe,Barigadu,8.86388,,ORISTANO,Busachi,204,Nuraghe Ariolu,Nuraghe,39.982877
NUR3126,Nuraghe,Barbagia,9.2487851,,NUORO,Mamoiada,205,Nuraghe Venatiteri o Venathitheri,Nuraghe,40.215584
NUR3127,Nuraghe,Sinis,8.5559302,,ORISTANO,Narbolia,206,Nuraghe Scala Quaddus II,Nuraghe,40.049449
NUR3128,Nuraghe,Nuorese,9.2089837,,NUORO,Osidda,207,Nuraghe Merula,Nuraghe,40.520095
NUR3129,Nuraghe,Anglona,8.9053939,,SASSARI,Perfugas,208,Nuraghe Ruju Anzos,Nuraghe,40.805543
NUR3130,Nuraghe,Barbagia,9.2636364,,NUORO,Gavoi,209,Nuraghe Giorgi Floris o Jorzi Froris,Nuraghe,40.16519
NUR3131,Nuraghe,Guilcer,8.7463322,,ORISTANO,Paulilatino,210,Nuraghe Campischeddu,Nuraghe,40.060098
NUR3132,Nuraghe,Romangia,8.6537758,,SASSARI,Florinas,211,Nuraghe Giorzi Massone,Nuraghe,40.622157
NUR3134,Nuraghe,Mandrolisai,9.0316522,,NUORO,Meana Sardo,212,Nuraghe Inzilicorru,Nuraghe,39.942184
NUR3135,Nuraghe,Goceano,9.0973475,,SASSARI,Bono,213,Nuraghe Ortivai I,Nuraghe,40.364299
NUR3136,Nuraghe,Goceano,9.0937373,,SASSARI,Bono,214,Nuraghe Ortivai,Nuraghe,40.361365
NUR3137,Nuraghe,Montiferru,8.4711027,,ORISTANO,Cuglieri,215,Nuraghe Orassale,Nuraghe,40.151882
NUR3138,Nuraghe,Baronia,9.7135394,,NUORO,Irgoli,216,Nuraghe Sant'Andria,Nuraghe,40.487346
NUR3139,Nuraghe,Meilogu,8.6240503,,SASSARI,Pozzomaggiore,217,Nuraghe Assidu,Nuraghe,40.331964
NUR1704,Nuraghe,Sulcis,8.611016,IS MELONIS,CARBONIA IGLESIAS,Sant'Anna Arresi,218,Nuraghe IS Melonis,Nuraghe,38.979887
NUR3142,Nuraghe,Ogliastra,9.5825082,,OGLIASTRA,Talana,219,Nuraghe Talle o Tol,Nuraghe,39.990172
NUR3145,Nuraghe,Supramonte,9.5332414,,NUORO,Dorgali,220,Nuraghe Oveni,Nuraghe,40.329505
NUR3146,Nuraghe,Montacuto,8.9457142,,SASSARI,Ozieri,221,Nuraghe Monte Jannas,Nuraghe,40.569567
NUR3147,Nuraghe,Barbagia,9.166055,,NUORO,Oniferi,222,Nuraghe Ianna Ormica,Nuraghe,40.320918
NUR3148,Nuraghe,Meilogu,8.6847675,,SASSARI,Giave,223,Nuraghe Porcheddos,Nuraghe,40.465708
NUR3149,Nuraghe,Sinis,8.5399657,,ORISTANO,Narbolia,224,Nuraghe Coronas o Crabazzeddu,Nuraghe,40.038059
NUR3150,Nuraghe,Sinis,8.5485863,,ORISTANO,Narbolia,225,Nuraghe Procus,Nuraghe,40.035394
NUR3151,Nuraghe,Anglona,8.7183809,,SASSARI,Nulvi,226,Nuraghe Pala de Pontina,Nuraghe,40.788331
NUR3152,Nuraghe,Planargia,8.5393408,,ORISTANO,Suni,227,Nuraghe Cannedu,Nuraghe,40.277173
NUR3153,Nuraghe,Planargia,8.5063308,,ORISTANO,Montresta,228,Nuraghe Sa Rughe,Nuraghe,40.421874
NUR3154,Nuraghe,Sinis,8.5363823,,ORISTANO,Narbolia,229,Nuraghe Cuccuru S'Eremita,Nuraghe,40.035207
NUR3155,Nuraghe,Barbagia,9.2536613,,NUORO,Orani,230,Nuraghe Nieddu,Nuraghe,40.279128
NUR3156,Nuraghe,Barigadu,8.8888568,,ORISTANO,Samugheo,231,Nuraghe Carruggiu,Nuraghe,39.953056
NUR3157,Nuraghe,Gennargentu,9.307681,,NUORO,Fonni,232,Nuraghe Madalei,Nuraghe,40.127658
NUR3159,Nuraghe,Coros,8.5682684,,SASSARI,Ittiri,233,Nuraghe Cunedda,Nuraghe,40.57065
NUR3160,Nuraghe,Montacuto,8.8072559,,SASSARI,Bonnanaro,234,Nuraghe San Pietro,Nuraghe,40.522222
NUR3161,Nuraghe,Marghine,8.811829,,NUORO,Macomer,235,Nuraghe Mura Ine,Nuraghe,40.361902
NUR3162,Nuraghe,Goceano,9.0046048,,SASSARI,Anela,236,Nuraghe 'e Mesu,Nuraghe,40.471977
NUR3163,Nuraghe,Marghine,8.7389668,,NUORO,Macomer,237,Nuraghe Cuccuru Ladu I,Nuraghe,40.320923
NUR3164,Nuraghe,Anglona,8.9471036,,SASSARI,Perfugas,238,Nuraghe Majore,Nuraghe,40.816224
NUR3165,Nuraghe,Anglona,8.6647126,,SASSARI,Castelsardo,239,Nuraghe La Filetta,Nuraghe,40.878922
NUR1705,Nuraghe,Sulcis,8.60328,,CARBONIA IGLESIAS,Sant'Anna Arresi,240,,Nuraghe,38.99659
NUR3168,Nuraghe,Gallura,9.0784514,,OLBIA-TEMPIO,Oschiri,241,Nuraghe s'Abba Salida,Nuraghe,40.696497
NUR3170,Nuraghe,Villanova,8.5767227,,SASSARI,Romana,242,Nuraghe Montiu,Nuraghe,40.49885
NUR3171,Nuraghe,Villanova,8.5963538,,SASSARI,Romana,243,Nuraghe Sgolzi,Nuraghe,40.465327
NUR3172,Nuraghe,Montiferru,8.6245492,,ORISTANO,Santu Lussurgiu,244,Nuraghe Punta Badde Urbara,Nuraghe,40.158067
NUR3175,Nuraghe,Sinis,8.4512382,,ORISTANO,San Vero Milis,245,Nuraghe Gutturu Diegu,Nuraghe,40.019691
NUR3178,Nuraghe,Montiferru,8.5269651,,ORISTANO,Sennariolo,246,Nuraghe S'Ena 'e Tiana o S'Ena 'e Tiara,Nuraghe,40.229687
NUR3179,Nuraghe,Montiferru,8.4765958,,ORISTANO,Cuglieri,247,Nuraghe Sisiddu,Nuraghe,40.179201
NUR3181,Nuraghe,Nuorese,9.4949663,,NUORO,Onani,248,Nuraghe Liri,Nuraghe,40.58742
NUR3184,Nuraghe,Guilcer,8.7854763,,ORISTANO,Paulilatino,249,Nuraghe Sos Baos,Nuraghe,40.046665
NUR3185,Nuraghe,Meilogu,8.7943196,,SASSARI,Giave,250,Nuraghe Bigialza I,Nuraghe,40.45625
NUR3186,Nuraghe,Nuorese,9.3515646,,NUORO,Orune,251,Nuraghe Sa Mandra,Nuraghe,40.413604
NUR3187,Nuraghe,Montacuto,8.78667,,SASSARI,Ardara,252,Nuraghe Su Chercu,Nuraghe,40.63779
NUR3188,Nuraghe,Meilogu,8.639009,,SASSARI,Banari,253,Nuraghe Farre,Nuraghe,40.578005
NUR3189,Nuraghe,Marghine,8.8049144,,NUORO,Bortigali,254,Nuraghe Taleris,Nuraghe,40.335209
NUR3190,Nuraghe,Meilogu,8.7382547,,SASSARI,Siligo,255,Nuraghe Morette,Nuraghe,40.605959
NUR3191,Nuraghe,Supramonte,9.5439742,,NUORO,Dorgali,256,Nuraghe Sa Icu,Nuraghe,40.333245
NUR3192,Nuraghe,Villanova,8.6063826,,SASSARI,Mara,257,Nuraghe Santa Giara,Nuraghe,40.442133
NUR3193,Nuraghe,Meilogu,8.7406218,,SASSARI,Giave,258,Nuraghe Santu Ainzu,Nuraghe,40.433718
NUR3194,Nuraghe,Ogliastra,9.4259154,,OGLIASTRA,Talana,259,Nuraghe Nercone II,Nuraghe,40.022705
NUR3195,Nuraghe,Ogliastra,9.6134823,,OGLIASTRA,Lotzorai,260,Nuraghe Perd'e Scarlattu,Nuraghe,39.97008
NUR3196,Nuraghe,Montacuto,8.9520335,,SASSARI,Ozieri,261,Nuraghe Columbos,Nuraghe,40.668776
NUR3197,Nuraghe,Guilcer,8.715527,,ORISTANO,Paulilatino,262,Nuraghe Sa Conza,Nuraghe,40.118293
NUR3198,Nuraghe,Sinis,8.499813,,ORISTANO,Riola Sardo,263,Nuraghe Francisca Perra,Nuraghe,39.998291
NUR3199,Nuraghe,Marghine,8.7233349,,NUORO,Macomer,264,Nuraghe Turrigas,Nuraghe,40.317943
NUR4955,Nuraghe,Sulcis,8.4453749,,CARBONIA IGLESIAS,Sant'Antioco,265,Nuraghe Turri,Nuraghe,38.987333
NUR3201,Nuraghe,Marghine,8.732956,,NUORO,Macomer,266,Nuraghe Pedrabardile II,Nuraghe,40.226086
NUR3202,Nuraghe,Guilcer,8.95151,,ORISTANO,Sedilo,267,Nuraghe Busurtei,Nuraghe,40.16092
NUR3204,Nuraghe,Goceano,8.9889058,,SASSARI,Bono,268,Nuraghe Sas Doppias,Nuraghe,40.438972
NUR3207,Nuraghe,Meilogu,8.6980994,,SASSARI,Giave,269,Nuraghe S' Ammuradu,Nuraghe,40.471244
NUR3208,Nuraghe,Montacuto,8.8037449,,SASSARI,Ardara,270,Nuraghe Pianu Piredu,Nuraghe,40.644829
NUR3210,Nuraghe,Meilogu,8.7301759,,SASSARI,Cossoine,271,Nuraghe S'Ena,Nuraghe,40.439583
NUR3211,Nuraghe,Barbagia,9.2642788,,NUORO,Mamoiada,272,Nuraghe Sas de Melas,Nuraghe,40.225812
NUR3212,Nuraghe,Guilcer,8.8829049,,ORISTANO,Soddi,273,Nuraghe Sant'Anastasia,Nuraghe,40.132457
NUR3213,Nuraghe,Anglona,8.8232721,,SASSARI,Sedini,274,Nuraghe Longu,Nuraghe,40.894929
NUR3214,Nuraghe,Anglona,8.7380724,,SASSARI,Nulvi,275,Nuraghe Monte San Lorenzo,Nuraghe,40.782647
NUR3215,Nuraghe,Montacuto,8.9690709,,SASSARI,Ozieri,276,Nuraghe Monte Liuoro,Nuraghe,40.573348
NUR3216,Nuraghe,Montacuto,9.1223082,,SASSARI,Pattada,277,Nuraghe Muzzone,Nuraghe,40.610513
NUR3218,Nuraghe,Barigadu,8.8985771,,ORISTANO,Samugheo,278,Nuraghe Sa Mura,Nuraghe,39.960403
NUR3219,Nuraghe,Montiferru,8.5381097,,ORISTANO,Sennariolo,279,Nuraghe Fromigas o Frommigas,Nuraghe,40.206217
NUR3221,Nuraghe,Guilcer,8.7122735,,ORISTANO,Paulilatino,280,Nuraghe Sonnu,Nuraghe,40.046429
NUR3222,Nuraghe,Villanova,8.5158151,,SASSARI,Villanova Monteleone,281,Nuraghe Maghine Gherchi o Marghine Chercu,Nuraghe,40.49781
NUR3223,Nuraghe,Ogliastra,9.4418773,,OGLIASTRA,Talana,282,Nuraghe Oruntaccu o Buruntaccu,Nuraghe,40.000189
NUR3224,Nuraghe,Marghine,8.7373361,,NUORO,Macomer,283,Nuraghe Pintuleddu II,Nuraghe,40.304047
NUR3225,Nuraghe,Meilogu,8.8237005,,SASSARI,Bonorva,284,Nuraghe Cagai,Nuraghe,40.468459
NUR3226,Nuraghe,Anglona,8.8724497,,SASSARI,Bulzi,285,Nuraghe Concatile,Nuraghe,40.873636
NUR3228,Nuraghe,Ogliastra,9.6297526,,OGLIASTRA,Triei,286,Nuraghe Bau Nuraxi,Nuraghe,40.03106
NUR3229,Nuraghe,Montacuto,8.8177728,,SASSARI,Ardara,287,Nuraghe Mumusari,Nuraghe,40.615133
NUR3231,Nuraghe,Ogliastra,9.4143176,,OGLIASTRA,Talana,288,Nuraghe Orotzeris,Nuraghe,40.043312
NUR3232,Nuraghe,Meilogu,8.6337747,,SASSARI,Pozzomaggiore,289,Nuraghe S'Ulia,Nuraghe,40.366821
NUR3233,Nuraghe,Meilogu,8.6729979,,SASSARI,Thiesi,290,Nuraghe Crastu de Giolzi,Nuraghe,40.517308
NUR3234,Nuraghe,Ogliastra,9.6624192,,OGLIASTRA,Baunei,291,Nuraghe Nuragheddu,Nuraghe,40.102512
NUR3237,Nuraghe,Guilcer,8.8724121,,ORISTANO,Aidomaggiore,292,Nuraghe Tosinghene,Nuraghe,40.186496
NUR3238,Nuraghe,Montacuto,8.7938288,,SASSARI,Ardara,293,Nuraghe Pintadu,Nuraghe,40.638969
NUR3240,Nuraghe,Goceano,9.1108188,,SASSARI,Bultei,294,Nuraghe Nurchidda o Sa Matta,Nuraghe,40.47152
NUR3241,Nuraghe,Meilogu,8.6147699,,SASSARI,Cossoine,295,Nuraghe Semis,Nuraghe,40.45475
NUR3242,Nuraghe,Baronia,9.6552336,,NUORO,Onifai,296,Nuraghe,Nuraghe,40.406171
NUR3243,Nuraghe,Mandrolisai,8.9600238,,NUORO,Ortueri,297,Nuraghe Cannas,Nuraghe,40.0222
NUR3244,Nuraghe,Nuorese,9.2509549,,NUORO,Orune,298,Nuraghe Su Nurattolu,Nuraghe,40.40704
NUR3245,Nuraghe,Sinis,8.4424138,,ORISTANO,Riola Sardo,299,Nuraghe S'Uraccheddu Biancu,Nuraghe,39.989056
NUR3247,Nuraghe,Anglona,8.8886945,,SASSARI,Perfugas,300,Nuraghe Ozzastru,Nuraghe,40.805495
NUR3248,Nuraghe,Barigadu,8.7555174,,ORISTANO,Villanova Truschedu,301,Nuraghe Dominigu Porru,Nuraghe,40.006479
NUR3249,Nuraghe,Coros,8.4982467,,SASSARI,Uri,302,Nuraghe Rappasale,Nuraghe,40.633101
NUR3250,Nuraghe,Montacuto,8.8028866,,SASSARI,Ardara,303,Nuraghe Pedru Cherchi,Nuraghe,40.648528
NUR3252,Nuraghe,Supramonte,9.5143854,,NUORO,Dorgali,304,Nuraghe Lottoniddo,Nuraghe,40.330362
NUR3253,Nuraghe,Romangia,8.711375,,SASSARI,Osilo,305,Nuraghe Sa Pudda I,Nuraghe,40.760524
NUR3255,Nuraghe,Villanova,8.634582,,SASSARI,Mara,306,Nuraghe Bonvei,Nuraghe,40.435806
NUR3256,Nuraghe,Gallura,9.0765859,,OLBIA-TEMPIO,Oschiri,307,Nuraghe Multajolos,Nuraghe,40.66411
NUR3257,Nuraghe,Montiferru,8.5975585,,ORISTANO,Scano di Montiferro,308,Nuraghe Donnigheddu,Nuraghe,40.245441
NUR3260,Nuraghe,Meilogu,8.6798563,,SASSARI,Banari,309,Nuraghe Su Crapione,Nuraghe,40.575127
NUR3261,Nuraghe,Marghine,8.6951798,,NUORO,Sindia,310,Nuraghe Elighe,Nuraghe,40.326489
NUR3262,Nuraghe,Barigadu,8.7815255,,ORISTANO,Villanova Truschedu,311,Nuraghe Campu 'e Cubas,Nuraghe,40.017915
NUR3264,Nuraghe,Marghine,8.7864017,,NUORO,Macomer,312,Nuraghe Ascusa,Nuraghe,40.313857
NUR3265,Nuraghe,Goceano,9.0196788,,SASSARI,Anela,313,Nuraghe Castanza,Nuraghe,40.463364
NUR3266,Nuraghe,Supramonte,9.5187762,,NUORO,Oliena,314,Nuraghe Su Cungiadu,Nuraghe,40.297108
NUR3267,Nuraghe,Meilogu,8.6900112,,SASSARI,Giave,315,Nuraghe Riu Ena,Nuraghe,40.475339
NUR3268,Nuraghe,Campidano di Oristano,8.7461055,,ORISTANO,Siamanna,316,Nuraghe Paba de Soli,Nuraghe,39.912179
NUR3269,Nuraghe,Marghine,8.7908542,,NUORO,Macomer,317,Nuraghe Funtana Codina,Nuraghe,40.336782
NUR3270,Nuraghe,Anglona,8.821511,,SASSARI,Sedini,318,Nuraghe Monti Fulcadu,Nuraghe,40.885811
NUR5107,Nuraghe,Sulcis,8.4448559,,CARBONIA IGLESIAS,Sant'Antioco,319,Nuraghe S'Ega Marteddu,Nuraghe,39.001968
NUR3272,Nuraghe,Montiferru,8.5594332,,ORISTANO,Sennariolo,320,Nuraghe Murcu,Nuraghe,40.226085
NUR3273,Nuraghe,Marghine,8.7509805,,NUORO,Macomer,321,Nuraghe Maronzu,Nuraghe,40.296335
NUR3274,Nuraghe,Anglona,8.8021034,,SASSARI,Martis,322,Nuraghe Monte Ruina,Nuraghe,40.793258
NUR3275,Nuraghe,Montacuto,8.8783371,,SASSARI,Mores,323,Nuraghe Poddighe,Nuraghe,40.494836
NUR3276,Nuraghe,Meilogu,8.7844383,,SASSARI,Bonorva,324,Nuraghe Ena Leperes,Nuraghe,40.429566
NUR3277,Nuraghe,Anglona,8.8992584,,SASSARI,Perfugas,325,Nuraghe Alvu,Nuraghe,40.843312
NUR3278,Nuraghe,Ogliastra,9.6760046,,OGLIASTRA,Baunei,326,Nuraghe Punnacci,Nuraghe,40.024833
NUR3279,Nuraghe,Anglona,8.8987272,,SASSARI,Perfugas,327,Nuraghe Longu,Nuraghe,40.819724
NUR3280,Nuraghe,Nuorese,9.3185104,,NUORO,Nuoro,328,Nuraghe Ugolio,Nuraghe,40.328913
NUR3281,Nuraghe,Romangia,8.665359,,SASSARI,Florinas,329,Nuraghe Norajalvu o Nurajalvu,Nuraghe,40.631692
NUR3282,Nuraghe,Alta Gallura,9.1445061,,OLBIA-TEMPIO,Luras,330,Naracu Pilea,Nuraghe,40.935434
NUR3283,Nuraghe,Villanova,8.641844,,SASSARI,Mara,331,Nuraghe Tomasu Cabonis,Nuraghe,40.412342
NUR3284,Nuraghe,Nuorese,9.2815295,,NUORO,Orune,332,Nuraghe Istitti,Nuraghe,40.452956
NUR3286,Nuraghe,Montacuto,9.0234339,,SASSARI,Tula,333,Nuraghe Ruju,Nuraghe,40.732933
NUR3287,Nuraghe,Coros,8.5075805,,SASSARI,Uri,334,Nuraghe Marroso,Nuraghe,40.6381
NUR3288,Nuraghe,Planargia,8.5654614,,ORISTANO,Tinnura,335,Nuraghe Trobias o Tres Bias,Nuraghe,40.271553
NUR3289,Nuraghe,Marghine,8.790881,,NUORO,Macomer,336,Nuraghe Sa Maddalena,Nuraghe,40.270685
NUR3290,Nuraghe,Barbagia,9.2238566,,NUORO,Gavoi,337,Nuraghe Dorthen,Nuraghe,40.160373
NUR3291,Nuraghe,Campidano di Oristano,8.6883321,,ORISTANO,Bauladu,338,Nuraghe Mura Cresia,Nuraghe,40.015824
NUR3292,Nuraghe,Marghine,8.7433711,,NUORO,Macomer,339,Nuraghe Mandras,Nuraghe,40.345057
NUR3293,Nuraghe,Marghine,8.9292293,,NUORO,Silanus,340,Nuraghe Mura s'Inzamo,Nuraghe,40.258787
NUR3294,Nuraghe,Meilogu,8.7829471,,SASSARI,Torralba,341,Nuraghe Culzu,Nuraghe,40.489594
NUR3296,Nuraghe,Anglona,8.8491895,,SASSARI,Bulzi,342,Nuraghe Malosa,Nuraghe,40.842708
NUR3298,Nuraghe,Nuorese,9.3582379,,NUORO,Bitti,343,Nuraghe Curtu,Nuraghe,40.551245
NUR3299,Nuraghe,Supramonte,9.6527606,,NUORO,Dorgali,344,Nuraghe Pichio,Nuraghe,40.330822
NUR3300,Nuraghe,Guilcer,8.8011029,,ORISTANO,Ghilarza,345,Nuraghe Crobecada o Crobeccada,Nuraghe,40.095852
NUR3301,Nuraghe,Montacuto,9.0233856,,SASSARI,Ozieri,346,Nuraghe Magnafave,Nuraghe,40.613822
NUR3302,Nuraghe,Montacuto,9.0738085,,SASSARI,Pattada,347,Nuraghe Sos Tetinosos,Nuraghe,40.647364
NUR3303,Nuraghe,Romangia,8.7805679,,SASSARI,Ploaghe,348,Nuraghe Monte Sa Pala de Sos Ladros,Nuraghe,40.672826
NUR3304,Nuraghe,Meilogu,8.7445217,,SASSARI,Siligo,349,Nuraghe Ponte Molinu o Sa Rena,Nuraghe,40.589863
NUR3306,Nuraghe,Villanova,8.5204017,,SASSARI,Villanova Monteleone,350,Nuraghe de Sa Serra,Nuraghe,40.423085
NUR3307,Nuraghe,Montiferru,8.4982681,,ORISTANO,Cuglieri,351,Nuraghe Tiriola,Nuraghe,40.17774
NUR1822,Nuraghe,Sulcis,8407,,CARBONIA IGLESIAS,Sant'Antioco,352,,Nuraghe,39.009195
NUR3309,Nuraghe,Marghine,8.7322801,,NUORO,Macomer,353,Nuraghe Sas Cariasas,Nuraghe,40.241409
NUR3310,Nuraghe,Guilcer,8.8648537,,ORISTANO,Boroneddu,354,Nuraghe Ostele,Nuraghe,40.117144
NUR3312,Nuraghe,Marghine,8.8156659,,NUORO,Bortigali,355,Nuraghe Giaga Edra,Nuraghe,40.357636
NUR3313,Nuraghe,Goceano,9.0171642,,SASSARI,Bultei,356,Nuraghe Campanas I,Nuraghe,40.499456
NUR3315,Nuraghe,Ogliastra,9.3537573,,OGLIASTRA,Arzana,357,Nuraghe Unturgiadore,Nuraghe,39.961724
NUR3316,Nuraghe,Marghine,8.9009777,,NUORO,Bolotana,358,Nuraghe Sos Pabattolos o Pobattolas I,Nuraghe,40.365045
NUR3317,Nuraghe,Meilogu,8.8242236,,SASSARI,Bonorva,359,Nuraghe Suldu I,Nuraghe,40.421878
NUR3319,Nuraghe,Montiferru,8.5044439,,ORISTANO,Cuglieri,360,Nuraghe Salighes II,Nuraghe,40.160436
NUR3320,Nuraghe,Montiferru,8.485423,,ORISTANO,Cuglieri,361,Nuraghe Oraggiana,Nuraghe,40.158523
NUR3321,Nuraghe,Anglona,8.943488,,SASSARI,Erula,362,Nuraghe Nuragheddu,Nuraghe,40.799634
NUR3323,Nuraghe,Supramonte,9.5513033,,NUORO,Dorgali,363,Nuraghe Purgatoriu,Nuraghe,40.33422
NUR3324,Nuraghe,Montacuto,9.0863344,,SASSARI,Pattada,364,Nuraghe Norchetta,Nuraghe,40.554681
NUR3325,Nuraghe,Romangia,8.7664166,,SASSARI,Ploaghe,365,Nuraghe Bidighinzu o Monte Frusciu,Nuraghe,40.704674
NUR3328,Nuraghe,Marghine,8.9134258,,NUORO,Silanus,366,Nuraghe Sa Maddalena,Nuraghe,40.294893
NUR3330,Nuraghe,Goceano,9.0247696,,SASSARI,Bultei,367,Nuraghe Chiricuzzu,Nuraghe,40.50297
NUR3331,Nuraghe,Mandrolisai,9.0527611,,NUORO,Meana Sardo,368,Nuraghe Mantuzzus,Nuraghe,39.938124
NUR3332,Nuraghe,Ogliastra,9.6319306,,OGLIASTRA,Triei,369,Nuraghe Nunucoli,Nuraghe,40.037667
NUR3333,Nuraghe,Marghine,8.7948896,,NUORO,Bortigali,370,Nuraghe Ruggiu,Nuraghe,40.3145
NUR3334,Nuraghe,Baronia,9.5393246,,NUORO,Galtelli,371,Nuraghe Siriculi,Nuraghe,40.403801
NUR3335,Nuraghe,Anglona,8.878264,,SASSARI,Perfugas,372,Nuraghe San Giorgio,Nuraghe,40.844524
NUR3336,Nuraghe,Montacuto,8.7937832,,SASSARI,Mores,373,Nuraghe Mannu,Nuraghe,40.563145
NUR3337,Nuraghe,Planargia,8.5733311,,ORISTANO,Sagama,374,Nuraghe Funtanedda,Nuraghe,40.261968
NUR3338,Nuraghe,Montacuto,8.8213187,,SASSARI,Mores,375,Nuraghe Calvia,Nuraghe,40.521616
NUR3341,Nuraghe,Marghine,8.7287396,,NUORO,Macomer,376,Nuraghe Mazzacaddos,Nuraghe,40.317249
NUR3342,Nuraghe,Marghine,8.8800282,,NUORO,Bortigali,377,Nuraghe Aidu Arbu,Nuraghe,40.264128
NUR3344,Nuraghe,Montacuto,8.7655503,,SASSARI,Bonnanaro,378,Nuraghe Nieddu,Nuraghe,40.540394
NUR3347,Nuraghe,Marghine,8.762801,,NUORO,Macomer,379,Nuraghe Chentu Istradas,Nuraghe,40.325262
NUR3348,Nuraghe,Villanova,8.556008,,SASSARI,Monteleone Rocca Doria,380,Nuraghe Mannu,Nuraghe,40.456101
NUR3349,Nuraghe,Baronia,9.6581304,,NUORO,Irgoli,381,Nuraghe Luninie,Nuraghe,40.457491
NUR3350,Nuraghe,Alta Gallura,9.0971383,,OLBIA-TEMPIO,Tempio Pausania,382,Nuraghe Nieddu,Nuraghe,40.91365
NUR3351,Nuraghe,Barbagia,9.2975503,,NUORO,Mamoiada,383,Nuraghe Monte Su Dovaru,Nuraghe,40.246022
NUR3352,Nuraghe,Romangia,8.6778098,,SASSARI,Osilo,384,Nuraghe San Marco,Nuraghe,40.75489
NUR3353,Nuraghe,Guilcer,8.7386423,,ORISTANO,Paulilatino,385,Nuraghe Goronna,Nuraghe,40.084828
NUR1823,Nuraghe,Sulcis,8.427284,,CARBONIA IGLESIAS,Sant'Antioco,386,,Nuraghe,39.005645
NUR3356,Nuraghe,Coros,8.5894739,,SASSARI,Ittiri,387,Nuraghe Sa Figu,Nuraghe,40.604428
NUR3357,Nuraghe,Ogliastra,9.6603674,,OGLIASTRA,Baunei,388,Nuraghe Alvo o Alvu,Nuraghe,40.086506
NUR3358,Nuraghe,Marghine,8.8810113,,NUORO,Bolotana,389,Nuraghe Funtana Ona,Nuraghe,40.383305
NUR3360,Nuraghe,Coros,8.5213445,,SASSARI,Ittiri,390,Nuraghe Su Sassu 'e Subra,Nuraghe,40.624212
NUR3361,Nuraghe,Ogliastra,9.6763117,,OGLIASTRA,Baunei,391,Nuraghe,Nuraghe,40.1141
NUR3362,Nuraghe,Anglona,8.8201306,,SASSARI,Sedini,392,Nuraghe Montilongu,Nuraghe,40.893468
NUR3364,Nuraghe,Nuorese,9.2711748,,NUORO,Nuoro,393,Nuraghe Monte Gabutele,Nuraghe,40.285463
NUR3366,Nuraghe,Guilcer,8.7072498,,ORISTANO,Paulilatino,394,Nuraghe Chichinzolas o Chighinzolas,Nuraghe,40.113342
NUR3367,Nuraghe,Montiferru,8.6226737,,ORISTANO,Seneghe,395,Nuraghe Pabariles,Nuraghe,40.085206
NUR3370,Nuraghe,Guilcer,8.8528601,,ORISTANO,Aidomaggiore,396,Nuraghe Sanilo,Nuraghe,40.180877
NUR3371,Nuraghe,Meilogu,8.8055312,,SASSARI,Torralba,397,Nuraghe Cassoras,Nuraghe,40.475419
NUR3372,Nuraghe,Alta Gallura,8.9180982,,OLBIA-TEMPIO,Bortigiadas,398,Nuraghe Lu Nurache,Nuraghe,40.875509
NUR3373,Nuraghe,Barbagia,9.0195125,,NUORO,Olzai,399,Nuraghe Su Puddu,Nuraghe,40.179938
NUR3375,Nuraghe,Marghine,8.78967,,NUORO,Bortigali,400,Nuraghe Surdu,Nuraghe,40.306884
NUR3376,Nuraghe,Sinis,8.4464424,,ORISTANO,Cabras,401,Nuraghe Roia Sa Murta I,Nuraghe,39.950774
NUR3377,Nuraghe,Villanova,8.6013548,,SASSARI,Padria,402,Nuraghe Bidighinzos,Nuraghe,40.426469
NUR3378,Nuraghe,Meilogu,8.7942485,,SASSARI,Giave,403,Nuraghe Bigialza III,Nuraghe,40.454877
NUR3379,Nuraghe,Gallura,9.4906761,,OLBIA-TEMPIO,Olbia,404,Nuraghe Maronzu,Nuraghe,40.94663
NUR3381,Nuraghe,Marghine,8.906959,,NUORO,Silanus,405,Nuraghe Santu Portolu I,Nuraghe,40.285103
NUR3382,Nuraghe,Coros,8.5295869,,SASSARI,Ittiri,406,Nuraghe Pittu Altu,Nuraghe,40.643255
NUR3383,Nuraghe,Coros,8.5289472,,SASSARI,Ittiri,407,Nuraghe Paulis II,Nuraghe,40.638652
NUR3384,Nuraghe,Anglona,8.8679033,,SASSARI,Bulzi,408,Nuraghe San Nicola,Nuraghe,40.863042
NUR3386,Nuraghe,Barbagia,9.2157081,,NUORO,Orani,409,Nuraghe Urrana,Nuraghe,40.272219
NUR3387,Nuraghe,Ogliastra,9.6079704,,OGLIASTRA,Talana,410,Nuraghe Ruju,Nuraghe,39.981625
NUR3388,Nuraghe,Guilcer,8.7136951,,ORISTANO,Paulilatino,411,Nuraghe Sa Menga,Nuraghe,40.03233
NUR3389,Nuraghe,Campidano di Oristano,8.6610755,,ORISTANO,Bauladu,412,Nuraghe Ois,Nuraghe,40.043279
NUR3391,Nuraghe,Marghine,8.7299063,,NUORO,Macomer,413,Nuraghe Figados III,Nuraghe,40.314658
NUR3457,Nuraghe,Anglona,8.7335622,,SASSARI,Tergu,414,Nuraghe de Mesu,Nuraghe,40.851225
NUR3392,Nuraghe,Ogliastra,9.6454998,,OGLIASTRA,Baunei,415,Nuraghe Loppelai o Coppellai o Loppellai,Nuraghe,40.114176
NUR1824,Nuraghe,Sulcis,8.445141,,CARBONIA IGLESIAS,Sant'Antioco,416,,Nuraghe,39.001845
NUR3394,Nuraghe,Supramonte,9.4595074,,NUORO,Oliena,417,Nuraghe Santa Diliga,Nuraghe,40.373912
NUR3395,Nuraghe,Marghine,8.831259,,NUORO,Macomer,418,Nuraghe Aeddo,Nuraghe,40.404562
NUR3396,Nuraghe,Meilogu,8.7224954,,SASSARI,Siligo,419,Nuraghe Sa Marghine I,Nuraghe,40.603198
NUR3397,Nuraghe,Meilogu,8.7779099,,SASSARI,Siligo,420,Nuraghe Caspiana,Nuraghe,40.597168
NUR3398,Nuraghe,Coros,8.6320004,,SASSARI,Ossi,421,Nuraghe Sa Mandra 'e Sa Musa,Nuraghe,40.624647
NUR3399,Nuraghe,Romangia,8.6786507,,SASSARI,Florinas,422,Nuraghe Su Frigadore,Nuraghe,40.618942
NUR3400,Nuraghe,Guilcer,8.8084361,,ORISTANO,Ghilarza,423,Nuraghe Zane,Nuraghe,40.109067
NUR3402,Nuraghe,Barigadu,8.7530611,,ORISTANO,Villanova Truschedu,424,Nuraghe Su Crabu,Nuraghe,40.002431
NUR3403,Nuraghe,Meilogu,8.8081866,,SASSARI,Torralba,425,Nuraghe Porcu Inzu,Nuraghe,40.481062
NUR3404,Nuraghe,Ogliastra,9.6225884,,OGLIASTRA,Triei,426,Nuraghe Figu,Nuraghe,40.022448
NUR3405,Nuraghe,Barigadu,8.8632256,,ORISTANO,Allai,427,Nuraghe Prunas,Nuraghe,39.976472
NUR3406,Nuraghe,Nuorese,9.2654228,,NUORO,Nuoro,428,Nuraghe s'Abba Viva,Nuraghe,40.349086
NUR3407,Nuraghe,Romangia,8.7395757,,SASSARI,Ploaghe,429,Nuraghe Don Micheli o Don Michele,Nuraghe,40.666145
NUR3408,Nuraghe,Ogliastra,9.4428241,,OGLIASTRA,Talana,430,Nuraghe Pretzos,Nuraghe,40.005365
NUR3409,Nuraghe,Nurra,8.5219579,,SASSARI,Sassari,431,Nuraghe Piandanna,Nuraghe,40.693506
NUR3410,Nuraghe,Meilogu,8.8197255,,SASSARI,Torralba,432,Nuraghe Su Tulis,Nuraghe,40.492631
NUR3411,Nuraghe,Montiferru,8.4950173,,ORISTANO,Cuglieri,433,Nuraghe Ozastru,Nuraghe,40.179974
NUR3412,Nuraghe,Marghine,8.7316578,,NUORO,Macomer,434,Nuraghe Prunas,Nuraghe,40.230143
NUR3414,Nuraghe,Barigadu,8.7703219,,ORISTANO,Villanova Truschedu,435,Nuraghe Pischina Andria,Nuraghe,40.006018
NUR3415,Nuraghe,Supramonte,9.5043754,,NUORO,Dorgali,436,Nuraghe Orrule,Nuraghe,40.377805
NUR1829,Nuraghe,Sulcis,8.396077,,CARBONIA IGLESIAS,Sant'Antioco,437,,Nuraghe,39.007409
NUR3416,Nuraghe,Nurra,8.4647713,,SASSARI,Sassari,438,Nuraghe Truncu Reale,Nuraghe,40.757299
NUR3417,Nuraghe,Meilogu,8.7678542,,SASSARI,Bonorva,439,Nuraghe Puttos de Sassu,Nuraghe,40.356719
NUR3419,Nuraghe,Marghine,8.7639503,,NUORO,Macomer,440,Nuraghe Edrosu,Nuraghe,40.330967
NUR3420,Nuraghe,Gallura,9.0939907,,OLBIA-TEMPIO,Oschiri,441,Nuraghe Giolzia,Nuraghe,40.75469
NUR3422,Nuraghe,Meilogu,8.7603427,,SASSARI,Torralba,442,Nuraghe 'Cabu Abbas',Nuraghe,40.489774
NUR3424,Nuraghe,Marghine,8.6951248,,NUORO,Sindia,443,Nuraghe Losa,Nuraghe,40.318586
NUR3426,Nuraghe,Meilogu,8.8603127,,SASSARI,Bonorva,444,Nuraghe Monte Longu II,Nuraghe,40.464909
NUR3427,Nuraghe,Barbagia,9.160543,,NUORO,Oniferi,445,Nuraghe Moddorocco,Nuraghe,40.275224
NUR3428,Nuraghe,Montacuto,8.8053676,,SASSARI,Ardara,446,Nuraghe Santedero,Nuraghe,40.626575
NUR3429,Nuraghe,Anglona,8.7196657,,SASSARI,Tergu,447,Nuraghe Lecchereo,Nuraghe,40.838256
NUR3430,Nuraghe,Supramonte,9.4540129,,NUORO,Dorgali,448,Nuraghe Marrone,Nuraghe,40.379395
NUR3431,Nuraghe,Baronia,9.5880174,,NUORO,Irgoli,449,Nuraghe Litu Ertiches,Nuraghe,40.479438
NUR3432,Nuraghe,Planargia,8.559916,,ORISTANO,Suni,450,Nuraghe Su Siddadu,Nuraghe,40.342749
NUR3433,Nuraghe,Montacuto,9.0199926,,SASSARI,Tula,451,Nuraghe Su Nuraghe,Nuraghe,40.755634
NUR3434,Nuraghe,Anglona,8.7397447,,SASSARI,Castelsardo,452,Nuraghe Pedra Sciolta,Nuraghe,40.887757
NUR3435,Nuraghe,Marghine,8.7682539,,NUORO,Macomer,453,Nuraghe Castigadu,Nuraghe,40.236245
NUR3436,Nuraghe,Montacuto,8.8502437,,SASSARI,Mores,454,Nuraghe Nuraghetta,Nuraghe,40.539952
NUR3437,Nuraghe,Baronia,9.6729737,,NUORO,Onifai,455,Nuraghe Rampino,Nuraghe,40.414958
NUR3438,Nuraghe,Gallura,9.1103683,,OLBIA-TEMPIO,Oschiri,456,Nuraghe Mastru Franziscu,Nuraghe,40.705032
NUR3439,Nuraghe,Villanova,8.5952085,,SASSARI,Padria,457,Nuraghe Scala de Nughes,Nuraghe,40.380494
NUR3441,Nuraghe,Montiferru,8.6681485,,ORISTANO,Santu Lussurgiu,458,Nuraghe Lughentinas,Nuraghe,40.139771
NUR3442,Nuraghe,Coros,8.4671169,,SASSARI,Uri,459,Nuraghe Teriu,Nuraghe,40.64608
NUR3444,Nuraghe,Coros,8.4785834,,SASSARI,Usini,460,Nuraghe,Nuraghe,40.688648
NUR3446,Nuraghe,Meilogu,8.7204757,,SASSARI,Cheremule,461,Nuraghe Coronedda o Coroneddu,Nuraghe,40.509076
NUR3448,Nuraghe,Meilogu,8.7936544,,SASSARI,Bonorva,462,Nuraghe Monte Cheja,Nuraghe,40.440915
NUR3449,Nuraghe,Goceano,8.9373591,,SASSARI,Burgos,463,Nuraghe Su Fraile,Nuraghe,40.41855
NUR3451,Nuraghe,Nuorese,9.210982,,NUORO,Nuoro,464,Nuraghe S'Ena Sa tua,Nuraghe,40.403618
NUR3452,Nuraghe,Marghine,8.7757211,,NUORO,Macomer,465,Nuraghe Monte Muradu,Nuraghe,40.291829
NUR3453,Nuraghe,Marghine,8.7754234,,NUORO,Macomer,466,Nuraghe Su Tilibirche,Nuraghe,40.258911
NUR3454,Nuraghe,Goceano,8.9981809,,SASSARI,Anela,467,Nuraghe Orchinele,Nuraghe,40.489936
NUR3455,Nuraghe,Marghine,8.7575063,,NUORO,Macomer,468,Nuraghe S'Iscobargiu II,Nuraghe,40.32638
NUR3456,Nuraghe,Montacuto,8.811876,,SASSARI,Ardara,469,Nuraghe Frusciu,Nuraghe,40.638537
NUR3459,Nuraghe,Anglona,8.902996,,SASSARI,Perfugas,470,Nuraghe Canu II,Nuraghe,40.802807
NUR1830,Nuraghe,Sulcis,8.427463,Serra de Mesu,CARBONIA IGLESIAS,Sant'Antioco,471,,Nuraghe,39.017416
NUR3461,Nuraghe,Campidano di Oristano,8.6920014,,ORISTANO,Bauladu,472,Nuraghe Mura Craba,Nuraghe,40.022545
NUR3462,Nuraghe,Marghine,8.8167549,,NUORO,Bortigali,473,Nuraghe Aidu Entos,Nuraghe,40.296227
NUR3463,Nuraghe,Anglona,8.8888245,,SASSARI,Perfugas,474,Nuraghe Contra de Sorighe,Nuraghe,40.799408
NUR3465,Nuraghe,Romangia,8.6594205,,SASSARI,Florinas,475,Nuraghe Cantaru Ena,Nuraghe,40.652551
NUR3466,Nuraghe,Montacuto,8.8638264,,SASSARI,Mores,476,Nuraghe Agos,Nuraghe,40.530893
NUR3468,Nuraghe,Montiferru,8.4813139,,ORISTANO,Cuglieri,477,Nuraghe Monte Laccana II,Nuraghe,40.160982
NUR3469,Nuraghe,Meilogu,8.7050235,,SASSARI,Thiesi,478,Nuraghe Larista,Nuraghe,40.540361
NUR3472,Nuraghe,Supramonte,9.3193889,,NUORO,Orgosolo,479,Nuraghe Pertuntu II,Nuraghe,40.188874
NUR3473,Nuraghe,Romangia,8.6212741,,SASSARI,Carceghe,480,Nuraghe Cherchizzos,Nuraghe,40.669062
NUR3476,Nuraghe,Marghine,8.8155251,,NUORO,Macomer,481,Nuraghe Mura Ine II,Nuraghe,40.361698
NUR1831,Nuraghe,Sulcis,8.422149,Bacu Abis,CARBONIA IGLESIAS,Sant'Antioco,482,,Nuraghe,39.021054
NUR3477,Nuraghe,Ogliastra,9.3068817,,OGLIASTRA,Arzana,483,Nuraghe Onne,Nuraghe,39.938293
NUR3479,Nuraghe,Montacuto,8.7591773,,SASSARI,Bonnanaro,484,Nuraghe Taeddas,Nuraghe,40.550874
NUR3480,Nuraghe,Goceano,9.0169671,,SASSARI,Burgos,485,Nuraghe Riu Molinu,Nuraghe,40.374895
NUR3481,Nuraghe,Montiferru,8.5062544,,ORISTANO,Cuglieri,486,Nuraghe Salighes I,Nuraghe,40.162008
NUR4859,Nuraghe,Trexenta,9.1056264,,CAGLIARI,Gesico,487,Nuraghe Mulloni Mannu,Nuraghe,39.600936
NUR3483,Nuraghe,Supramonte,9.6229291,,NUORO,Dorgali,488,Nuraghe Zorza,Nuraghe,40.309776
NUR3484,Nuraghe,Sinis,8.6518796,,ORISTANO,Milis,489,Nuraghe Tronza,Nuraghe,40.056251
NUR3485,Nuraghe,Anglona,8.8623525,,SASSARI,Santa Maria Coghinas,490,Nuraghe Littigheddu di Barula,Nuraghe,40.893597
NUR3486,Nuraghe,Mandrolisai,9.0104842,,NUORO,Ortueri,491,Nuraghe Leonai,Nuraghe,40.018402
NUR3487,Nuraghe,Montacuto,8.8863086,,SASSARI,Ozieri,492,Nuraghe Luzzana,Nuraghe,40.649092
NUR3488,Nuraghe,Ogliastra,9.4266504,,OGLIASTRA,Talana,493,Nuraghe Nercone,Nuraghe,40.021898
NUR3489,Nuraghe,Alta Gallura,8.8973781,,OLBIA-TEMPIO,Bortigiadas,494,Nuraghe Serra Sa Linna,Nuraghe,40.872372
NUR3490,Nuraghe,Anglona,8.9180754,,SASSARI,Perfugas,495,Nuraghe Cazzampu,Nuraghe,40.818183
NUR3491,Nuraghe,Planargia,8.5612464,,ORISTANO,Suni,496,Nuraghe Sa Idda Bezza,Nuraghe,40.31483
NUR3492,Nuraghe,Ogliastra,9.5734531,,OGLIASTRA,Baunei,497,Nuraghe Serra Pirisi o Lovettecannas,Nuraghe,40.14104
NUR3493,Nuraghe,Supramonte,9.5478621,,NUORO,Dorgali,498,Nuraghe Ruju,Nuraghe,40.323992
NUR3494,Nuraghe,Supramonte,9.642485,,NUORO,Dorgali,499,Nuraghe Codula Manna,Nuraghe,40.296763
NUR3495,Nuraghe,Supramonte,9.3810368,,NUORO,Oliena,500,Nuraghe Sa Luzzana,Nuraghe,40.292898
NUR4836,Nuraghe,Trexenta,9.1285617,,CAGLIARI,Mandas,501,Nuraghe Siliqua II,Nuraghe,39.626931
NUR4837,Nuraghe,Sarcidano,9.1331979,,CAGLIARI,Isili,502,Nuraghe Maurus o Maunus,Nuraghe,39.740522
NUR4838,Nuraghe,Campidano,8.9225023,,MEDIO CAMPIDANO,Sanluri,503,Nuraghe Perda Bogada,Nuraghe,39.545882
NUR4839,Nuraghe,Sulcis,8.4894007,,CARBONIA IGLESIAS,San Giovanni Suergiu,504,Nuraghe Is Gannaus,Nuraghe,39.111904
NUR4840,Nuraghe,Campidano di Oristano,8.8259911,,ORISTANO,Villaurbana,505,Nuraghe Minda Iara o Minda Jara,Nuraghe,39.887047
NUR4842,Nuraghe,Trexenta,9.0772283,,CAGLIARI,Ortacesus,506,Nuraghe Corongiu Bingia,Nuraghe,39.5454
NUR4843,Nuraghe,Trexenta,9.1377201,,CAGLIARI,Suelli,507,Nuraghe Saccaionis o Bega,Nuraghe,39.591171
NUR4845,Nuraghe,Marmilla,9.0328805,,MEDIO CAMPIDANO,Barumini,508,Nuraghe Bruncu Sa Giustizia,Nuraghe,39.698343
NUR4846,Nuraghe,Capoterra,8.7972405,,CAGLIARI,Teulada,509,Nuraghe Malfatano,Nuraghe,38.938313
NUR4847,Nuraghe,Alta Marmilla,8.8079345,,ORISTANO,Ales,510,Nuraghe Otzibi,Nuraghe,39.765018
NUR4849,Nuraghe,Sarcidano,9.2476491,,CAGLIARI,Nurri,511,Nuraghe Gurti Acqua,Nuraghe,39.71939
NUR4850,Nuraghe,Campidano di Oristano,8.7694099,,ORISTANO,Villaurbana,512,Nuraghe Bincia Beccias,Nuraghe,39.889185
NUR4851,Nuraghe,Ogliastra,9.6338054,,OGLIASTRA,Cardedu,513,Nuraghe Cardedu,Nuraghe,39.799236
NUR4854,Nuraghe,Ogliastra,9.6197426,,OGLIASTRA,Ilbono,514,Nuraghe Matal,Nuraghe,39.863568
NUR4856,Nuraghe,Trexenta,9.1000539,,CAGLIARI,Mandas,515,Nuraghe Simoni,Nuraghe,39.643259
NUR4857,Nuraghe,Trexenta,9.1238223,,CAGLIARI,Mandas,516,Nuraghe Ladiri,Nuraghe,39.629886
NUR4858,Nuraghe,Sulcis,8.4864221,,CARBONIA IGLESIAS,San Giovanni Suergiu,517,Nuraghe Perda Asua de Pari,Nuraghe,39.135188
NUR4860,Nuraghe,Ogliastra,9.6233904,,OGLIASTRA,Arzana,518,Nuraghe Sa Mela,Nuraghe,39.588219
NUR4861,Nuraghe,Sarcidano,9.0395218,,CAGLIARI,Nuragus,519,Nuraghe Montis,Nuraghe,39.795922
NUR4862,Nuraghe,Sulcis,8.6675584,,CARBONIA IGLESIAS,Narcao,520,Nuraghe Monte Essu,Nuraghe,39.150584
NUR4863,Nuraghe,Ogliastra,9.4696515,,OGLIASTRA,Osini,521,Nuraghe Sal'e Ferru o Bruncu Sangurtidorgia,Nuraghe,39.824659
NUR4864,Nuraghe,Sulcis,8.4901571,,CARBONIA IGLESIAS,Carbonia,522,Nuraghe Nuraxeddu,Nuraghe,39.171238
NUR4865,Nuraghe,Sarrabus,9.5684775,,CAGLIARI,Muravera,523,Nuraghe Pranu di Monte Nai,Nuraghe,39.243404
NUR4866,Nuraghe,Sarcidano,9.2473233,,CAGLIARI,Orroli,524,Nuraghe Salonis,Nuraghe,39.703856
NUR4868,Nuraghe,Iglesiente,8.6971002,,CARBONIA IGLESIAS,Villamassargia,525,Nuraghe Meloni,Nuraghe,39.25185
NUR4869,Nuraghe,Campidano di Cagliari,9.0232596,,CAGLIARI,Samatzai,526,Nuraghe Bruncu Musu Congiu,Nuraghe,39.525155
NUR4872,Nuraghe,Alta Marmilla,8.7643057,,ORISTANO,Mogoro,527,Nuraghe Arrubiu,Nuraghe,39.657389
NUR4874,Nuraghe,Ogliastra,9.6147296,,OGLIASTRA,Ilbono,528,Nuraghe Teddis,Nuraghe,39.863909
NUR4875,Nuraghe,Alta Marmilla,8.7852108,,ORISTANO,Pau,529,Nuraghe Punta de su Nuraxi,Nuraghe,39.798608
NUR4876,Nuraghe,Campidano di Oristano,8.802259,,ORISTANO,Villaurbana,530,Nuraghe Santu Martinu,Nuraghe,39.893908
NUR4877,Nuraghe,Trexenta,9.0863639,,CAGLIARI,Mandas,531,Nuraghe Funtana Zorcu,Nuraghe,39.641276
NUR4878,Nuraghe,Alta Marmilla,8.9615272,,ORISTANO,Nureci,532,Nuraghe Sinipei,Nuraghe,39.794334
NUR4879,Nuraghe,Alta Marmilla,8.9974567,,ORISTANO,Genoni,533,Nuraghe su Corrazzu,Nuraghe,39.783538
NUR4880,Nuraghe,Alta Marmilla,9.0373573,,ORISTANO,Genoni,534,Nuraghe Trappapulus o Trappapulis,Nuraghe,39.800675
NUR4881,Nuraghe,Campidano di Oristano,8.7663871,,ORISTANO,Villaurbana,535,Nuraghe Cuccuru Petrosu II o Su Cai,Nuraghe,39.882787
NUR4882,Nuraghe,Sarcidano,9.1087764,,CAGLIARI,Nurallao,536,Nuraghe Tramalizzu,Nuraghe,39.793159
NUR4883,Nuraghe,Sulcis,8.6838394,,CARBONIA IGLESIAS,Narcao,537,Nuraghe Scrau Becciu o Sorau Becciu,Nuraghe,39.141972
NUR4884,Nuraghe,Trexenta,9.0808023,,CAGLIARI,Gesico,538,Nuraghe Su Senzu,Nuraghe,39.6069
NUR4885,Nuraghe,Alta Marmilla,8.7369927,,ORISTANO,Mogoro,539,Nuraghe Su Boi,Nuraghe,39.673851
NUR4887,Nuraghe,Trexenta,9.0920341,,CAGLIARI,Gesico,540,Nuraghe Sitziddiri,Nuraghe,39.600978
NUR4888,Nuraghe,Sarcidano,9.2693589,,CAGLIARI,Orroli,541,Nuraghe Carcina,Nuraghe,39.682152
NUR4890,Nuraghe,Alta Marmilla,8.7296006,,ORISTANO,Mogoro,542,Nuraghe Is Nuracis o Nuraghes I,Nuraghe,39.653414
NUR4891,Nuraghe,Ogliastra,9.6364474,,OGLIASTRA,Tertenia,543,Nuraghe Nastasi o Anastasi,Nuraghe,39.665314
NUR4892,Nuraghe,Sarrabus,9.4827005,,CAGLIARI,Castiadas,544,Nuraghe Arcu Pintau II,Nuraghe,39.272607
NUR4893,Nuraghe,Sulcis,8.6028662,,CARBONIA IGLESIAS,Perdaxius,545,Nuraghe Pitzienti,Nuraghe,39.137953
NUR4894,Nuraghe,Sulcis,8.7034919,,CARBONIA IGLESIAS,Santadi,546,Nuraghe Mannu de Barrua,Nuraghe,39.067334
NUR4895,Nuraghe,Sarrabus,9.5409473,,CAGLIARI,Castiadas,547,Nuraghe Brebeis,Nuraghe,39.22298
NUR4897,Nuraghe,Alta Marmilla,8.8698801,,ORISTANO,Albagiara,548,Nuraghe San Lussorio,Nuraghe,39.796139
NUR4898,Nuraghe,Sulcis,8.7050155,,CARBONIA IGLESIAS,Narcao,549,Nuraghe Pran'e Truttuis II,Nuraghe,39.150582
NUR4899,Nuraghe,Alta Marmilla,8.7958646,,ORISTANO,Gonnostramatza,550,Nuraghe Brunchitteddus,Nuraghe,39.663953
NUR4900,Nuraghe,Marmilla,9.0389384,,MEDIO CAMPIDANO,Gesturi,551,Nuraghe Bau Romanu,Nuraghe,39.718751
NUR4901,Nuraghe,Sarrabus,9.5668226,,CAGLIARI,Muravera,552,Nuraghe Arrubiu,Nuraghe,39.291556
NUR4902,Nuraghe,Sarrabus,9.5336249,,CAGLIARI,Castiadas,553,Nuraghe Erba 'e s'Ilixi o Bau Travalazzu,Nuraghe,39.253331
NUR4903,Nuraghe,Sarrabus,9.5316052,,CAGLIARI,Castiadas,554,Nuraghe Genna Spina,Nuraghe,39.218369
NUR4904,Nuraghe,Sarrabus,9.4669009,,CAGLIARI,San Vito,555,Nuraghe Antoni Usai,Nuraghe,39.28248
NUR4905,Nuraghe,Alta Marmilla,8.9563787,,ORISTANO,Nureci,556,Nuraghe Is Procilis,Nuraghe,39.792287
NUR4906,Nuraghe,Sarrabus,9.6071845,,CAGLIARI,Villaputzu,557,Nuraghe Murvia,Nuraghe,39.545373
NUR4907,Nuraghe,Trexenta,9.0540433,,CAGLIARI,Gesico,558,Nuraghe Bruncu Atza Casu,Nuraghe,39.615592
NUR4908,Nuraghe,Sulcis,8.6001116,,CARBONIA IGLESIAS,Tratalias,559,Nuraghe Carroccia,Nuraghe,39.086961
NUR4909,Nuraghe,Marmilla,8.8932596,,MEDIO CAMPIDANO,Lunamatrona,560,Nuraghe Pitzu Cummu,Nuraghe,39.647225
NUR4910,Nuraghe,Sarcidano,9.2643848,,CAGLIARI,Nurri,561,Nuraghe S'Arriu Pranemuru,Nuraghe,39.709985
NUR4911,Nuraghe,Campidano di Oristano,8.7466514,,ORISTANO,Villaurbana,562,Nuraghe S'acqua Bella,Nuraghe,39.862006
NUR4912,Nuraghe,Sulcis,8.6836355,,CARBONIA IGLESIAS,Santadi,563,Nuraghe de su Schisorgiu,Nuraghe,39.085932
NUR4915,Nuraghe,Campidano,8.7952933,,MEDIO CAMPIDANO,Sardara,564,Nuraghe Serretzi,Nuraghe,39.634082
NUR4916,Nuraghe,Campidano di Cagliari,8.8136074,,CAGLIARI,Villasor,565,Nuraghe Su Sonadori,Nuraghe,39.398803
NUR4918,Nuraghe,Parteolla,9.1136955,,CAGLIARI,Barrali,566,Nuraghe Domu 'e S'Orcu,Nuraghe,39.459682
NUR4919,Nuraghe,Sulcis,8.7218839,,CARBONIA IGLESIAS,Santadi,567,Nuraghe San Nicola,Nuraghe,39.093385
NUR4920,Nuraghe,Sarrabus,9.6345404,,CAGLIARI,Villaputzu,568,Nuraghe Monte Arrubio,Nuraghe,39.552202
NUR4921,Nuraghe,Ogliastra,9.6364581,,OGLIASTRA,Arzana,569,Nuraghe Esconi,Nuraghe,39.599436
NUR4922,Nuraghe,Ogliastra,9.5772135,,OGLIASTRA,Loceri,570,Nuraghe Nuraxi,Nuraghe,39.848073
NUR4923,Nuraghe,Sarcidano,9.1654676,,CAGLIARI,Nurri,571,Nuraghe Tannara,Nuraghe,39.724222
NUR4924,Nuraghe,Campidano,8.8247479,,MEDIO CAMPIDANO,Sardara,572,Nuraghe Camparriga,Nuraghe,39.625319
NUR4925,Nuraghe,Gerrei,9.2772406,,CAGLIARI,Goni,573,Nuraghe Goni,Nuraghe,39.585958
NUR4926,Nuraghe,Linas,8.61444,,MEDIO CAMPIDANO,Guspini,574,Nuraghe Omini,Nuraghe,39.666701
NUR4927,Nuraghe,Capoterra,8.664962,,CAGLIARI,Teulada,575,Nuraghe Maxinas II,Nuraghe,38.916644
NUR4928,Nuraghe,Sarcidano,9.0704799,,CAGLIARI,Nurallao,576,Nuraghe Formiga,Nuraghe,39.811455
NUR4929,Nuraghe,Trexenta,9.1235769,,CAGLIARI,Gesico,577,Nuraghe S'Ottu su Frau,Nuraghe,39.613685
NUR4930,Nuraghe,Sarcidano,9.2873687,,CAGLIARI,Nurri,578,Nuraghe Coremolla,Nuraghe,39.707348
NUR4931,Nuraghe,Ogliastra,9.641624,,OGLIASTRA,Cardedu,579,Nuraghe Sa Perda e s'Obiga,Nuraghe,39.801027
NUR4933,Nuraghe,Trexenta,9.0844273,,CAGLIARI,Mandas,580,Nuraghe Ruina sa Pruna II,Nuraghe,39.641427
NUR4934,Nuraghe,Capoterra,8.7165878,,CAGLIARI,Teulada,581,Nuraghe Orbai II,Nuraghe,38.956525
NUR4935,Nuraghe,Sulcis,8.6038426,,CARBONIA IGLESIAS,Masainas,582,Nuraghe Cambulas,Nuraghe,39.04902
NUR4936,Nuraghe,Sulcis,8.6505666,,CARBONIA IGLESIAS,Villaperuccio,583,Nuraghe Tanca Mocci,Nuraghe,39.100669
NUR4937,Nuraghe,Marmilla,9.0219587,,MEDIO CAMPIDANO,Gesturi,584,Nuraghe Nuraceddeu,Nuraghe,39.720052
NUR4938,Nuraghe,Sarrabus,9.6035474,,CAGLIARI,Muravera,585,Nuraghe Don Giovanni,Nuraghe,39.311195
NUR4939,Nuraghe,Sarrabus,9.5824438,,CAGLIARI,Muravera,586,Nuraghe Nicola Podda,Nuraghe,39.327905
NUR4940,Nuraghe,Trexenta,9.147639,,CAGLIARI,Suelli,587,Nuraghe Ruina Coa,Nuraghe,39.592864
NUR4941,Nuraghe,Alta Marmilla,8.9090565,,ORISTANO,Assolo,588,Nuraghe Guduri,Nuraghe,39.814132
NUR4942,Nuraghe,Alta Marmilla,8.9991532,,ORISTANO,Genoni,589,Nuraghe Trementi,Nuraghe,39.769059
NUR4944,Nuraghe,Capoterra,8.8977268,,CAGLIARI,Domus de Maria,590,Nuraghe Sa Pala de is Luas II,Nuraghe,38.966558
NUR4945,Nuraghe,Alta Marmilla,8.7763005,,ORISTANO,Mogoro,591,Nuraghe Su Cunventu,Nuraghe,39.678296
NUR4947,Nuraghe,Alta Marmilla,8.9908424,,ORISTANO,Genoni,592,Nuraghe Biriu,Nuraghe,39.816052
NUR4948,Nuraghe,Iglesiente,8.4396833,,CARBONIA IGLESIAS,Gonnesa,593,Nuraghe Sa Turritta,Nuraghe,39.245656
NUR4949,Nuraghe,Ogliastra,9.5765242,,OGLIASTRA,Loceri,594,Nuraghe Istinei,Nuraghe,39.849646
NUR4950,Nuraghe,Sarrabus,9.4900685,,CAGLIARI,San Vito,595,Nuraghe Piricoccu,Nuraghe,39.488899
NUR4951,Nuraghe,Sulcis,8.6104716,,CARBONIA IGLESIAS,Masainas,596,Nuraghe Piras,Nuraghe,39.023138
NUR4952,Nuraghe,Trexenta,9.0814957,,CAGLIARI,Gesico,597,Nuraghe Riu Majore,Nuraghe,39.62399
NUR4956,Nuraghe,Sarcidano,9.2807704,,CAGLIARI,Nurri,598,Nuraghe Luas,Nuraghe,39.697321
NUR4957,Nuraghe,Campidano di Oristano,8.7570798,,ORISTANO,Villaurbana,599,Nuraghe Conca Spibidda,Nuraghe,39.862831
NUR4958,Nuraghe,Campidano,8.8740201,,MEDIO CAMPIDANO,Sanluri,600,Nuraghe Cuccuru de su Casu Moiau,Nuraghe,39.596799
NUR4959,Nuraghe,Alta Marmilla,8.7681251,,ORISTANO,Siris,601,Nuraghe Pranu Forru,Nuraghe,39.711134
NUR4960,Nuraghe,Sulcis,8.6385785,,CARBONIA IGLESIAS,Perdaxius,602,Nuraghe Pesus,Nuraghe,39.159588
NUR4962,Nuraghe,Sarrabus,9.4871288,,CAGLIARI,Castiadas,603,Nuraghe Masone Murtas,Nuraghe,39.222385
NUR4964,Nuraghe,Sulcis,8.6738777,,CARBONIA IGLESIAS,Piscinas,604,Nuraghe Monte Sa Turri,Nuraghe,39.092363
NUR4965,Nuraghe,Ogliastra,9.5255729,,OGLIASTRA,Jerzu,605,Nuraghe Gessitu,Nuraghe,39.741011
NUR4967,Nuraghe,Sarcidano,9.0451249,,CAGLIARI,Nuragus,606,Nuraghe Truxiu,Nuraghe,39.792528
NUR4968,Nuraghe,Campidano di Cagliari,9.3715524,,CAGLIARI,Quartucciu,607,Nuraghe de is Paras,Nuraghe,39.25154
NUR4969,Nuraghe,Trexenta,9.1112843,,CAGLIARI,Ortacesus,608,Nuraghe Cannas,Nuraghe,39.493968
NUR4971,Nuraghe,Alta Marmilla,8.864108,,ORISTANO,Gonnostramatza,609,Nuraghe Nuraxi Molas,Nuraghe,39.67408
NUR4973,Nuraghe,Alta Marmilla,8.8080338,,ORISTANO,Gonnostramatza,610,Nuraghe Pallariu,Nuraghe,39.665943
NUR4975,Nuraghe,Trexenta,9.0782985,,CAGLIARI,Gesico,611,Nuraghe Su Covunu,Nuraghe,39.623668
NUR4976,Nuraghe,Marmilla,9.0338167,,MEDIO CAMPIDANO,Gesturi,612,Nuraghe Simone,Nuraghe,39.709452
NUR4977,Nuraghe,Sulcis,8.598403,,CARBONIA IGLESIAS,Perdaxius,613,Nuraghe Sitzia,Nuraghe,39.161107
NUR4979,Nuraghe,Alta Marmilla,8.9341646,,ORISTANO,Assolo,614,Nuraghe Guerreddu,Nuraghe,39.804509
NUR4980,Nuraghe,Trexenta,9.1789001,,CAGLIARI,Siurgus Donigala,615,Nuraghe Corte Carroccia,Nuraghe,39.61854
NUR4981,Nuraghe,Sarrabus,9.5086307,,CAGLIARI,San Vito,616,Nuraghe de Muru,Nuraghe,39.377517
NUR4982,Nuraghe,Marmilla,9.0298417,,MEDIO CAMPIDANO,Barumini,617,Nuraghe Monte Miana,Nuraghe,39.679119
NUR4983,Nuraghe,Capoterra,8.6881632,,CAGLIARI,Teulada,618,Nuraghe Monte Cogottis,Nuraghe,39.03031
NUR4984,Nuraghe,Sarcidano,9.0900385,,CAGLIARI,Gergei,619,Nuraghe Saurras,Nuraghe,39.669197
NUR4985,Nuraghe,Campidano di Cagliari,9.0640359,,CAGLIARI,Monastir,620,Nuraghe Su Cuccumeu,Nuraghe,39.374818
NUR4986,Nuraghe,Sulcis,8.6349843,,CARBONIA IGLESIAS,Masainas,621,Nuraghe Nuraxi Mesu,Nuraghe,39.044724
NUR4987,Nuraghe,Alta Marmilla,8.8062259,,ORISTANO,Gonnostramatza,622,Nuraghe Chiccu Eccis,Nuraghe,39.662128
NUR4988,Nuraghe,Alta Marmilla,8.7454015,,ORISTANO,Masullas,623,Nuraghe de Preidis,Nuraghe,39.724736
NUR4989,Nuraghe,Iglesiente,8.4382671,,CARBONIA IGLESIAS,Gonnesa,624,Nuraghe Erbexi o Serbegi o S'Erbexi,Nuraghe,39.247652
NUR4990,Nuraghe,Sarrabus,9.571731,,CAGLIARI,Muravera,625,Nuraghe Mitza Sa Granaccia,Nuraghe,39.266637
NUR4991,Nuraghe,Alta Marmilla,8.9554024,,ORISTANO,Nureci,626,Nuraghe Turri Piccinu,Nuraghe,39.805725
NUR4992,Nuraghe,Marmilla,8.9474054,,MEDIO CAMPIDANO,Pauli Arbarei,627,Nuraghe Mollargiu III,Nuraghe,39.664861
NUR4994,Nuraghe,Trexenta,9.0147435,,CAGLIARI,Guasila,628,Nuraghe Is Paulis,Nuraghe,39.546736
NUR4995,Nuraghe,Capoterra,8.8669887,,CAGLIARI,Domus de Maria,629,Nuraghe Tanca de Casteddu I,Nuraghe,38.913169
NUR4997,Nuraghe,Sarcidano,9.1292656,,CAGLIARI,Nurallao,630,Nuraghe Bau sa Mela,Nuraghe,39.835167
NUR4998,Nuraghe,Marmilla,8.8640597,,MEDIO CAMPIDANO,Villanovaforru,631,Nuraghe Marramutta,Nuraghe,39.624922
NUR4999,Nuraghe,Alta Marmilla,8.7786823,,ORISTANO,Mogoro,632,Nuraghe Siaxi,Nuraghe,39.673343
NUR5000,Nuraghe,Trexenta,9.1408073,,CAGLIARI,Mandas,633,Nuraghe Natzargius,Nuraghe,39.628269
NUR5001,Nuraghe,Sarcidano,9.2821115,,CAGLIARI,Orroli,634,Nuraghe Cannas,Nuraghe,39.68738
NUR5002,Nuraghe,Sarcidano,9.0286857,,CAGLIARI,Nuragus,635,Nuraghe di Geroni,Nuraghe,39.787942
NUR5003,Nuraghe,Alta Marmilla,8.9460656,,ORISTANO,Senis,636,Nuraghe Giuerri Mannu,Nuraghe,39.801198
NUR5004,Nuraghe,Alta Marmilla,8.90035,,ORISTANO,Assolo,637,Nuraghe Palanuedda,Nuraghe,39.807724
NUR5005,Nuraghe,Sarcidano,9.2189428,,CAGLIARI,Villanova Tulo,638,Nuraghe Tiriccu,Nuraghe,39.777168
NUR5006,Nuraghe,Ogliastra,9.6103951,,OGLIASTRA,Arzana,639,Nuraghe de Lua o de Lura,Nuraghe,39.582303
NUR5008,Nuraghe,Ogliastra,9.6542439,,OGLIASTRA,Cardedu,640,Nuraghe Su Fraii,Nuraghe,39.772844
NUR5009,Nuraghe,Ogliastra,9.5681999,,OGLIASTRA,Ilbono,641,Nuraghe Salassu,Nuraghe,39.882857
NUR5011,Nuraghe,Alta Marmilla,8.7387805,,ORISTANO,Mogoro,642,Nuraghe Mudegu,Nuraghe,39.671052
NUR5012,Nuraghe,Campidano di Cagliari,9.4250075,,CAGLIARI,Maracalagonis,643,Nuraghe Sa Madrina,Nuraghe,39.213512
NUR5013,Nuraghe,Trexenta,9.0097761,,CAGLIARI,Guasila,644,Nuraghe Bruncu Sa Mandara,Nuraghe,39.544749
NUR5014,Nuraghe,Sarrabus,9.5296606,,CAGLIARI,San Vito,645,Nuraghe Cerbinu,Nuraghe,39.338912
NUR5015,Nuraghe,Trexenta,9.0859053,,CAGLIARI,Gesico,646,Nuraghe Cumbid'e Meba,Nuraghe,39.62868
NUR5016,Nuraghe,Marmilla,8.8173598,,MEDIO CAMPIDANO,Collinas,647,Nuraghe Miale Craba,Nuraghe,39.656869
NUR5017,Nuraghe,Capoterra,8.7223076,,CAGLIARI,Teulada,648,Nuraghe Sant'Isidoro,Nuraghe,38.95712
NUR5018,Nuraghe,Sarcidano,9.0600782,,CAGLIARI,Gergei,649,Nuraghe Si,Nuraghe,39.66374
NUR5020,Nuraghe,Ogliastra,9.6004951,,OGLIASTRA,Arzana,650,Nuraghe Meurra,Nuraghe,39.579399
NUR5021,Nuraghe,Marmilla,8.9882621,,MEDIO CAMPIDANO,Tuili,651,Nuraghe Perdu Meloni,Nuraghe,39.717098
NUR5022,Nuraghe,Sulcis,8.5502654,,CARBONIA IGLESIAS,Tratalias,652,Nuraghe Porceddus II,Nuraghe,39.125944
NUR5025,Nuraghe,Sarcidano,9.1788947,,CAGLIARI,Nurri,653,Nuraghe Nuraccioni,Nuraghe,39.743044
NUR5026,Nuraghe,Ogliastra,9.5939156,,OGLIASTRA,Tertenia,654,Nuraghe Nurassolas,Nuraghe,39.649659
NUR5028,Nuraghe,Sarcidano,9.0593809,,CAGLIARI,Gergei,655,Nuraghe Trazzali II,Nuraghe,39.686015
NUR5029,Nuraghe,Capoterra,9.0389853,,CAGLIARI,Sarroch,656,Nuraghe Giummo,Nuraghe,39.042621
NUR5030,Nuraghe,Sarrabus,9.5438817,,CAGLIARI,San Vito,657,Nuraghe S'Achiloni,Nuraghe,39.412266
NUR5031,Nuraghe,Ogliastra,9.6744275,,OGLIASTRA,Bari Sardo,658,Nuraghe Boschinu,Nuraghe,39.835895
NUR5032,Nuraghe,Marmilla,8.9467415,,MEDIO CAMPIDANO,Setzu,659,Nuraghe Suraxiu,Nuraghe,39.736428
NUR5033,Nuraghe,Alta Marmilla,8.9678397,,ORISTANO,Genoni,660,Nuraghe Sussuni,Nuraghe,39.795681
NUR5034,Nuraghe,Alta Marmilla,8.9079862,,ORISTANO,Assolo,661,Nuraghe Orasasa,Nuraghe,39.805624
NUR5035,Nuraghe,Campidano,8.9186119,,MEDIO CAMPIDANO,Sanluri,662,Nuraghe Corti sa Perda,Nuraghe,39.602684
NUR5036,Nuraghe,Sarcidano,9.2741131,,CAGLIARI,Sadali,663,Nuraghe Sorroli,Nuraghe,39.84002
NUR5037,Nuraghe,Campidano di Cagliari,9.4392246,,CAGLIARI,Burcei,664,Nuraghe Riu Ollastu o Bruncu Moddizzi,Nuraghe,39.392738
NUR5038,Nuraghe,Iglesiente,8.4632009,,CARBONIA IGLESIAS,Iglesias,665,Nuraghe San Pietro,Nuraghe,39.320313
NUR5039,Nuraghe,Sulcis,8.6822193,,CARBONIA IGLESIAS,Narcao,666,Nuraghe Serra Posannas,Nuraghe,39.162909
NUR5040,Nuraghe,Marmilla,9.0550947,,MEDIO CAMPIDANO,Gesturi,667,Nuraghe Cogotti,Nuraghe,39.700137
NUR5041,Nuraghe,Sulcis,8.5927918,,CARBONIA IGLESIAS,Perdaxius,668,Nuraghe Entu,Nuraghe,39.154973
NUR5042,Nuraghe,Alta Marmilla,8.898356,,ORISTANO,Assolo,669,Nuraghe San Pietro,Nuraghe,39.816962
NUR5043,Nuraghe,Campidano di Cagliari,9.2872774,,CAGLIARI,Sinnai,670,Nuraghe,Nuraghe,39.336805
NUR5044,Nuraghe,Capoterra,8.7178297,,CAGLIARI,Teulada,671,Nuraghe Orbai I,Nuraghe,38.958021
NUR5046,Nuraghe,Marmilla,8.9985269,,MEDIO CAMPIDANO,Las Plassas,672,Nuraghe Mariga,Nuraghe,39.669555
NUR5047,Nuraghe,Ogliastra,9.5981213,,OGLIASTRA,Ilbono,673,Nuraghe Sa Campana,Nuraghe,39.875368
NUR5048,Nuraghe,Alta Marmilla,9.0447038,,ORISTANO,Laconi,674,Nuraghe Pilicapu,Nuraghe,39.821449
NUR5049,Nuraghe,Ogliastra,9.5942777,,OGLIASTRA,Ilbono,675,Nuraghe Sartalai,Nuraghe,39.886129
NUR5050,Nuraghe,Sarcidano,9.1460376,,CAGLIARI,Isili,676,Nuraghe Atzinnara,Nuraghe,39.750101
NUR5051,Nuraghe,Sulcis,8.6636236,,CARBONIA IGLESIAS,Narcao,677,Nuraghe Is Linzas,Nuraghe,39.144879
NUR5052,Nuraghe,Sarcidano,9.0511921,,CAGLIARI,Nuragus,678,Nuraghe San Giovanni,Nuraghe,39.793332
NUR5054,Nuraghe,Marmilla,8.9293447,,MEDIO CAMPIDANO,Pauli Arbarei,679,Nuraghe Seneri,Nuraghe,39.664622
NUR5055,Nuraghe,Sarrabus,9.5729743,,CAGLIARI,Muravera,680,Nuraghe Perdiaxiu,Nuraghe,39.302749
NUR5056,Nuraghe,Sarcidano,9.2605331,,CAGLIARI,Orroli,681,Nuraghe Ollasta,Nuraghe,39.682816
NUR5057,Nuraghe,Marmilla,9.0047362,,MEDIO CAMPIDANO,Las Plassas,682,Nuraghe Bruncu 'e Forru,Nuraghe,39.669745
NUR5058,Nuraghe,Sarcidano,9.0672424,,CAGLIARI,Gergei,683,Nuraghe Riu Elias,Nuraghe,39.668993
NUR5061,Nuraghe,Campidano di Cagliari,9.5054591,,CAGLIARI,Villasimius,684,Nuraghe Nuraxeddu,Nuraghe,39.194617
NUR5062,Nuraghe,Marmilla,9.0112862,,MEDIO CAMPIDANO,Gesturi,685,Nuraghe Bruncu Cristolu,Nuraghe,39.720657
NUR5063,Nuraghe,Trexenta,9.093402,,CAGLIARI,Mandas,686,Nuraghe Ruina Fielli I,Nuraghe,39.643154
NUR5064,Nuraghe,Sulcis,8.7126464,,CARBONIA IGLESIAS,Nuxis,687,Nuraghe Is Cuccus II,Nuraghe,39.135788
NUR5065,Nuraghe,Trexenta,9.1307504,,CAGLIARI,Suelli,688,Nuraghe Serralori,Nuraghe,39.575905
NUR5066,Nuraghe,Sulcis,8.5374686,,CARBONIA IGLESIAS,San Giovanni Suergiu,689,Nuraghe Craminalana,Nuraghe,39.118984
NUR5067,Nuraghe,Sarrabus,9.4668648,,CAGLIARI,San Vito,690,Nuraghe Su Presoni,Nuraghe,39.374803
NUR5069,Nuraghe,Trexenta,9.0946573,,CAGLIARI,Mandas,691,Nuraghe Zidoni,Nuraghe,39.648587
NUR5070,Nuraghe,Sarcidano,9.23388,,CAGLIARI,Nurri,692,Nuraghe Latt'e Pudda,Nuraghe,39.722484
NUR5071,Nuraghe,Alta Marmilla,8.8837552,,ORISTANO,Assolo,693,Nuraghe Monte Figu,Nuraghe,39.805941
NUR5074,Nuraghe,Sarcidano,9.1555112,,CAGLIARI,Isili,694,Nuraghe Minda Maiori,Nuraghe,39.729755
NUR5075,Nuraghe,Sarcidano,9.1355556,,CAGLIARI,Isili,695,Nuraghe Ruina Franca,Nuraghe,39.731356
NUR5076,Nuraghe,Ogliastra,9.6509984,,OGLIASTRA,Cardedu,696,Nuraghe Genna Masoni,Nuraghe,39.785286
NUR5077,Nuraghe,Sarcidano,9.1939232,,CAGLIARI,Nurri,697,Nuraghe Corti Ollastu,Nuraghe,39.746577
NUR5078,Nuraghe,Sarrabus,9.5796636,,CAGLIARI,Villaputzu,698,Nuraghe Uluedu,Nuraghe,39.564726
NUR5079,Nuraghe,Ogliastra,9.6175861,,OGLIASTRA,Cardedu,699,Nuraghe Serra 'e S'Omu,Nuraghe,39.783097
NUR5080,Nuraghe,Marmilla,8.8176481,,MEDIO CAMPIDANO,Collinas,700,Nuraghe S'Orcu,Nuraghe,39.66077
NUR5081,Nuraghe,Sulcis,8.6333174,,CARBONIA IGLESIAS,Perdaxius,701,Nuraghe Murgias I,Nuraghe,39.136825
NUR5082,Nuraghe,Marmilla,8.9289947,,MEDIO CAMPIDANO,Pauli Arbarei,702,Nuraghe Scortis,Nuraghe,39.653883
NUR5083,Nuraghe,Sarcidano,9.3551749,,CAGLIARI,Escalaplano,703,Nuraghe Genna Piccinu,Nuraghe,39.599914
NUR5084,Nuraghe,Alta Marmilla,8.9480156,,ORISTANO,Senis,704,Nuraghe Maria Turri,Nuraghe,39.810347
NUR5086,Nuraghe,Ogliastra,9.5705992,,OGLIASTRA,Jerzu,705,Nuraghe Mancusu o Marcusu,Nuraghe,39.742846
NUR5087,Nuraghe,Campidano di Oristano,8.6949451,,ORISTANO,Uras,706,Nuraghe Mannu,Nuraghe,39.73787
NUR5127,Nuraghe,Marmilla,8.9233097,,MEDIO CAMPIDANO,Lunamatrona,707,Nuraghe Bruncu Sa Cruxi,Nuraghe,39.647722
NUR5092,Nuraghe,Sarrabus,9.5953479,,CAGLIARI,Muravera,708,Nuraghe Puncilioni,Nuraghe,39.40447
NUR5093,Nuraghe,Sarrabus,9.6404117,,CAGLIARI,Villaputzu,709,Nuraghe Su Franzesu,Nuraghe,39.479704
NUR5094,Nuraghe,Alta Marmilla,9.0291417,,ORISTANO,Genoni,710,Nuraghe Monte Cilixia,Nuraghe,39.808163
NUR5095,Nuraghe,Campidano,8.9258632,,MEDIO CAMPIDANO,Sanluri,711,Nuraghe Fenu,Nuraghe,39.597928
NUR5096,Nuraghe,Sarcidano,9.156391,,CAGLIARI,Isili,712,Nuraghe Molas,Nuraghe,39.742483
NUR5097,Nuraghe,Sarcidano,9.1332288,,CAGLIARI,Isili,713,Nuraghe Pizzu Runcu o Pitzu Runcu,Nuraghe,39.753683
NUR5098,Nuraghe,Alta Marmilla,8.7453559,,ORISTANO,Masullas,714,Nuraghe Monti Miana,Nuraghe,39.70186
NUR5099,Nuraghe,Campidano,8.9054703,,MEDIO CAMPIDANO,Sanluri,715,Nuraghe Puxeddu,Nuraghe,39.587425
NUR5100,Nuraghe,Sarrabus,9.5362588,,CAGLIARI,San Vito,716,Nuraghe Monte Idda,Nuraghe,39.350537
NUR5102,Nuraghe,Marmilla,8.8698882,,MEDIO CAMPIDANO,Siddi,717,Nuraghe Sa Mammonaia,Nuraghe,39.679365
NUR5103,Nuraghe,Ogliastra,9.6182728,,OGLIASTRA,Ilbono,718,Nuraghe Monte Forru,Nuraghe,39.868567
NUR5104,Nuraghe,Sarcidano,9.1633325,,CAGLIARI,Isili,719,Nuraghe Antini,Nuraghe,39.751949
NUR5105,Nuraghe,Sarrabus,9.4857891,,CAGLIARI,Castiadas,720,Nuraghe Meurru,Nuraghe,39.296562
NUR5106,Nuraghe,Ogliastra,9.5572311,,OGLIASTRA,Tertenia,721,Nuraghe Piddeddu,Nuraghe,39.628907
NUR5108,Nuraghe,Trexenta,9.1205835,,CAGLIARI,Gesico,722,Nuraghe Colombus o S'Arriu Sullinu,Nuraghe,39.624182
NUR5109,Nuraghe,Alta Marmilla,8.8955944,,ORISTANO,Assolo,723,Nuraghe Fruscu,Nuraghe,39.802226
NUR5111,Nuraghe,Gerrei,9.3370163,,CAGLIARI,Ballao,724,Nuraghe Su Nuraxi,Nuraghe,39.554498
NUR5112,Nuraghe,Trexenta,9.140971,,CAGLIARI,Suelli,725,Nuraghe Planu Senis,Nuraghe,39.607804
NUR5113,Nuraghe,Sarcidano,9.2547503,,CAGLIARI,Orroli,726,Nuraghe Su Motti,Nuraghe,39.701477
NUR5114,Nuraghe,Sarrabus,9.5893854,,CAGLIARI,Muravera,727,Nuraghe Baracca su Entu,Nuraghe,39.311336
NUR5115,Nuraghe,Sulcis,8.6094161,,CARBONIA IGLESIAS,Perdaxius,728,Nuraghe Tronu,Nuraghe,39.131345
NUR750,Nuraghe,Goceano,8.982459,,SASSARI,Bono,729,,Nuraghe,40.463453
NUR5116,Nuraghe,Alta Marmilla,8.9117842,,ORISTANO,Assolo,730,Nuraghe Porcilis,Nuraghe,39.807176
NUR5119,Nuraghe,Ogliastra,9.6509474,,OGLIASTRA,Cardedu,731,Nuraghe Desfollas,Nuraghe,39.76837
NUR5120,Nuraghe,Sarrabus,9.5905843,,CAGLIARI,San Vito,732,Nuraghe Miura,Nuraghe,39.512829
NUR5121,Nuraghe,Sarrabus,9.5693466,,CAGLIARI,San Vito,733,Nuraghe Sa Spadula,Nuraghe,39.36381
NUR5122,Nuraghe,Sarcidano,9.1419473,,CAGLIARI,Isili,734,Nuraghe Pardussuna,Nuraghe,39.769871
NUR5123,Nuraghe,Sarrabus,9.4868981,,CAGLIARI,San Vito,735,Nuraghe Giogadroxiu,Nuraghe,39.316246
NUR5125,Nuraghe,Capoterra,8.7125618,,CAGLIARI,Teulada,736,Nuraghe Campu Santeddu,Nuraghe,38.948407
NUR5126,Nuraghe,Marmilla,9.0530669,,MEDIO CAMPIDANO,Gesturi,737,Nuraghe Ollasteddu,Nuraghe,39.711063
NUR5129,Nuraghe,Sarrabus,9.4927802,,CAGLIARI,Castiadas,738,Nuraghe Cruxi,Nuraghe,39.297748
NUR5130,Nuraghe,Sarcidano,9.238008,,CAGLIARI,Nurri,739,Nuraghe Comas de Pisu,Nuraghe,39.705492
NUR5131,Nuraghe,Ogliastra,9.6124658,,OGLIASTRA,Ilbono,740,Nuraghe Perda Carcina,Nuraghe,39.870027
NUR5132,Nuraghe,Ogliastra,9.6211642,,OGLIASTRA,Loceri,741,Nuraghe Cea,Nuraghe,39.830589
NUR5133,Nuraghe,Alta Marmilla,8.9277837,,ORISTANO,Assolo,742,Nuraghe Sassaioni,Nuraghe,39.796469
NUR5134,Nuraghe,Alta Marmilla,9.0058601,,ORISTANO,Genoni,743,Nuraghe Is Cortis,Nuraghe,39.787095
NUR5135,Nuraghe,Sarrabus,9.5083357,,CAGLIARI,San Vito,744,Nuraghe Orridroxiu II,Nuraghe,39.390845
NUR5136,Nuraghe,Ogliastra,9.5983681,,OGLIASTRA,Loceri,745,Nuraghe Is Baresus,Nuraghe,39.620414
NUR5137,Nuraghe,Ogliastra,9.5987677,,OGLIASTRA,Loceri,746,Nuraghe Monte Nuraxi,Nuraghe,39.845776
NUR5138,Nuraghe,Alta Marmilla,8.7452271,,ORISTANO,Mogoro,747,Nuraghe Pranu s'Ollastu o Pranu Ollastus,Nuraghe,39.689682
NUR5139,Nuraghe,Sulcis,8.694571,,CARBONIA IGLESIAS,Nuxis,748,Nuraghe Is Messaius,Nuraghe,39.128803
NUR5141,Nuraghe,Sarrabus,9.5845091,,CAGLIARI,Muravera,749,Nuraghe Piscareddu,Nuraghe,39.297102
NUR5142,Nuraghe,Sarrabus,9.5787745,,CAGLIARI,Muravera,750,Nuraghe Sa Ridroxi,Nuraghe,39.289555
NUR5143,Nuraghe,Capoterra,8.9535657,,CAGLIARI,Pula,751,Nuraghe Mangallu,Nuraghe,38.99628
NUR5144,Nuraghe,Alta Marmilla,8.8725033,,ORISTANO,Albagiara,752,Nuraghe Lea,Nuraghe,39.792765
NUR5145,Nuraghe,Trexenta,9.0572781,,CAGLIARI,Guasila,753,Nuraghe Mendula Marigosa,Nuraghe,39.571452
NUR5147,Nuraghe,Sarrabus,9.5074345,,CAGLIARI,San Vito,754,Nuraghe Orridroxiu,Nuraghe,39.389194
NUR5149,Nuraghe,Campidano di Cagliari,9.0496337,,CAGLIARI,Nuraminis,755,Nuraghe Segavenu o Segafenu,Nuraghe,39.439731
NUR5150,Nuraghe,Trexenta,9.1273668,,CAGLIARI,Gesico,756,Nuraghe Suergiu,Nuraghe,39.611288
NUR5151,Nuraghe,Iglesiente,8.4646412,,CARBONIA IGLESIAS,Gonnesa,757,Nuraghe Serra Nuraxi,Nuraghe,39.264425
NUR5152,Nuraghe,Sarrabus,9.6181064,,CAGLIARI,Villaputzu,758,Nuraghe Molas,Nuraghe,39.547005
NUR5154,Nuraghe,Sarrabus,9.4944204,,CAGLIARI,San Vito,759,Nuraghe Perdu Lodde,Nuraghe,39.393681
NUR5155,Nuraghe,Alta Marmilla,8.9003044,,ORISTANO,Assolo,760,Nuraghe Anadi II,Nuraghe,39.822752
NUR5156,Nuraghe,Alta Marmilla,8.7866806,,ORISTANO,Masullas,761,Nuraghe Onigu o Nuraccioni,Nuraghe,39.711573
NUR5157,Nuraghe,Trexenta,9.1136276,,CAGLIARI,Suelli,762,Nuraghe Corru Cottu,Nuraghe,39.542192
NUR5158,Nuraghe,Marmilla,8.8796273,,MEDIO CAMPIDANO,Ussaramanna,763,Nuraghe Su Sensu,Nuraghe,39.697576
NUR5159,Nuraghe,Capoterra,9.0106773,,CAGLIARI,Sarroch,764,Nuraghe Mussara,Nuraghe,39.039764
NUR5160,Nuraghe,Marmilla,8.9387579,,MEDIO CAMPIDANO,Furtei,765,Nuraghe Sa Conca Manna,Nuraghe,39.530669
NUR5161,Nuraghe,Ogliastra,9.4378486,,OGLIASTRA,Perdasdefogu,766,Nuraghe Perduxeddu,Nuraghe,39.696466
NUR5162,Nuraghe,Campidano di Cagliari,9.4549826,,CAGLIARI,Sinnai,767,Nuraghe Su Crastadroxiu,Nuraghe,39.178497
NUR5163,Nuraghe,Sarcidano,9.2213111,,CAGLIARI,Nurri,768,Nuraghe Is Cangialis o Su Pizzu de Is Cangialis,Nuraghe,39.745869
NUR5165,Nuraghe,Alta Marmilla,8.977434,,ORISTANO,Nureci,769,Nuraghe Murtas,Nuraghe,39.814794
NUR5166,Nuraghe,Campidano di Oristano,8.7637317,,ORISTANO,Villaurbana,770,Nuraghe Cuccuru Petrosu o Pedrosu I,Nuraghe,39.881556
NUR5167,Nuraghe,Sarrabus,9.5946103,,CAGLIARI,Villaputzu,771,Nuraghe Nurresu,Nuraghe,39.566645
NUR5168,Nuraghe,Marmilla,8.9660307,,MEDIO CAMPIDANO,Villamar,772,Nuraghe Moru Pintau o Mauru Pintau o Mori Pintau.,Nuraghe,39.646136
NUR5169,Nuraghe,Campidano,9.0087927,,MEDIO CAMPIDANO,Serrenti,773,Nuraghe Monte de su Marchesu o Costa s'Olioni,Nuraghe,39.51717
NUR5170,Nuraghe,Sulcis,8.6313111,,CARBONIA IGLESIAS,Perdaxius,774,Nuraghe Tanca Manna,Nuraghe,39.165379
NUR5171,Nuraghe,Sarcidano,9.2768544,,CAGLIARI,Nurri,775,Nuraghe Sedda Bintrissos,Nuraghe,39.712823
NUR5174,Nuraghe,Campidano di Cagliari,9.4525874,,CAGLIARI,Sinnai,776,Nuraghe S'Arrideli,Nuraghe,39.177998
NUR5175,Nuraghe,Trexenta,9.0441486,,CAGLIARI,Gesico,777,Nuraghe Bruncu Planu Mesa,Nuraghe,39.633669
NUR5176,Nuraghe,Trexenta,9.0816995,,CAGLIARI,Gesico,778,Nuraghe Battudisi,Nuraghe,39.612459
NUR5177,Nuraghe,Campidano di Cagliari,9.4153958,,CAGLIARI,Burcei,779,Nuraghe Su Nuraxi,Nuraghe,39.320753
NUR5178,Nuraghe,Alta Marmilla,8.7293525,,ORISTANO,Mogoro,780,Nuraghe Arratzu o Arrazzu,Nuraghe,39.677903
NUR5179,Nuraghe,Marmilla,8.9432064,,MEDIO CAMPIDANO,Furtei,781,Nuraghe Bruncu su Sensu,Nuraghe,39.553008
NUR5180,Nuraghe,Sarrabus,9.4745426,,CAGLIARI,San Vito,782,Nuraghe Miali Pili,Nuraghe,39.374758
NUR5182,Nuraghe,Sulcis,8.5461938,,CARBONIA IGLESIAS,Tratalias,783,Nuraghe Caboniscu,Nuraghe,39.128318
NUR5183,Nuraghe,Sarrabus,9.4839531,,CAGLIARI,Castiadas,784,Nuraghe s'Accedda,Nuraghe,39.261692
NUR5184,Nuraghe,Sarrabus,9.5756793,,CAGLIARI,Muravera,785,Nuraghe Cuili Senni,Nuraghe,39.38516
NUR5185,Nuraghe,Sulcis,8.6614913,,CARBONIA IGLESIAS,Narcao,786,Nuraghe Panicani,Nuraghe,39.158089
NUR5519,Nuraghe,Coros,8.6114197,,SASSARI,Ittiri,787,Nuraghe Abbarghente,Nuraghe,40.561628
NUR5186,Nuraghe,Campidano di Oristano,8.7427273,,ORISTANO,Villaurbana,788,Nuraghe Tanusara,Nuraghe,39.890251
NUR5187,Nuraghe,Campidano di Cagliari,9.0165433,,CAGLIARI,San Sperate,789,Nuraghe Ponti Becciu,Nuraghe,39.346309
NUR5188,Nuraghe,Sarrabus,9.4942528,,CAGLIARI,San Vito,790,Nuraghe Serra Is Abis,Nuraghe,39.371871
NUR5189,Nuraghe,Marmilla,8.8555102,,MEDIO CAMPIDANO,Collinas,791,Nuraghe Liccu,Nuraghe,39.663046
NUR5190,Nuraghe,Alta Marmilla,8.9489999,,ORISTANO,Senis,792,Nuraghe Sirigoni,Nuraghe,39.833969
NUR5191,Nuraghe,Ogliastra,9.4727093,,OGLIASTRA,Osini,793,Nuraghe Orruttu,Nuraghe,39.820665
NUR5192,Nuraghe,Campidano di Cagliari,9.4195291,,CAGLIARI,Maracalagonis,794,Nuraghe Bruncu Morettu,Nuraghe,39.172413
NUR5193,Nuraghe,Sarrabus,9.577994,,CAGLIARI,San Vito,795,Nuraghe Serra de S'Arrizzoni,Nuraghe,39.513239
NUR5194,Nuraghe,Sarrabus,9.4972153,,CAGLIARI,San Vito,796,Nuraghe Fottiano,Nuraghe,39.364931
NUR5195,Nuraghe,Sarcidano,9.2825111,,CAGLIARI,Orroli,797,Nuraghe Funtana de Spidu,Nuraghe,39.692169
NUR5196,Nuraghe,Ogliastra,9.4124132,,OGLIASTRA,Perdasdefogu,798,Nuraghe Trutturis,Nuraghe,39.709841
NUR5197,Nuraghe,Alta Marmilla,8.9594686,,ORISTANO,Nureci,799,Nuraghe Serri Armas,Nuraghe,39.796491
NUR5198,Nuraghe,Alta Marmilla,8.9181599,,ORISTANO,Assolo,800,Nuraghe Sa Cirra,Nuraghe,39.80031
NUR5199,Nuraghe,Alta Marmilla,8.9918992,,ORISTANO,Genoni,801,Nuraghe Fattu,Nuraghe,39.809498
NUR5202,Nuraghe,Alta Marmilla,8.9807465,,ORISTANO,Genoni,802,Nuraghe Cixius,Nuraghe,39.789659
NUR5203,Nuraghe,Alta Marmilla,8.9035231,,ORISTANO,Ruinas,803,Nuraghe Nurachi,Nuraghe,39.907923
NUR5204,Nuraghe,Campidano di Cagliari,8.7986487,,CAGLIARI,Villasor,804,Nuraghe Serra 'e Crabas I,Nuraghe,39.389152
NUR5205,Nuraghe,Sulcis,8.6837831,,CARBONIA IGLESIAS,Villaperuccio,805,Nuraghe Is Pireddas,Nuraghe,39.104682
NUR5206,Nuraghe,Trexenta,9.0907681,,CAGLIARI,Mandas,806,Nuraghe Pardu,Nuraghe,39.656947
NUR5208,Nuraghe,Sulcis,8.6439094,,CARBONIA IGLESIAS,Masainas,807,Nuraghe Arramini,Nuraghe,39.04462
NUR5210,Nuraghe,Alta Marmilla,9.0682643,,ORISTANO,Laconi,808,Nuraghe Mamusi,Nuraghe,39.827856
NUR5211,Nuraghe,Sulcis,8.5824251,,CARBONIA IGLESIAS,Masainas,809,Nuraghe Sa Perda,Nuraghe,39.01277
NUR5212,Nuraghe,Campidano di Cagliari,8.8135832,,CAGLIARI,Villasor,810,Nuraghe Carranca Simoi I,Nuraghe,39.394905
NUR5213,Nuraghe,Alta Marmilla,8.9548069,,ORISTANO,Nureci,811,Nuraghe Attori,Nuraghe,39.784148
NUR5214,Nuraghe,Campidano di Oristano,8.8358187,,ORISTANO,Villaurbana,812,Nuraghe Nuraxeddu II,Nuraghe,39.863982
NUR5215,Nuraghe,Sarcidano,9.0844407,,CAGLIARI,Nurallao,813,Nuraghe Olia,Nuraghe,39.80672
NUR5216,Nuraghe,Alta Marmilla,8.9588235,,ORISTANO,Nureci,814,Nuraghe Pranu d'Ollastu o Magomadas,Nuraghe,39.823165
NUR5217,Nuraghe,Trexenta,9.1039646,,CAGLIARI,Gesico,815,Nuraghe Ruina Fraigada,Nuraghe,39.632793
NUR5219,Nuraghe,Linas,8.493365,,MEDIO CAMPIDANO,Arbus,816,Nuraghe Punta Nicolau,Nuraghe,39.698651
NUR5221,Nuraghe,Campidano di Cagliari,9.4548726,,CAGLIARI,Maracalagonis,817,Nuraghe S'Arridellarxiu,Nuraghe,39.191195
NUR5222,Nuraghe,Alta Marmilla,9.0899849,,ORISTANO,Laconi,818,Nuraghe Gurduxioni,Nuraghe,39.86731
NUR5223,Nuraghe,Sarrabus,9.5755881,,CAGLIARI,Muravera,819,Nuraghe Bruncu Su Predi,Nuraghe,39.326669
NUR5224,Nuraghe,Sarrabus,9.5289579,,CAGLIARI,Muravera,820,Nuraghe Figu Niedda,Nuraghe,39.302389
NUR5225,Nuraghe,Sarcidano,9.2682378,,CAGLIARI,Orroli,821,Nuraghe Carcina II,Nuraghe,39.680991
NUR5226,Nuraghe,Sulcis,8.7087518,,CARBONIA IGLESIAS,Nuxis,822,Nuraghe Perdosu,Nuraghe,39.126127
NUR5227,Nuraghe,Sarcidano,9.0784246,,CAGLIARI,Gergei,823,Nuraghe Ruineri,Nuraghe,39.682708
NUR5228,Nuraghe,Campidano di Cagliari,9.2247659,,CAGLIARI,Sinnai,824,Nuraghe Cirronis I,Nuraghe,39.338761
NUR5230,Nuraghe,Marmilla,8.9897507,,MEDIO CAMPIDANO,Barumini,825,Nuraghe Marfudi,Nuraghe,39.714226
NUR5232,Nuraghe,Sulcis,8.6627626,,CARBONIA IGLESIAS,Narcao,826,Nuraghe Calabresi,Nuraghe,39.152494
NUR5233,Nuraghe,Sarrabus,9.5099182,,CAGLIARI,San Vito,827,Nuraghe Cuili Leddas o Cuili Ledda,Nuraghe,39.350315
NUR5234,Nuraghe,Sarrabus,9.4783003,,CAGLIARI,San Vito,828,Nuraghe Sa Figu,Nuraghe,39.317213
NUR5235,Nuraghe,Campidano,8.7714095,,MEDIO CAMPIDANO,Sardara,829,Nuraghe Otzi,Nuraghe,39.621254
NUR5236,Nuraghe,Sarcidano,9.0585789,,CAGLIARI,Gergei,830,Nuraghe Martinedda,Nuraghe,39.692072
NUR5237,Nuraghe,Sulcis,8.59225,,CARBONIA IGLESIAS,Tratalias,831,Nuraghe de Carrogu,Nuraghe,39.102317
NUR5239,Nuraghe,Sarcidano,9.0654883,,CAGLIARI,Nurallao,832,Nuraghe Pard'e Pira o Pardu,Nuraghe,39.788814
NUR5240,Nuraghe,Ogliastra,9.4029343,,OGLIASTRA,Perdasdefogu,833,Nuraghe Truncone,Nuraghe,39.669796
NUR5241,Nuraghe,Campidano di Cagliari,8.8006174,,CAGLIARI,Villasor,834,Nuraghe Monte Zippireddu,Nuraghe,39.402735
NUR5242,Nuraghe,Gerrei,9.4035914,,CAGLIARI,Armungia,835,Nuraghe Cuil' e Ois,Nuraghe,39.515844
NUR5243,Nuraghe,Alta Marmilla,8.7670147,,ORISTANO,Masullas,836,Nuraghe Murranca o Tramesu e Bruncu,Nuraghe,39.701847
NUR5244,Nuraghe,Sarrabus,9.5578935,,CAGLIARI,Muravera,837,Nuraghe Mannu,Nuraghe,39.317779
NUR5245,Nuraghe,Sarcidano,9.1095703,,CAGLIARI,Nurallao,838,Nuraghe Is Speluncas,Nuraghe,39.831287
NUR5246,Nuraghe,Campidano di Oristano,8.7260118,,ORISTANO,Oristano,839,Nuraghe Tiria,Nuraghe,39.873895
NUR5247,Nuraghe,Sulcis,8.5611873,,CARBONIA IGLESIAS,Tratalias,840,Nuraghe Barcilis,Nuraghe,39.117471
NUR5248,Nuraghe,Marmilla,9.053826,,MEDIO CAMPIDANO,Gesturi,841,Nuraghe Pranu e Mendola,Nuraghe,39.72121
NUR5249,Nuraghe,Sulcis,8.7056042,,CARBONIA IGLESIAS,Santadi,842,Nuraghe Senzu,Nuraghe,39.073241
NUR5250,Nuraghe,Sarrabus,9.5750785,,CAGLIARI,Muravera,843,Nuraghe Giordi,Nuraghe,39.33328
NUR5251,Nuraghe,Campidano di Cagliari,9.4629004,,CAGLIARI,Maracalagonis,844,Nuraghe Su Reu,Nuraghe,39.213949
NUR5253,Nuraghe,Ogliastra,9.4466462,,OGLIASTRA,Osini,845,Nuraghe Sa Tacca 'e Montumarci,Nuraghe,39.819325
NUR5255,Nuraghe,Campidano di Cagliari,9.4270393,,CAGLIARI,Maracalagonis,846,Nuraghe Luas,Nuraghe,39.193029
NUR5256,Nuraghe,Campidano di Cagliari,8.8058423,,CAGLIARI,Villasor,847,Nuraghe Carranca Simoi II,Nuraghe,39.396428
NUR5257,Nuraghe,Campidano di Cagliari,9.290547,,CAGLIARI,Sinnai,848,Nuraghe Correxerbu o Corr?e Cerbu,Nuraghe,39.344986
NUR5258,Nuraghe,Sulcis,8.6433006,,CARBONIA IGLESIAS,Villaperuccio,849,Nuraghe Su Nuragheddu de Piras Nicola,Nuraghe,39.110824
NUR5259,Nuraghe,Trexenta,9.1024839,,CAGLIARI,Mandas,850,Nuraghe Murtas,Nuraghe,39.64891
NUR5261,Nuraghe,Alta Marmilla,8.8359448,,ORISTANO,Usellus,851,Nuraghe Pinna,Nuraghe,39.819057
NUR5263,Nuraghe,Sarrabus,9.5647976,,CAGLIARI,Villaputzu,852,Nuraghe Cuili Gureu,Nuraghe,39.452871
NUR5264,Nuraghe,Alta Marmilla,8.9576715,,ORISTANO,Nureci,853,Nuraghe Urielli,Nuraghe,39.812479
NUR5265,Nuraghe,Trexenta,9.083164,,CAGLIARI,Mandas,854,Nuraghe Baccuedu,Nuraghe,39.662672
NUR5266,Nuraghe,Sarcidano,9.0887457,,CAGLIARI,Gergei,855,Nuraghe San Pietro o Santu Perdu,Nuraghe,39.709056
NUR5267,Nuraghe,Ogliastra,9.6183801,,OGLIASTRA,Loceri,856,Nuraghe Berritta,Nuraghe,39.628967
NUR5268,Nuraghe,Marmilla,8.9285078,,MEDIO CAMPIDANO,Lunamatrona,857,Nuraghe s'Ungroni,Nuraghe,39.636972
NUR5269,Nuraghe,Alta Marmilla,8.7550145,,ORISTANO,Masullas,858,Nuraghe Corongiu Arrubiu,Nuraghe,39.713255
NUR5270,Nuraghe,Alta Marmilla,8.7700565,,ORISTANO,Mogoro,859,Nuraghe Is Mindas,Nuraghe,39.677063
NUR5271,Nuraghe,Sulcis,8.6454999,,CARBONIA IGLESIAS,Perdaxius,860,Nuraghe Monte Narcao,Nuraghe,39.141776
NUR5272,Nuraghe,Sarrabus,9.5009878,,CAGLIARI,San Vito,861,Nuraghe Fottiano II,Nuraghe,39.363611
NUR5273,Nuraghe,Trexenta,9.0975514,,CAGLIARI,Mandas,862,Nuraghe Don Efisi,Nuraghe,39.660982
NUR5274,Nuraghe,Sarcidano,9.2400759,,CAGLIARI,Nurri,863,Nuraghe Sutta Corongiu,Nuraghe,39.72567
NUR5275,Nuraghe,Sulcis,8.5046712,,CARBONIA IGLESIAS,San Giovanni Suergiu,864,Nuraghe Sas Baccas,Nuraghe,39.129927
NUR5276,Nuraghe,Trexenta,9.0200597,,CAGLIARI,Guasila,865,Nuraghe Carrogas,Nuraghe,39.532077
NUR5277,Nuraghe,Alta Marmilla,8.8365429,,ORISTANO,Usellus,866,Nuraghe Tara,Nuraghe,39.814745
NUR5278,Nuraghe,Marmilla,9.0223583,,MEDIO CAMPIDANO,Barumini,867,Nuraghe Urru,Nuraghe,39.68601
NUR5280,Nuraghe,Alta Marmilla,8.9978993,,ORISTANO,Genoni,868,Nuraghe Lorias,Nuraghe,39.777659
NUR5281,Nuraghe,Alta Marmilla,9.0226722,,ORISTANO,Laconi,869,Nuraghe Picciu,Nuraghe,39.897271
NUR5282,Nuraghe,Sarrabus,9.5735818,,CAGLIARI,Muravera,870,Nuraghe Ponzianu,Nuraghe,39.395798
NUR5284,Nuraghe,Campidano,8.8200581,,MEDIO CAMPIDANO,Sardara,871,Nuraghe Colombus,Nuraghe,39.630419
NUR5285,Nuraghe,Sarcidano,9.051302,,CAGLIARI,Gergei,872,Nuraghe Riu Coloru,Nuraghe,39.694191000000004
NUR5286,Nuraghe,Marmilla,8.868826,,MEDIO CAMPIDANO,Siddi,873,Nuraghe Sa Gruxi,Nuraghe,39.674673
NUR5287,Nuraghe,Sarcidano,9.3222213,,CAGLIARI,Escalaplano,874,Nuraghe Perda Utzei o Perdu Euzei,Nuraghe,39.648433
NUR5288,Nuraghe,Sarcidano,9.0604054,,CAGLIARI,Gergei,875,Nuraghe Trazzali,Nuraghe,39.684736
NUR5289,Nuraghe,Capoterra,9.0117743,,CAGLIARI,Pula,876,Nuraghe Guardia is Mongias o Sa Guardia Mongiasa,Nuraghe,38.997985
NUR5290,Nuraghe,Ogliastra,9.5299315,,OGLIASTRA,Jerzu,877,Nuraghe S'Omu 'e S'Orcu o Sa Domu 'e S'Orcu,Nuraghe,39.790301
NUR5291,Nuraghe,Sarrabus,9.469956,,CAGLIARI,San Vito,878,Nuraghe Nuraxeddu II,Nuraghe,39.376507
NUR5292,Nuraghe,Marmilla,9.0554165,,MEDIO CAMPIDANO,Gesturi,879,Nuraghe Bingia 'e Crobu,Nuraghe,39.743502
NUR5293,Nuraghe,Campidano di Cagliari,8.8249209,,CAGLIARI,Villasor,880,Nuraghe Cuccuru Canalis,Nuraghe,39.384903
NUR5294,Nuraghe,Marmilla,8.9509204,,MEDIO CAMPIDANO,Pauli Arbarei,881,Nuraghe Mollargiu II,Nuraghe,39.665642
NUR5296,Nuraghe,Sarcidano,9.0984606,,CAGLIARI,Gergei,882,Nuraghe Aureddas o Aurreddus,Nuraghe,39.682532
NUR5297,Nuraghe,Iglesiente,8.4506589,,CARBONIA IGLESIAS,Gonnesa,883,Nuraghe Moru Nieddu,Nuraghe,39.239782
NUR5299,Nuraghe,Ogliastra,9.6175942,,OGLIASTRA,Tertenia,884,Nuraghe de Sa Teria,Nuraghe,39.688862
NUR5300,Nuraghe,Sarrabus,9.5873603,,CAGLIARI,Villaputzu,885,Nuraghe Curreli,Nuraghe,39.554161
NUR5301,Nuraghe,Campidano di Cagliari,8.7849587,,CAGLIARI,Villasor,886,Nuraghe Serra 'e Crabas II,Nuraghe,39.392158
NUR5302,Nuraghe,Campidano di Oristano,8.7674466,,ORISTANO,Villaurbana,887,Nuraghe Sa Mitza,Nuraghe,39.876093
NUR5303,Nuraghe,Sulcis,8.6637926,,CARBONIA IGLESIAS,Villaperuccio,888,Nuraghe Niedda,Nuraghe,39.105902
NUR5305,Nuraghe,Sarrabus,9.5383,,CAGLIARI,San Vito,889,Nuraghe Scrocca,Nuraghe,39.459755
NUR5306,Nuraghe,Ogliastra,9.4197008,,OGLIASTRA,Perdasdefogu,890,Nuraghe Prediargiu,Nuraghe,39.705115
NUR5308,Nuraghe,Sarcidano,9.29762,,CAGLIARI,Orroli,891,Mastio del nuraghe Arrubiu,Nuraghe,39.662187
NUR5309,Nuraghe,Sarrabus,9.5449251,,CAGLIARI,Castiadas,892,Nuraghe Bruncu Ottixeddu,Nuraghe,39.250143
NUR5310,Nuraghe,Marmilla,8.8044718,,MEDIO CAMPIDANO,Collinas,893,Nuraghe Sartar,Nuraghe,39.648403
NUR5311,Nuraghe,Sulcis,8.6330706,,CARBONIA IGLESIAS,Perdaxius,894,Nuraghe Medau Acqua de su Figu,Nuraghe,39.139838
NUR5312,Nuraghe,Sarcidano,9.1087684,,CAGLIARI,Isili,895,Nuraghe Serra Monte Arcu,Nuraghe,39.760084
NUR5313,Nuraghe,Sarcidano,9.1480212,,CAGLIARI,Isili,896,Nuraghe Prani Ollas,Nuraghe,39.762166
NUR5314,Nuraghe,Ogliastra,9.5883688,,OGLIASTRA,Jerzu,897,Nuraghe Pirenau o Piremau,Nuraghe,39.795299
NUR5315,Nuraghe,Sarrabus,9.5663962,,CAGLIARI,Muravera,898,Nuraghe Marongiu,Nuraghe,39.380957
NUR5316,Nuraghe,Trexenta,9.0577635,,CAGLIARI,Guamaggiore,899,Nuraghe Niu Arrundinis,Nuraghe,39.579988
NUR5317,Nuraghe,Sarrabus,9.5432648,,CAGLIARI,Muravera,900,Nuraghe Corritta,Nuraghe,39.334399
NUR5318,Nuraghe,Sarcidano,9.1778058,,CAGLIARI,Nurri,901,Nuraghe Corti Scabulas,Nuraghe,39.687964
NUR5319,Nuraghe,Sarrabus,9.5335391,,CAGLIARI,San Vito,902,Nuraghe Priamo Orr,Nuraghe,39.357394
NUR5320,Nuraghe,Sarrabus,9.6122244,,CAGLIARI,Muravera,903,Nuraghe Porto Pirastu,Nuraghe,39.294339
NUR5321,Nuraghe,Trexenta,9.1539072,,CAGLIARI,Mandas,904,Nuraghe Bidinessi,Nuraghe,39.617236
NUR5322,Nuraghe,Sarcidano,9.0388405,,CAGLIARI,Nuragus,905,Nuraghe Ziu Trusciu,Nuraghe,39.771875
NUR5323,Nuraghe,Sarcidano,9.0807017,,CAGLIARI,Nurallao,906,Nuraghe Pranu Fas,Nuraghe,39.786794
NUR5324,Nuraghe,Marmilla,9.0296177,,MEDIO CAMPIDANO,Gesturi,907,Nuraghe Bruncu Peppi Pinna,Nuraghe,39.752597
NUR5325,Nuraghe,Sulcis,8.597129,,CARBONIA IGLESIAS,Tratalias,908,Nuraghe e Capanna nuragica di Monte Ennazza,Nuraghe,39.105845
NUR5326,Nuraghe,Sarrabus,9.4721313,,CAGLIARI,San Vito,909,Nuraghe Sa Pala,Nuraghe,39.371674
NUR5327,Nuraghe,Ogliastra,9.553543,,OGLIASTRA,Jerzu,910,Nuraghe di Scuriu,Nuraghe,39.593323
NUR5330,Nuraghe,Ogliastra,9.5893693,,OGLIASTRA,Osini,911,Nuraghe Riu de Su Predi,Nuraghe,39.61746
NUR5331,Nuraghe,Ogliastra,9.3943324,,OGLIASTRA,Ussassai,912,Nuraghe Su Teriargiu o Arcu Addai,Nuraghe,39.781499
NUR5332,Nuraghe,Sulcis,8.6387139,,CARBONIA IGLESIAS,Villaperuccio,913,Nuraghe Marchiana,Nuraghe,39.093594
NUR5333,Nuraghe,Trexenta,9.0640908,,CAGLIARI,Gesico,914,Nuraghe Tintilla,Nuraghe,39.622104
NUR5334,Nuraghe,Sulcis,8.6210328,,CARBONIA IGLESIAS,Villaperuccio,915,Nuraghe Frassu,Nuraghe,39.124729
NUR5336,Nuraghe,Sarcidano,9.0814903,,CAGLIARI,Gergei,916,Nuraghe Saccaioni,Nuraghe,39.665866
NUR5337,Nuraghe,Sarcidano,9.1406196,,CAGLIARI,Isili,917,Nuraghe Pedrosu,Nuraghe,39.739039
NUR5338,Nuraghe,Sarcidano,9.2783859,,CAGLIARI,Esterzili,918,Nuraghe Cuccuru Is Abis,Nuraghe,39.726889
NUR5339,Nuraghe,Sulcis,8.6588251,,CARBONIA IGLESIAS,Piscinas,919,Nuraghe Fragiacco,Nuraghe,39.096441
NUR5343,Nuraghe,Alta Marmilla,8.819696,,ORISTANO,Gonnostramatza,920,Nuraghe Pranu Aidu,Nuraghe,39.673985
NUR5344,Nuraghe,Sarrabus,9.4978389,,CAGLIARI,Castiadas,921,Nuraghe Birru,Nuraghe,39.27482
NUR5345,Nuraghe,Sarrabus,9.4993597,,CAGLIARI,Castiadas,922,Nuraghe Monte Gruttas,Nuraghe,39.281648
NUR5346,Nuraghe,Ogliastra,9.4198456,,OGLIASTRA,Ussassai,923,Nuraghe Mela,Nuraghe,39.822242
NUR5347,Nuraghe,Sarcidano,9.1199277,,CAGLIARI,Isili,924,Nuraghe Chistingionis,Nuraghe,39.754558
NUR5349,Nuraghe,Alta Marmilla,8.9786732,,ORISTANO,Genoni,925,Nuraghe Tresbias o Trebias,Nuraghe,39.797833
NUR5350,Nuraghe,Marmilla,8.9446467,,MEDIO CAMPIDANO,Furtei,926,Nuraghe Cuccuru de is Bangius I,Nuraghe,39.588234
NUR5351,Nuraghe,Sarrabus,9.580349,,CAGLIARI,San Vito,927,Nuraghe Spucciu,Nuraghe,39.53654
NUR5352,Nuraghe,Alta Marmilla,8.7966746,,ORISTANO,Gonnostramatza,928,Nuraghe Cadrogu,Nuraghe,39.663061
NUR5353,Nuraghe,Sarrabus,9.572403,,CAGLIARI,Muravera,929,Nuraghe Mannu,Nuraghe,39.29612
NUR5355,Nuraghe,Campidano di Cagliari,9.4017487,,CAGLIARI,Sinnai,930,Nuraghe Sa Fraigada,Nuraghe,39.254983
NUR5356,Nuraghe,Sarcidano,9.0453931,,CAGLIARI,Nuragus,931,Nuraghe Turri,Nuraghe,39.77037
NUR5357,Nuraghe,Linas,8.6341435,,MEDIO CAMPIDANO,Guspini,932,Nuraghe Terra Maistus,Nuraghe,39.51017
NUR5358,Nuraghe,Alta Marmilla,8.9016965,,ORISTANO,Assolo,933,Nuraghe Planu Narbonis,Nuraghe,39.803838
NUR5359,Nuraghe,Capoterra,8.6477342,,CAGLIARI,Teulada,934,Nuraghe Mannu,Nuraghe,38.973001
NUR5360,Nuraghe,Sarrabus,9.5379688,,CAGLIARI,San Vito,935,Nuraghe Arcu S'Arena,Nuraghe,39.474843
NUR5361,Nuraghe,Sarcidano,9.3704474,,CAGLIARI,Esterzili,936,Nuraghe Soperi,Nuraghe,39.743316
NUR5363,Nuraghe,Linas,8.6454329,,MEDIO CAMPIDANO,Guspini,937,Nuraghe Terra Frucca o Terrafurga,Nuraghe,39.520744
NUR5364,Nuraghe,Sarrabus,9.5372593,,CAGLIARI,Muravera,938,Nuraghe Pispisa,Nuraghe,39.298629
NUR5814,Nuraghe,Anglona,8.8982699,,SASSARI,Perfugas,939,Nuraghe Sa Pria,Nuraghe,40.848375
NUR3496,Nuraghe,Supramonte,9.4468018,,NUORO,Oliena,940,Nuraghe Sarunele,Nuraghe,40.327869
NUR3497,Nuraghe,Villanova,8.6233368,,SASSARI,Padria,941,Nuraghe Vigna,Nuraghe,40.39521
NUR3499,Nuraghe,Villanova,8.5687244,,SASSARI,Villanova Monteleone,942,Nuraghe Planu Nuraghes,Nuraghe,40.428959
NUR3500,Nuraghe,Coros,8.4905165,,SASSARI,Putifigari,943,Nuraghe,Nuraghe,40.554581
NUR3501,Nuraghe,Ogliastra,9.5875239,,OGLIASTRA,Talana,944,Nuraghe Nuragheddu,Nuraghe,39.994868
NUR3502,Nuraghe,Montiferru,8.5360578,,ORISTANO,Tresnuraghes,945,Nuraghe Binzas d'Ulimu,Nuraghe,40.239923
NUR3503,Nuraghe,Marghine,8.7482285,,NUORO,Macomer,946,Nuraghe Sa Ucchiusura,Nuraghe,40.293651
NUR3505,Nuraghe,Nurra,8.5435357,,SASSARI,Sassari,947,Nuraghe of Gioscari,Nuraghe,40.693445
NUR3507,Nuraghe,Montiferru,8.4826281,,ORISTANO,Cuglieri,948,Nuraghe Coduleddu,Nuraghe,40.130987
NUR3508,Nuraghe,Montiferru,8.4991009,,ORISTANO,Cuglieri,949,Nuraghe Appara,Nuraghe,40.125592
NUR3509,Nuraghe,Gallura,9.4945518,,OLBIA-TEMPIO,Olbia,950,Nuraghe Nuragadena,Nuraghe,40.963847
NUR3512,Nuraghe,Nuorese,9.3310377,,NUORO,Orune,951,Nuraghe Galile,Nuraghe,40.446955
NUR3513,Nuraghe,Gallura,9.0551436,,OLBIA-TEMPIO,Oschiri,952,Nuraghe Mugone,Nuraghe,40.676358
NUR3514,Nuraghe,Sinis,8.4812387,,ORISTANO,Riola Sardo,953,Nuraghe Porcu Silva,Nuraghe,39.995554
NUR3515,Nuraghe,Guilcer,8.8241806,,ORISTANO,Aidomaggiore,954,Nuraghe Tenalighe o Nucrastala,Nuraghe,40.196081
NUR3516,Nuraghe,Montacuto,8.7497855,,SASSARI,Bonnanaro,955,Nuraghe Bega,Nuraghe,40.555566
NUR3517,Nuraghe,Meilogu,8.7425556,,SASSARI,Cheremule,956,Nuraghe Riu,Nuraghe,40.485108
NUR3518,Nuraghe,Coros,8.5717149,,SASSARI,Usini,957,Nuraghe 'e Filighe,Nuraghe,40.647452
NUR3519,Nuraghe,Romangia,8.6694212,,SASSARI,Codrongianos,958,Nuraghe Sant'Andrea,Nuraghe,40.675004
NUR3520,Nuraghe,Guilcer,8.74376,,ORISTANO,Paulilatino,959,Nuraghe Forreddas,Nuraghe,40.018055
NUR3522,Nuraghe,Marghine,8.7205294,,NUORO,Sindia,960,Nuraghe Sa Tanca Salighes,Nuraghe,40.312227
NUR3523,Nuraghe,Marghine,8.7542179,,NUORO,Macomer,961,Nuraghe Madde,Nuraghe,40.315245
NUR5365,Nuraghe,Sarcidano,9.1361403,,CAGLIARI,Isili,962,Nuraghe Balloiana,Nuraghe,39.79551
NUR5366,Nuraghe,Sarrabus,9.5134279,,CAGLIARI,Castiadas,963,Nuraghe Moros,Nuraghe,39.216447
NUR5367,Nuraghe,Sulcis,8.5479774,,CARBONIA IGLESIAS,Tratalias,964,Nuraghe Costa sa Tanca S'Orzu,Nuraghe,39.125141
NUR5368,Nuraghe,Alta Marmilla,8.8568794,,ORISTANO,Usellus,965,Nuraghe Bruncu Prutzu,Nuraghe,39.807742
NUR5370,Nuraghe,Marmilla,8.9577252,,MEDIO CAMPIDANO,Tuili,966,Nuraghe Nuridda,Nuraghe,39.735209
NUR5371,Nuraghe,Campidano di Cagliari,8.8571611,,CAGLIARI,Decimomannu,967,Nuraghe Truxionis,Nuraghe,39.26557
NUR5372,Nuraghe,Alta Marmilla,9.011879,,ORISTANO,Genoni,968,Nuraghe Fruscu,Nuraghe,39.826348
NUR5373,Nuraghe,Campidano di Cagliari,9.4135572,,CAGLIARI,Maracalagonis,969,Nuraghe Bidda Beccia o Sa Idda Eccia,Nuraghe,39.164377
NUR5374,Nuraghe,Alta Marmilla,8.8737264,,ORISTANO,Baressa,970,Nuraghe Monte Majore,Nuraghe,39.734507
NUR5376,Nuraghe,Ogliastra,9.5431709,,OGLIASTRA,Jerzu,971,Nuraghe Bonu,Nuraghe,39.770444
NUR5377,Nuraghe,Gerrei,9.3541369,,CAGLIARI,Armungia,972,Nuraghe Cuile Sa Sentenzia,Nuraghe,39.525475
NUR5378,Nuraghe,Sulcis,8.5979229,,CARBONIA IGLESIAS,Perdaxius,973,Nuraghe Simplicio,Nuraghe,39.169369
NUR5379,Nuraghe,Sarrabus,9.4827461,,CAGLIARI,Castiadas,974,Nuraghe Piras,Nuraghe,39.2925
NUR5380,Nuraghe,Alta Marmilla,8.9091275,,ORISTANO,Sini,975,Nuraghe Perdosu,Nuraghe,39.766942
NUR5383,Nuraghe,Sarrabus,9.5912683,,CAGLIARI,Villaputzu,976,Nuraghe Sa Perda su Crobu,Nuraghe,39.442486
NUR5384,Nuraghe,Sarrabus,9.5232233,,CAGLIARI,San Vito,977,Nuraghe Pibilia,Nuraghe,39.419061
NUR5385,Nuraghe,Campidano di Oristano,8.7116807,,ORISTANO,Uras,978,Nuraghe Arbu,Nuraghe,39.711055
NUR5386,Nuraghe,Sulcis,8.6400805,,CARBONIA IGLESIAS,Masainas,979,Nuraghe de S'Ergai,Nuraghe,39.032171
NUR5387,Nuraghe,Campidano di Cagliari,9.285298,,CAGLIARI,Sinnai,980,Nuraghe Corongiu,Nuraghe,39.314171
NUR1861,Nuraghe,Sulcis,8.402794,IS PILLONIS,CARBONIA IGLESIAS,Sant'Antioco,981,Nuraghe Is Pillonis,Nuraghe,38.996126
NUR5390,Nuraghe,Sarrabus,9.5705066,,CAGLIARI,Muravera,982,Nuraghe Marongiu II,Nuraghe,39.37917
NUR5391,Nuraghe,Campidano,8.879351,,MEDIO CAMPIDANO,Sanluri,983,Nuraghe Candela,Nuraghe,39.584317
NUR5392,Nuraghe,Campidano di Cagliari,9.2993581,,CAGLIARI,Sinnai,984,Nuraghe Cuccuru Nuraxi Baiocca,Nuraghe,39.331407
NUR5393,Nuraghe,Capoterra,8.7550561,,CAGLIARI,Teulada,985,Nuraghe de Su Canneddu,Nuraghe,38.972864
NUR5394,Nuraghe,Capoterra,8.6501375,,CAGLIARI,Teulada,986,Nuraghe Don Antiogu,Nuraghe,38.907354
NUR5395,Nuraghe,Sarrabus,9.5742765,,CAGLIARI,Muravera,987,Nuraghe Bruncu Brailoi,Nuraghe,39.323463
NUR5396,Nuraghe,Sarrabus,9.5687431,,CAGLIARI,Muravera,988,Nuraghe Scalas,Nuraghe,39.272815
NUR5398,Nuraghe,Ogliastra,9.6700555,,OGLIASTRA,Bari Sardo,989,Nuraghe Lurcuri,Nuraghe,39.826086
NUR5399,Nuraghe,Sarcidano,9.054046,,CAGLIARI,Gergei,990,Nuraghe Su Iriu,Nuraghe,39.675641
NUR5400,Nuraghe,Alta Marmilla,8.7419682,,ORISTANO,Masullas,991,Nuraghe Mustazzori o Enna Pruna,Nuraghe,39.696406
NUR5401,Nuraghe,Campidano di Cagliari,9.3797922,,CAGLIARI,Burcei,992,Nuraghe Domu de S'Orcu,Nuraghe,39.355838
NUR5402,Nuraghe,Marmilla,9.0426197,,MEDIO CAMPIDANO,Gesturi,993,Nuraghe Nieddosa o Bruncu Nieddosa,Nuraghe,39.746188
NUR5403,Nuraghe,Sulcis,8.7206246,,CARBONIA IGLESIAS,Nuxis,994,Nuraghe Is Pittaus,Nuraghe,39.14504
NUR5404,Nuraghe,Campidano di Cagliari,9.2738798,,CAGLIARI,Sinnai,995,Nuraghe Baccu  Mereu o Su Meriagu,Nuraghe,39.331677
NUR5405,Nuraghe,Campidano,8.9976638,,MEDIO CAMPIDANO,Serrenti,996,Nuraghe Is Piedadis,Nuraghe,39.491193
NUR5406,Nuraghe,Alta Marmilla,8.7964479,,ORISTANO,Mogoro,997,Nuraghe Santa Barbara,Nuraghe,39.68107
NUR5408,Nuraghe,Alta Marmilla,8.8886985,,ORISTANO,Sini,998,Nuraghe Siorus,Nuraghe,39.755952
NUR5410,Nuraghe,Sarrabus,9.5553059,,CAGLIARI,Muravera,999,Nuraghe Mumosa,Nuraghe,39.335419
NUR5411,Nuraghe,Alta Marmilla,9.0182492,,ORISTANO,Laconi,1000,Nuraghe Verra,Nuraghe,39.879198
NUR5412,Nuraghe,Sulcis,8.6993265,,CARBONIA IGLESIAS,Villaperuccio,1001,Nuraghe Muentinu II,Nuraghe,39.124346
NUR5413,Nuraghe,Marmilla,8.9650154,,MEDIO CAMPIDANO,Las Plassas,1002,Nuraghe Perda Mulloni,Nuraghe,39.659126
NUR5414,Nuraghe,Trexenta,9.1217691,,CAGLIARI,Gesico,1003,Nuraghe Ruina Perdosa,Nuraghe,39.604495
NUR5416,Nuraghe,Ogliastra,9.6296293,,OGLIASTRA,Cardedu,1004,Nuraghe Brocca,Nuraghe,39.770289
NUR5418,Nuraghe,Ogliastra,9.4320577,,OGLIASTRA,Ulassai,1005,Nuraghe de Seroni,Nuraghe,39.722405
NUR5419,Nuraghe,Ogliastra,9.6419003,,OGLIASTRA,Tertenia,1006,Nuraghe Murcu,Nuraghe,39.698317
NUR5420,Nuraghe,Marmilla,8.9722104,,MEDIO CAMPIDANO,Villamar,1007,Nuraghe Santu Croxiu (Sant' Iroxi),Nuraghe,39.635433
NUR5421,Nuraghe,Sulcis,8.6592302,,CARBONIA IGLESIAS,Villaperuccio,1008,Nuraghe Manigas,Nuraghe,39.119169
NUR5422,Nuraghe,Sulcis,8.6325824,,CARBONIA IGLESIAS,Perdaxius,1009,Nuraghe Medau Toccu,Nuraghe,39.134464
NUR5423,Nuraghe,Sarrabus,9.4775895,,CAGLIARI,Castiadas,1010,Nuraghe Giommaria,Nuraghe,39.275433
NUR5424,Nuraghe,Sarrabus,9.494234,,CAGLIARI,Castiadas,1011,Nuraghe Cuili Paliu,Nuraghe,39.292031
NUR5425,Nuraghe,Alta Marmilla,8.9998801,,ORISTANO,Genoni,1012,Nuraghe Margini,Nuraghe,39.77479
NUR5426,Nuraghe,Capoterra,8.9493942,,CAGLIARI,Pula,1013,Nuraghe Perdu Becciu,Nuraghe,39.022837
NUR5427,Nuraghe,Sarcidano,9.1656674,,CAGLIARI,Isili,1014,Nuraghe Trucciu,Nuraghe,39.740049
NUR5429,Nuraghe,Ogliastra,9.4320631,,OGLIASTRA,Perdasdefogu,1015,Nuraghe Aurras,Nuraghe,39.672705
NUR5430,Nuraghe,Trexenta,9.0874689,,CAGLIARI,Mandas,1016,Nuraghe Mitza 'e Foddi II,Nuraghe,39.647485
NUR5431,Nuraghe,Trexenta,9.0889723,,CAGLIARI,Mandas,1017,Nuraghe Mitza 'e Foddi I,Nuraghe,39.645066
NUR5432,Nuraghe,Sulcis,8.6285886,,CARBONIA IGLESIAS,Perdaxius,1018,Nuraghe Su Porcili,Nuraghe,39.14983
NUR5433,Nuraghe,Sulcis,8.5624721,,CARBONIA IGLESIAS,Tratalias,1019,Nuraghe Pannanges,Nuraghe,39.109313
NUR5434,Nuraghe,Sarrabus,9.4966265,,CAGLIARI,Castiadas,1020,Nuraghe Casteddu,Nuraghe,39.24937
NUR5435,Nuraghe,Campidano di Cagliari,9.3264672,,CAGLIARI,Sinnai,1021,Nuraghe Is Berrittas,Nuraghe,39.336415
NUR5436,Nuraghe,Campidano di Cagliari,9.345358,,CAGLIARI,Sinnai,1022,Nuraghe Cuili Lepuri,Nuraghe,39.286032
NUR5438,Nuraghe,Marmilla,8.9631701,,MEDIO CAMPIDANO,Las Plassas,1023,Nuraghe S'Uraxi,Nuraghe,39.66639
NUR5439,Nuraghe,Alta Marmilla,8.736577,,ORISTANO,Masullas,1024,Nuraghe Su Para,Nuraghe,39.716869
NUR5440,Nuraghe,Sarcidano,9.2988632,,CAGLIARI,Orroli,1025,Nuraghe Su Pranu,Nuraghe,39.674215
NUR5441,Nuraghe,Sarcidano,9.2469263,,CAGLIARI,Orroli,1026,Nuraghe Affogau,Nuraghe,39.64543
NUR5442,Nuraghe,Sulcis,8.7027101,,CARBONIA IGLESIAS,Santadi,1027,Nuraghe Monticello,Nuraghe,39.039908
NUR5443,Nuraghe,Campidano di Cagliari,9.046002,,CAGLIARI,Nuraminis,1028,Nuraghe Nuraxi,Nuraghe,39.453316
NUR5445,Nuraghe,Sarrabus,9.5521469,,CAGLIARI,San Vito,1029,Nuraghe San Priamo I,Nuraghe,39.362333
NUR5447,Nuraghe,Marmilla,8.9424902,,MEDIO CAMPIDANO,Pauli Arbarei,1030,Nuraghe Corti Baccas,Nuraghe,39.65952
NUR5448,Nuraghe,Alta Marmilla,8.7794629,,ORISTANO,Mogoro,1031,Nuraghe Nieddu,Nuraghe,39.669594
NUR5449,Nuraghe,Sulcis,8.7274012,,CARBONIA IGLESIAS,Nuxis,1032,Nuraghe Guardia Cristo,Nuraghe,39.140498
