{"comuni":[{"regione":"Piemonte","nomeComune":"Agliè","Provincia":"TORINO","codiceProvincia":"TO","lat":"45.3681","lng":"7.7681","id":"1"},{"regione":"Piemonte","nomeComune":"Airasca","Provincia":"TORINO","codiceProvincia":"TO","lat":"44.9181","lng":"7.4855","id":"2"},{"regione":"Piemonte","nomeComune":"Ala di Stura","Provincia":"TORINO","codiceProvincia":"TO","lat":"45.3154","lng":"7.3026","id":"3"},{"regione":"Piemonte","nomeComune":"Albiano d'Ivrea","Provincia":"TORINO","codiceProvincia":"TO","lat":"45.4339","lng":"7.9517","id":"4"},{"regione":"Piemonte","nomeComune":"Alice Superiore","Provincia":"TORINO","codiceProvincia":"TO","lat":"45.4599","lng":"7.7774","id":"5"},{"regione":"Piemonte","nomeComune":"Almese","Provincia":"TORINO","codiceProvincia":"TO","lat":"45.1169","lng":"7.3954","id":"6"},{"regione":"Piemonte","nomeComune":"Alpette","Provincia":"TORINO","codiceProvincia":"TO","lat":"45.4106","lng":"7.5808","id":"7"},{"regione":"Piemonte","nomeComune":"Alpignano","Provincia":"TORINO","codiceProvincia":"TO","lat":"45.0943","lng":"7.5244","id":"8"},{"regione":"Piemonte","nomeComune":"Andezeno","Provincia":"TORINO","codiceProvincia":"TO","lat":"45.0373","lng":"7.8731","id":"9"},{"regione":"Piemonte","nomeComune":"Andrate","Provincia":"TORINO","codiceProvincia":"TO","lat":"45.5285","lng":"7.8814","id":"10"},{"regione":"Piemonte","nomeComune":"Angrogna","Provincia":"TORINO","codiceProvincia":"TO","lat":"44.8438","lng":"7.2246","id":"11"},{"regione":"Piemonte","nomeComune":"Arignano","Provincia":"TORINO","codiceProvincia":"TO","lat":"45.0438","lng":"7.9011","id":"12"},{"regione":"Piemonte","nomeComune":"Avigliana","Provincia":"TORINO","codiceProvincia":"TO","lat":"45.0793","lng":"7.3967","id":"13"},{"regione":"Piemonte","nomeComune":"Azeglio","Provincia":"TORINO","codiceProvincia":"TO","lat":"45.4246","lng":"7.995","id":"14"},{"regione":"Piemonte","nomeComune":"Bairo","Provincia":"TORINO","codiceProvincia":"TO","lat":"45.387","lng":"7.7564","id":"15"},{"regione":"Piemonte","nomeComune":"Balangero","Provincia":"TORINO","codiceProvincia":"TO","lat":"45.2714","lng":"7.5186","id":"16"},{"regione":"Piemonte","nomeComune":"Baldissero Canavese","Provincia":"TORINO","codiceProvincia":"TO","lat":"45.4112","lng":"7.7453","id":"17"},{"regione":"Piemonte","nomeComune":"Baldissero Torinese","Provincia":"TORINO","codiceProvincia":"TO","lat":"45.0685","lng":"7.817","id":"18"},{"regione":"Piemonte","nomeComune":"Balme","Provincia":"TORINO","codiceProvincia":"TO","lat":"45.3022","lng":"7.2181","id":"19"},{"regione":"Piemonte","nomeComune":"Banchette","Provincia":"TORINO","codiceProvincia":"TO","lat":"45.4545","lng":"7.8575","id":"20"},{"regione":"Piemonte","nomeComune":"Barbania","Provincia":"TORINO","codiceProvincia":"TO","lat":"45.2924","lng":"7.6314","id":"21"},{"regione":"Piemonte","nomeComune":"Bardonecchia","Provincia":"TORINO","codiceProvincia":"TO","lat":"45.0788","lng":"6.7043","id":"22"},{"regione":"Piemonte","nomeComune":"Barone Canavese","Provincia":"TORINO","codiceProvincia":"TO","lat":"45.3267","lng":"7.8745","id":"23"},{"regione":"Piemonte","nomeComune":"Beinasco","Provincia":"TORINO","codiceProvincia":"TO","lat":"45.0228","lng":"7.5878","id":"24"},{"regione":"Piemonte","nomeComune":"Bibiana","Provincia":"TORINO","codiceProvincia":"TO","lat":"44.8","lng":"7.2894","id":"25"},{"regione":"Piemonte","nomeComune":"Bobbio Pellice","Provincia":"TORINO","codiceProvincia":"TO","lat":"44.8078","lng":"7.1178","id":"26"},{"regione":"Piemonte","nomeComune":"Bollengo","Provincia":"TORINO","codiceProvincia":"TO","lat":"45.4703","lng":"7.9466","id":"27"},{"regione":"Piemonte","nomeComune":"Borgaro Torinese","Provincia":"TORINO","codiceProvincia":"TO","lat":"45.1517","lng":"7.6578","id":"28"},{"regione":"Piemonte","nomeComune":"Borgiallo","Provincia":"TORINO","codiceProvincia":"TO","lat":"45.4181","lng":"7.6697","id":"29"},{"regione":"Piemonte","nomeComune":"Borgofranco d'Ivrea","Provincia":"TORINO","codiceProvincia":"TO","lat":"45.5139","lng":"7.8592","id":"30"},{"regione":"Piemonte","nomeComune":"Borgomasino","Provincia":"TORINO","codiceProvincia":"TO","lat":"45.3642","lng":"7.9888","id":"31"},{"regione":"Piemonte","nomeComune":"Borgone Susa","Provincia":"TORINO","codiceProvincia":"TO","lat":"45.1212","lng":"7.2398","id":"32"},{"regione":"Piemonte","nomeComune":"Bosconero","Provincia":"TORINO","codiceProvincia":"TO","lat":"45.268","lng":"7.7641","id":"33"},{"regione":"Piemonte","nomeComune":"Brandizzo","Provincia":"TORINO","codiceProvincia":"TO","lat":"45.1783","lng":"7.8389","id":"34"},{"regione":"Piemonte","nomeComune":"Bricherasio","Provincia":"TORINO","codiceProvincia":"TO","lat":"44.8245","lng":"7.3066","id":"35"},{"regione":"Piemonte","nomeComune":"Brosso","Provincia":"TORINO","codiceProvincia":"TO","lat":"45.494","lng":"7.8039","id":"36"},{"regione":"Piemonte","nomeComune":"Brozolo","Provincia":"TORINO","codiceProvincia":"TO","lat":"45.1177","lng":"8.0725","id":"37"},{"regione":"Piemonte","nomeComune":"Bruino","Provincia":"TORINO","codiceProvincia":"TO","lat":"45.0212","lng":"7.4646","id":"38"},{"regione":"Piemonte","nomeComune":"Brusasco","Provincia":"TORINO","codiceProvincia":"TO","lat":"45.1558","lng":"8.0595","id":"39"},{"regione":"Piemonte","nomeComune":"Bruzolo","Provincia":"TORINO","codiceProvincia":"TO","lat":"45.1434","lng":"7.1938","id":"40"},{"regione":"Piemonte","nomeComune":"Buriasco","Provincia":"TORINO","codiceProvincia":"TO","lat":"44.8747","lng":"7.4114","id":"41"},{"regione":"Piemonte","nomeComune":"Burolo","Provincia":"TORINO","codiceProvincia":"TO","lat":"45.4822","lng":"7.935","id":"42"},{"regione":"Piemonte","nomeComune":"Busano","Provincia":"TORINO","codiceProvincia":"TO","lat":"45.3331","lng":"7.6571","id":"43"},{"regione":"Piemonte","nomeComune":"Bussoleno","Provincia":"TORINO","codiceProvincia":"TO","lat":"45.1414","lng":"7.1475","id":"44"},{"regione":"Piemonte","nomeComune":"Buttigliera Alta","Provincia":"TORINO","codiceProvincia":"TO","lat":"45.071","lng":"7.4295","id":"45"},{"regione":"Piemonte","nomeComune":"Cafasse","Provincia":"TORINO","codiceProvincia":"TO","lat":"45.2461","lng":"7.5184","id":"46"},{"regione":"Piemonte","nomeComune":"Caluso","Provincia":"TORINO","codiceProvincia":"TO","lat":"45.3059","lng":"7.8969","id":"47"},{"regione":"Piemonte","nomeComune":"Cambiano","Provincia":"TORINO","codiceProvincia":"TO","lat":"44.9694","lng":"7.7731","id":"48"},{"regione":"Piemonte","nomeComune":"Campiglione Fenile","Provincia":"TORINO","codiceProvincia":"TO","lat":"null","lng":"null","id":"49"},{"regione":"Piemonte","nomeComune":"Candia Canavese","Provincia":"TORINO","codiceProvincia":"TO","lat":"45.3288","lng":"7.8863","id":"50"},{"regione":"Piemonte","nomeComune":"Candiolo","Provincia":"TORINO","codiceProvincia":"TO","lat":"44.9603","lng":"7.6028","id":"51"},{"regione":"Piemonte","nomeComune":"Canischio","Provincia":"TORINO","codiceProvincia":"TO","lat":"45.3745","lng":"7.5958","id":"52"},{"regione":"Piemonte","nomeComune":"Cantalupa","Provincia":"TORINO","codiceProvincia":"TO","lat":"44.947","lng":"7.3314","id":"53"},{"regione":"Piemonte","nomeComune":"Cantoira","Provincia":"TORINO","codiceProvincia":"TO","lat":"45.3395","lng":"7.387","id":"54"},{"regione":"Piemonte","nomeComune":"Caprie","Provincia":"TORINO","codiceProvincia":"TO","lat":"45.1198","lng":"7.3331","id":"55"},{"regione":"Piemonte","nomeComune":"Caravino","Provincia":"TORINO","codiceProvincia":"TO","lat":"45.3992","lng":"7.9614","id":"56"},{"regione":"Piemonte","nomeComune":"Carema","Provincia":"TORINO","codiceProvincia":"TO","lat":"45.5845","lng":"7.8119","id":"57"},{"regione":"Piemonte","nomeComune":"Carignano","Provincia":"TORINO","codiceProvincia":"TO","lat":"44.908","lng":"7.6744","id":"58"},{"regione":"Piemonte","nomeComune":"Carmagnola","Provincia":"TORINO","codiceProvincia":"TO","lat":"44.8455","lng":"7.7192","id":"59"},{"regione":"Piemonte","nomeComune":"Casalborgone","Provincia":"TORINO","codiceProvincia":"TO","lat":"45.1312","lng":"7.9414","id":"60"},{"regione":"Piemonte","nomeComune":"Cascinette d'Ivrea","Provincia":"TORINO","codiceProvincia":"TO","lat":"45.4813","lng":"7.9067","id":"61"},{"regione":"Piemonte","nomeComune":"Caselette","Provincia":"TORINO","codiceProvincia":"TO","lat":"45.1058","lng":"7.4821","id":"62"},{"regione":"Piemonte","nomeComune":"Caselle Torinese","Provincia":"TORINO","codiceProvincia":"TO","lat":"45.1774","lng":"7.6475","id":"63"},{"regione":"Piemonte","nomeComune":"Castagneto Po","Provincia":"TORINO","codiceProvincia":"TO","lat":"45.1603","lng":"7.8906","id":"64"},{"regione":"Piemonte","nomeComune":"Castagnole Piemonte","Provincia":"TORINO","codiceProvincia":"TO","lat":"44.8992","lng":"7.5674","id":"65"},{"regione":"Piemonte","nomeComune":"Castellamonte","Provincia":"TORINO","codiceProvincia":"TO","lat":"45.383","lng":"7.7133","id":"66"},{"regione":"Piemonte","nomeComune":"Castelnuovo Nigra","Provincia":"TORINO","codiceProvincia":"TO","lat":"45.4392","lng":"7.6958","id":"67"},{"regione":"Piemonte","nomeComune":"Castiglione Torinese","Provincia":"TORINO","codiceProvincia":"TO","lat":"45.1202","lng":"7.8155","id":"68"},{"regione":"Piemonte","nomeComune":"Cavagnolo","Provincia":"TORINO","codiceProvincia":"TO","lat":"45.1529","lng":"8.0501","id":"69"},{"regione":"Piemonte","nomeComune":"Cavour","Provincia":"TORINO","codiceProvincia":"TO","lat":"44.7857","lng":"7.375","id":"70"},{"regione":"Piemonte","nomeComune":"Cercenasco","Provincia":"TORINO","codiceProvincia":"TO","lat":"44.8606","lng":"7.5049","id":"71"},{"regione":"Piemonte","nomeComune":"Ceres","Provincia":"TORINO","codiceProvincia":"TO","lat":"45.313","lng":"7.3889","id":"72"},{"regione":"Piemonte","nomeComune":"Ceresole Reale","Provincia":"TORINO","codiceProvincia":"TO","lat":"45.4325","lng":"7.2361","id":"73"},{"regione":"Piemonte","nomeComune":"Cesana Torinese","Provincia":"TORINO","codiceProvincia":"TO","lat":"44.9529","lng":"6.7937","id":"74"},{"regione":"Piemonte","nomeComune":"Chialamberto","Provincia":"TORINO","codiceProvincia":"TO","lat":"45.3641","lng":"7.3406","id":"75"},{"regione":"Piemonte","nomeComune":"Chianocco","Provincia":"TORINO","codiceProvincia":"TO","lat":"45.1483","lng":"7.1687","id":"76"},{"regione":"Piemonte","nomeComune":"Chiaverano","Provincia":"TORINO","codiceProvincia":"TO","lat":"45.4986","lng":"7.9048","id":"77"},{"regione":"Piemonte","nomeComune":"Chieri","Provincia":"TORINO","codiceProvincia":"TO","lat":"45.0116","lng":"7.8229","id":"78"},{"regione":"Piemonte","nomeComune":"Chiesanuova","Provincia":"TORINO","codiceProvincia":"TO","lat":"38.018","lng":"12.6594","id":"79"},{"regione":"Piemonte","nomeComune":"Chiomonte","Provincia":"TORINO","codiceProvincia":"TO","lat":"45.1192","lng":"6.9815","id":"80"},{"regione":"Piemonte","nomeComune":"Chiusa di San Michele","Provincia":"TORINO","codiceProvincia":"TO","lat":"45.1053","lng":"7.3283","id":"81"},{"regione":"Piemonte","nomeComune":"Chivasso","Provincia":"TORINO","codiceProvincia":"TO","lat":"45.1899","lng":"7.8843","id":"82"},{"regione":"Piemonte","nomeComune":"Ciconio","Provincia":"TORINO","codiceProvincia":"TO","lat":"45.3312","lng":"7.7597","id":"83"},{"regione":"Piemonte","nomeComune":"Cintano","Provincia":"TORINO","codiceProvincia":"TO","lat":"45.4285","lng":"7.6903","id":"84"},{"regione":"Piemonte","nomeComune":"Cinzano","Provincia":"TORINO","codiceProvincia":"TO","lat":"45.0953","lng":"7.9267","id":"85"},{"regione":"Piemonte","nomeComune":"Ciriè","Provincia":"TORINO","codiceProvincia":"TO","lat":"45.2336","lng":"7.6046","id":"86"},{"regione":"Piemonte","nomeComune":"Claviere","Provincia":"TORINO","codiceProvincia":"TO","lat":"44.9388","lng":"6.7503","id":"87"},{"regione":"Piemonte","nomeComune":"Coassolo Torinese","Provincia":"TORINO","codiceProvincia":"TO","lat":"45.2988","lng":"7.4616","id":"88"},{"regione":"Piemonte","nomeComune":"Coazze","Provincia":"TORINO","codiceProvincia":"TO","lat":"45.0556","lng":"7.3081","id":"89"},{"regione":"Piemonte","nomeComune":"Collegno","Provincia":"TORINO","codiceProvincia":"TO","lat":"45.0777","lng":"7.5704","id":"90"},{"regione":"Piemonte","nomeComune":"Colleretto Castelnuovo","Provincia":"TORINO","codiceProvincia":"TO","lat":"45.4235","lng":"7.6809","id":"91"},{"regione":"Piemonte","nomeComune":"Colleretto Giacosa","Provincia":"TORINO","codiceProvincia":"TO","lat":"45.4339","lng":"7.7997","id":"92"},{"regione":"Piemonte","nomeComune":"Condove","Provincia":"TORINO","codiceProvincia":"TO","lat":"45.1185","lng":"7.3088","id":"93"},{"regione":"Piemonte","nomeComune":"Corio","Provincia":"TORINO","codiceProvincia":"TO","lat":"45.3149","lng":"7.5335","id":"94"},{"regione":"Piemonte","nomeComune":"Cossano Canavese","Provincia":"TORINO","codiceProvincia":"TO","lat":"45.3888","lng":"7.9927","id":"95"},{"regione":"Piemonte","nomeComune":"Cuceglio","Provincia":"TORINO","codiceProvincia":"TO","lat":"45.3604","lng":"7.8163","id":"96"},{"regione":"Piemonte","nomeComune":"Cumiana","Provincia":"TORINO","codiceProvincia":"TO","lat":"44.9808","lng":"7.3778","id":"97"},{"regione":"Piemonte","nomeComune":"Cuorgnè","Provincia":"TORINO","codiceProvincia":"TO","lat":"45.3907","lng":"7.6496","id":"98"},{"regione":"Piemonte","nomeComune":"Druento","Provincia":"TORINO","codiceProvincia":"TO","lat":"45.1343","lng":"7.5765","id":"99"},{"regione":"Piemonte","nomeComune":"Exilles","Provincia":"TORINO","codiceProvincia":"TO","lat":"45.0986","lng":"6.9303","id":"100"},{"regione":"Piemonte","nomeComune":"Favria","Provincia":"TORINO","codiceProvincia":"TO","lat":"45.3322","lng":"7.6917","id":"101"},{"regione":"Piemonte","nomeComune":"Feletto","Provincia":"TORINO","codiceProvincia":"TO","lat":"45.3048","lng":"7.746","id":"102"},{"regione":"Piemonte","nomeComune":"Fenestrelle","Provincia":"TORINO","codiceProvincia":"TO","lat":"45.0345","lng":"7.0522","id":"103"},{"regione":"Piemonte","nomeComune":"Fiano","Provincia":"TORINO","codiceProvincia":"TO","lat":"45.2178","lng":"7.5239","id":"104"},{"regione":"Piemonte","nomeComune":"Fiorano Canavese","Provincia":"TORINO","codiceProvincia":"TO","lat":"45.4688","lng":"7.8349","id":"105"},{"regione":"Piemonte","nomeComune":"Foglizzo","Provincia":"TORINO","codiceProvincia":"TO","lat":"45.273","lng":"7.8209","id":"106"},{"regione":"Piemonte","nomeComune":"Forno Canavese","Provincia":"TORINO","codiceProvincia":"TO","lat":"45.3464","lng":"7.5922","id":"107"},{"regione":"Piemonte","nomeComune":"Frassinetto","Provincia":"TORINO","codiceProvincia":"TO","lat":"45.4378","lng":"7.6078","id":"108"},{"regione":"Piemonte","nomeComune":"Front","Provincia":"TORINO","codiceProvincia":"TO","lat":"45.2819","lng":"7.6641","id":"109"},{"regione":"Piemonte","nomeComune":"Frossasco","Provincia":"TORINO","codiceProvincia":"TO","lat":"44.9341","lng":"7.3513","id":"110"},{"regione":"Piemonte","nomeComune":"Garzigliana","Provincia":"TORINO","codiceProvincia":"TO","lat":"44.8371","lng":"7.3741","id":"111"},{"regione":"Piemonte","nomeComune":"Gassino Torinese","Provincia":"TORINO","codiceProvincia":"TO","lat":"45.1298","lng":"7.8243","id":"112"},{"regione":"Piemonte","nomeComune":"Germagnano","Provincia":"TORINO","codiceProvincia":"TO","lat":"45.2648","lng":"7.4706","id":"113"},{"regione":"Piemonte","nomeComune":"Giaglione","Provincia":"TORINO","codiceProvincia":"TO","lat":"45.1362","lng":"7.0087","id":"114"},{"regione":"Piemonte","nomeComune":"Giaveno","Provincia":"TORINO","codiceProvincia":"TO","lat":"45.0418","lng":"7.3525","id":"115"},{"regione":"Piemonte","nomeComune":"Givoletto","Provincia":"TORINO","codiceProvincia":"TO","lat":"45.1608","lng":"7.495","id":"116"},{"regione":"Piemonte","nomeComune":"Gravere","Provincia":"TORINO","codiceProvincia":"TO","lat":"45.1267","lng":"7.019","id":"117"},{"regione":"Piemonte","nomeComune":"Groscavallo","Provincia":"TORINO","codiceProvincia":"TO","lat":"45.3684","lng":"7.2591","id":"118"},{"regione":"Piemonte","nomeComune":"Grosso","Provincia":"TORINO","codiceProvincia":"TO","lat":"45.2575","lng":"7.5584","id":"119"},{"regione":"Piemonte","nomeComune":"Grugliasco","Provincia":"TORINO","codiceProvincia":"TO","lat":"45.0623","lng":"7.5783","id":"120"},{"regione":"Piemonte","nomeComune":"Ingria","Provincia":"TORINO","codiceProvincia":"TO","lat":"45.4663","lng":"7.5712","id":"121"},{"regione":"Piemonte","nomeComune":"Inverso Pinasca","Provincia":"TORINO","codiceProvincia":"TO","lat":"44.945","lng":"7.2181","id":"122"},{"regione":"Piemonte","nomeComune":"Isolabella","Provincia":"TORINO","codiceProvincia":"TO","lat":"44.9075","lng":"7.9102","id":"123"},{"regione":"Piemonte","nomeComune":"Issiglio","Provincia":"TORINO","codiceProvincia":"TO","lat":"45.4463","lng":"7.7553","id":"124"},{"regione":"Piemonte","nomeComune":"Ivrea","Provincia":"TORINO","codiceProvincia":"TO","lat":"45.4666","lng":"7.8759","id":"125"},{"regione":"Piemonte","nomeComune":"La Cassa","Provincia":"TORINO","codiceProvincia":"TO","lat":"45.1814","lng":"7.5175","id":"126"},{"regione":"Piemonte","nomeComune":"La Loggia","Provincia":"TORINO","codiceProvincia":"TO","lat":"44.9588","lng":"7.6684","id":"127"},{"regione":"Piemonte","nomeComune":"Lanzo Torinese","Provincia":"TORINO","codiceProvincia":"TO","lat":"45.2741","lng":"7.4812","id":"128"},{"regione":"Piemonte","nomeComune":"Lauriano","Provincia":"TORINO","codiceProvincia":"TO","lat":"45.1592","lng":"7.9928","id":"129"},{"regione":"Piemonte","nomeComune":"Leini","Provincia":"TORINO","codiceProvincia":"TO","lat":"45.1838","lng":"7.7153","id":"130"},{"regione":"Piemonte","nomeComune":"Lemie","Provincia":"TORINO","codiceProvincia":"TO","lat":"45.2289","lng":"7.2942","id":"131"},{"regione":"Piemonte","nomeComune":"Lessolo","Provincia":"TORINO","codiceProvincia":"TO","lat":"45.476","lng":"7.8137","id":"132"},{"regione":"Piemonte","nomeComune":"Levone","Provincia":"TORINO","codiceProvincia":"TO","lat":"45.3177","lng":"7.6075","id":"133"},{"regione":"Piemonte","nomeComune":"Locana","Provincia":"TORINO","codiceProvincia":"TO","lat":"45.4163","lng":"7.46","id":"134"},{"regione":"Piemonte","nomeComune":"Lombardore","Provincia":"TORINO","codiceProvincia":"TO","lat":"45.2364","lng":"7.7414","id":"135"},{"regione":"Piemonte","nomeComune":"Lombriasco","Provincia":"TORINO","codiceProvincia":"TO","lat":"44.8422","lng":"7.6367","id":"136"},{"regione":"Piemonte","nomeComune":"Loranzè","Provincia":"TORINO","codiceProvincia":"TO","lat":"45.4427","lng":"7.8139","id":"137"},{"regione":"Piemonte","nomeComune":"Lugnacco","Provincia":"TORINO","codiceProvincia":"TO","lat":"45.4445","lng":"7.7818","id":"138"},{"regione":"Piemonte","nomeComune":"Luserna San Giovanni","Provincia":"TORINO","codiceProvincia":"TO","lat":"44.8085","lng":"7.2454","id":"139"},{"regione":"Piemonte","nomeComune":"Lusernetta","Provincia":"TORINO","codiceProvincia":"TO","lat":"44.8025","lng":"7.2487","id":"140"},{"regione":"Piemonte","nomeComune":"Lusigliè","Provincia":"TORINO","codiceProvincia":"TO","lat":"45.3196","lng":"7.7658","id":"141"},{"regione":"Piemonte","nomeComune":"Macello","Provincia":"TORINO","codiceProvincia":"TO","lat":"44.8522","lng":"7.3992","id":"142"},{"regione":"Piemonte","nomeComune":"Maglione","Provincia":"TORINO","codiceProvincia":"TO","lat":"45.3477","lng":"8.0146","id":"143"},{"regione":"Piemonte","nomeComune":"Marentino","Provincia":"TORINO","codiceProvincia":"TO","lat":"45.0563","lng":"7.8781","id":"144"},{"regione":"Piemonte","nomeComune":"Massello","Provincia":"TORINO","codiceProvincia":"TO","lat":"44.9586","lng":"7.0566","id":"145"},{"regione":"Piemonte","nomeComune":"Mathi","Provincia":"TORINO","codiceProvincia":"TO","lat":"45.2563","lng":"7.5431","id":"146"},{"regione":"Piemonte","nomeComune":"Mattie","Provincia":"TORINO","codiceProvincia":"TO","lat":"45.1192","lng":"7.1163","id":"147"},{"regione":"Piemonte","nomeComune":"Mazzè","Provincia":"TORINO","codiceProvincia":"TO","lat":"45.3012","lng":"7.9339","id":"148"},{"regione":"Piemonte","nomeComune":"Meana di Susa","Provincia":"TORINO","codiceProvincia":"TO","lat":"45.1231","lng":"7.0629","id":"149"},{"regione":"Piemonte","nomeComune":"Mercenasco","Provincia":"TORINO","codiceProvincia":"TO","lat":"45.3575","lng":"7.8813","id":"150"},{"regione":"Piemonte","nomeComune":"Meugliano","Provincia":"TORINO","codiceProvincia":"TO","lat":"45.4904","lng":"7.7795","id":"151"},{"regione":"Piemonte","nomeComune":"Mezzenile","Provincia":"TORINO","codiceProvincia":"TO","lat":"45.296","lng":"7.3967","id":"152"},{"regione":"Piemonte","nomeComune":"Mombello di Torino","Provincia":"TORINO","codiceProvincia":"TO","lat":"45.0464","lng":"7.9212","id":"153"},{"regione":"Piemonte","nomeComune":"Mompantero","Provincia":"TORINO","codiceProvincia":"TO","lat":"45.1486","lng":"7.0419","id":"154"},{"regione":"Piemonte","nomeComune":"Monastero di Lanzo","Provincia":"TORINO","codiceProvincia":"TO","lat":"45.3016","lng":"7.4404","id":"155"},{"regione":"Piemonte","nomeComune":"Moncalieri","Provincia":"TORINO","codiceProvincia":"TO","lat":"44.9994","lng":"7.6801","id":"156"},{"regione":"Piemonte","nomeComune":"Moncenisio","Provincia":"TORINO","codiceProvincia":"TO","lat":"45.2033","lng":"6.9843","id":"157"},{"regione":"Piemonte","nomeComune":"Montaldo Torinese","Provincia":"TORINO","codiceProvincia":"TO","lat":"45.0664","lng":"7.8514","id":"158"},{"regione":"Piemonte","nomeComune":"Montalenghe","Provincia":"TORINO","codiceProvincia":"TO","lat":"45.3384","lng":"7.84","id":"159"},{"regione":"Piemonte","nomeComune":"Montalto Dora","Provincia":"TORINO","codiceProvincia":"TO","lat":"45.4917","lng":"7.8639","id":"160"},{"regione":"Piemonte","nomeComune":"Montanaro","Provincia":"TORINO","codiceProvincia":"TO","lat":"45.2345","lng":"7.8546","id":"161"},{"regione":"Piemonte","nomeComune":"Monteu da Po","Provincia":"TORINO","codiceProvincia":"TO","lat":"45.1516","lng":"8.0181","id":"162"},{"regione":"Piemonte","nomeComune":"Moriondo Torinese","Provincia":"TORINO","codiceProvincia":"TO","lat":"45.0388","lng":"7.9413","id":"163"},{"regione":"Piemonte","nomeComune":"Nichelino","Provincia":"TORINO","codiceProvincia":"TO","lat":"44.9951","lng":"7.6471","id":"164"},{"regione":"Piemonte","nomeComune":"Noasca","Provincia":"TORINO","codiceProvincia":"TO","lat":"45.4547","lng":"7.3134","id":"165"},{"regione":"Piemonte","nomeComune":"Nole","Provincia":"TORINO","codiceProvincia":"TO","lat":"45.2424","lng":"7.5742","id":"166"},{"regione":"Piemonte","nomeComune":"Nomaglio","Provincia":"TORINO","codiceProvincia":"TO","lat":"45.536","lng":"7.8603","id":"167"},{"regione":"Piemonte","nomeComune":"None","Provincia":"TORINO","codiceProvincia":"TO","lat":"44.9342","lng":"7.5413","id":"168"},{"regione":"Piemonte","nomeComune":"Novalesa","Provincia":"TORINO","codiceProvincia":"TO","lat":"45.1912","lng":"7.0148","id":"169"},{"regione":"Piemonte","nomeComune":"Oglianico","Provincia":"TORINO","codiceProvincia":"TO","lat":"45.3434","lng":"7.6958","id":"170"},{"regione":"Piemonte","nomeComune":"Orbassano","Provincia":"TORINO","codiceProvincia":"TO","lat":"45.0074","lng":"7.5374","id":"171"},{"regione":"Piemonte","nomeComune":"Orio Canavese","Provincia":"TORINO","codiceProvincia":"TO","lat":"45.3303","lng":"7.8628","id":"172"},{"regione":"Piemonte","nomeComune":"Osasco","Provincia":"TORINO","codiceProvincia":"TO","lat":"44.8484","lng":"7.3438","id":"173"},{"regione":"Piemonte","nomeComune":"Osasio","Provincia":"TORINO","codiceProvincia":"TO","lat":"44.8725","lng":"7.6092","id":"174"},{"regione":"Piemonte","nomeComune":"Oulx","Provincia":"TORINO","codiceProvincia":"TO","lat":"45.0333","lng":"6.8336","id":"175"},{"regione":"Piemonte","nomeComune":"Ozegna","Provincia":"TORINO","codiceProvincia":"TO","lat":"45.35","lng":"7.7464","id":"176"},{"regione":"Piemonte","nomeComune":"Palazzo Canavese","Provincia":"TORINO","codiceProvincia":"TO","lat":"45.4586","lng":"7.9797","id":"177"},{"regione":"Piemonte","nomeComune":"Pancalieri","Provincia":"TORINO","codiceProvincia":"TO","lat":"44.8346","lng":"7.587","id":"178"},{"regione":"Piemonte","nomeComune":"Parella","Provincia":"TORINO","codiceProvincia":"TO","lat":"45.4303","lng":"7.7942","id":"179"},{"regione":"Piemonte","nomeComune":"Pavarolo","Provincia":"TORINO","codiceProvincia":"TO","lat":"45.0695","lng":"7.8362","id":"180"},{"regione":"Piemonte","nomeComune":"Pavone Canavese","Provincia":"TORINO","codiceProvincia":"TO","lat":"45.4354","lng":"7.8529","id":"181"},{"regione":"Piemonte","nomeComune":"Pecco","Provincia":"TORINO","codiceProvincia":"TO","lat":"45.4518","lng":"7.7772","id":"182"},{"regione":"Piemonte","nomeComune":"Pecetto Torinese","Provincia":"TORINO","codiceProvincia":"TO","lat":"45.0172","lng":"7.7504","id":"183"},{"regione":"Piemonte","nomeComune":"Perosa Argentina","Provincia":"TORINO","codiceProvincia":"TO","lat":"44.9569","lng":"7.1919","id":"184"},{"regione":"Piemonte","nomeComune":"Perosa Canavese","Provincia":"TORINO","codiceProvincia":"TO","lat":"45.3981","lng":"7.8321","id":"185"},{"regione":"Piemonte","nomeComune":"Perrero","Provincia":"TORINO","codiceProvincia":"TO","lat":"44.9383","lng":"7.1148","id":"186"},{"regione":"Piemonte","nomeComune":"Pertusio","Provincia":"TORINO","codiceProvincia":"TO","lat":"45.3567","lng":"7.6427","id":"187"},{"regione":"Piemonte","nomeComune":"Pessinetto","Provincia":"TORINO","codiceProvincia":"TO","lat":"45.2892","lng":"7.4039","id":"188"},{"regione":"Piemonte","nomeComune":"Pianezza","Provincia":"TORINO","codiceProvincia":"TO","lat":"45.0986","lng":"7.5484","id":"189"},{"regione":"Piemonte","nomeComune":"Pinasca","Provincia":"TORINO","codiceProvincia":"TO","lat":"44.9424","lng":"7.2275","id":"190"},{"regione":"Piemonte","nomeComune":"Pinerolo","Provincia":"TORINO","codiceProvincia":"TO","lat":"44.8846","lng":"7.3309","id":"191"},{"regione":"Piemonte","nomeComune":"Pino Torinese","Provincia":"TORINO","codiceProvincia":"TO","lat":"45.0406","lng":"7.7783","id":"192"},{"regione":"Piemonte","nomeComune":"Piobesi Torinese","Provincia":"TORINO","codiceProvincia":"TO","lat":"44.9339","lng":"7.6113","id":"193"},{"regione":"Piemonte","nomeComune":"Piossasco","Provincia":"TORINO","codiceProvincia":"TO","lat":"44.9911","lng":"7.4635","id":"194"},{"regione":"Piemonte","nomeComune":"Piscina","Provincia":"TORINO","codiceProvincia":"TO","lat":"44.913","lng":"7.3647","id":"195"},{"regione":"Piemonte","nomeComune":"Piverone","Provincia":"TORINO","codiceProvincia":"TO","lat":"45.4474","lng":"8.0069","id":"196"},{"regione":"Piemonte","nomeComune":"Poirino","Provincia":"TORINO","codiceProvincia":"TO","lat":"44.9219","lng":"7.8481","id":"197"},{"regione":"Piemonte","nomeComune":"Pomaretto","Provincia":"TORINO","codiceProvincia":"TO","lat":"44.956","lng":"7.1829","id":"198"},{"regione":"Piemonte","nomeComune":"Pont-Canavese","Provincia":"TORINO","codiceProvincia":"TO","lat":"45.4239","lng":"7.5974","id":"199"},{"regione":"Piemonte","nomeComune":"Porte","Provincia":"TORINO","codiceProvincia":"TO","lat":"44.8879","lng":"7.2703","id":"200"},{"regione":"Piemonte","nomeComune":"Pragelato","Provincia":"TORINO","codiceProvincia":"TO","lat":"45.0155","lng":"6.942","id":"201"},{"regione":"Piemonte","nomeComune":"Prali","Provincia":"TORINO","codiceProvincia":"TO","lat":"44.8891","lng":"7.0489","id":"202"},{"regione":"Piemonte","nomeComune":"Pralormo","Provincia":"TORINO","codiceProvincia":"TO","lat":"44.8608","lng":"7.9025","id":"203"},{"regione":"Piemonte","nomeComune":"Pramollo","Provincia":"TORINO","codiceProvincia":"TO","lat":"44.904","lng":"7.2146","id":"204"},{"regione":"Piemonte","nomeComune":"Prarostino","Provincia":"TORINO","codiceProvincia":"TO","lat":"44.8666","lng":"7.2684","id":"205"},{"regione":"Piemonte","nomeComune":"Prascorsano","Provincia":"TORINO","codiceProvincia":"TO","lat":"45.3688","lng":"7.6181","id":"206"},{"regione":"Piemonte","nomeComune":"Pratiglione","Provincia":"TORINO","codiceProvincia":"TO","lat":"45.3536","lng":"7.5962","id":"207"},{"regione":"Piemonte","nomeComune":"Quagliuzzo","Provincia":"TORINO","codiceProvincia":"TO","lat":"45.4278","lng":"7.7834","id":"208"},{"regione":"Piemonte","nomeComune":"Quassolo","Provincia":"TORINO","codiceProvincia":"TO","lat":"45.5239","lng":"7.8334","id":"209"},{"regione":"Piemonte","nomeComune":"Quincinetto","Provincia":"TORINO","codiceProvincia":"TO","lat":"45.5622","lng":"7.8075","id":"210"},{"regione":"Piemonte","nomeComune":"Reano","Provincia":"TORINO","codiceProvincia":"TO","lat":"45.0522","lng":"7.4302","id":"211"},{"regione":"Piemonte","nomeComune":"Ribordone","Provincia":"TORINO","codiceProvincia":"TO","lat":"45.4332","lng":"7.5026","id":"212"},{"regione":"Piemonte","nomeComune":"Rivalba","Provincia":"TORINO","codiceProvincia":"TO","lat":"45.1194","lng":"7.8892","id":"213"},{"regione":"Piemonte","nomeComune":"Rivalta di Torino","Provincia":"TORINO","codiceProvincia":"TO","lat":"45.033","lng":"7.5232","id":"214"},{"regione":"Piemonte","nomeComune":"Riva presso Chieri","Provincia":"TORINO","codiceProvincia":"TO","lat":"44.9859","lng":"7.8734","id":"215"},{"regione":"Piemonte","nomeComune":"Rivara","Provincia":"TORINO","codiceProvincia":"TO","lat":"45.3334","lng":"7.6258","id":"216"},{"regione":"Piemonte","nomeComune":"Rivarolo Canavese","Provincia":"TORINO","codiceProvincia":"TO","lat":"45.332","lng":"7.7232","id":"217"},{"regione":"Piemonte","nomeComune":"Rivarossa","Provincia":"TORINO","codiceProvincia":"TO","lat":"45.2527","lng":"7.7159","id":"218"},{"regione":"Piemonte","nomeComune":"Rivoli","Provincia":"TORINO","codiceProvincia":"TO","lat":"45.0705","lng":"7.5192","id":"219"},{"regione":"Piemonte","nomeComune":"Robassomero","Provincia":"TORINO","codiceProvincia":"TO","lat":"45.2007","lng":"7.5686","id":"220"},{"regione":"Piemonte","nomeComune":"Rocca Canavese","Provincia":"TORINO","codiceProvincia":"TO","lat":"45.3108","lng":"7.5774","id":"221"},{"regione":"Piemonte","nomeComune":"Roletto","Provincia":"TORINO","codiceProvincia":"TO","lat":"44.9251","lng":"7.3309","id":"222"},{"regione":"Piemonte","nomeComune":"Romano Canavese","Provincia":"TORINO","codiceProvincia":"TO","lat":"45.3902","lng":"7.8655","id":"223"},{"regione":"Piemonte","nomeComune":"Ronco Canavese","Provincia":"TORINO","codiceProvincia":"TO","lat":"45.4997","lng":"7.5473","id":"224"},{"regione":"Piemonte","nomeComune":"Rondissone","Provincia":"TORINO","codiceProvincia":"TO","lat":"45.2478","lng":"7.9642","id":"225"},{"regione":"Piemonte","nomeComune":"Rorà","Provincia":"TORINO","codiceProvincia":"TO","lat":"44.7931","lng":"7.2002","id":"226"},{"regione":"Piemonte","nomeComune":"Roure","Provincia":"TORINO","codiceProvincia":"TO","lat":"45.0022","lng":"7.1284","id":"227"},{"regione":"Piemonte","nomeComune":"Rosta","Provincia":"TORINO","codiceProvincia":"TO","lat":"45.0689","lng":"7.4663","id":"228"},{"regione":"Piemonte","nomeComune":"Rubiana","Provincia":"TORINO","codiceProvincia":"TO","lat":"45.1388","lng":"7.3827","id":"229"},{"regione":"Piemonte","nomeComune":"Rueglio","Provincia":"TORINO","codiceProvincia":"TO","lat":"45.468","lng":"7.7561","id":"230"},{"regione":"Piemonte","nomeComune":"Salassa","Provincia":"TORINO","codiceProvincia":"TO","lat":"45.3567","lng":"7.6903","id":"231"},{"regione":"Piemonte","nomeComune":"Salbertrand","Provincia":"TORINO","codiceProvincia":"TO","lat":"45.0732","lng":"6.8842","id":"232"},{"regione":"Piemonte","nomeComune":"Salerano Canavese","Provincia":"TORINO","codiceProvincia":"TO","lat":"45.4588","lng":"7.8512","id":"233"},{"regione":"Piemonte","nomeComune":"Salza di Pinerolo","Provincia":"TORINO","codiceProvincia":"TO","lat":"44.941","lng":"7.0536","id":"234"},{"regione":"Piemonte","nomeComune":"Samone","Provincia":"TORINO","codiceProvincia":"TO","lat":"46.0813","lng":"11.5212","id":"235"},{"regione":"Piemonte","nomeComune":"San Benigno Canavese","Provincia":"TORINO","codiceProvincia":"TO","lat":"45.2281","lng":"7.7863","id":"236"},{"regione":"Piemonte","nomeComune":"San Carlo Canavese","Provincia":"TORINO","codiceProvincia":"TO","lat":"45.2456","lng":"7.6069","id":"237"},{"regione":"Piemonte","nomeComune":"San Colombano Belmonte","Provincia":"TORINO","codiceProvincia":"TO","lat":"45.383","lng":"7.623","id":"238"},{"regione":"Piemonte","nomeComune":"San Didero","Provincia":"TORINO","codiceProvincia":"TO","lat":"45.1354","lng":"7.2147","id":"239"},{"regione":"Piemonte","nomeComune":"San Francesco al Campo","Provincia":"TORINO","codiceProvincia":"TO","lat":"45.2295","lng":"7.6533","id":"240"},{"regione":"Piemonte","nomeComune":"Sangano","Provincia":"TORINO","codiceProvincia":"TO","lat":"45.027","lng":"7.4505","id":"241"},{"regione":"Piemonte","nomeComune":"San Germano Chisone","Provincia":"TORINO","codiceProvincia":"TO","lat":"44.9031","lng":"7.2378","id":"242"},{"regione":"Piemonte","nomeComune":"San Gillio","Provincia":"TORINO","codiceProvincia":"TO","lat":"45.1438","lng":"7.5371","id":"243"},{"regione":"Piemonte","nomeComune":"San Giorgio Canavese","Provincia":"TORINO","codiceProvincia":"TO","lat":"45.3352","lng":"7.798","id":"244"},{"regione":"Piemonte","nomeComune":"San Giorio di Susa","Provincia":"TORINO","codiceProvincia":"TO","lat":"45.1292","lng":"7.1794","id":"245"},{"regione":"Piemonte","nomeComune":"San Giusto Canavese","Provincia":"TORINO","codiceProvincia":"TO","lat":"45.3163","lng":"7.8103","id":"246"},{"regione":"Piemonte","nomeComune":"San Martino Canavese","Provincia":"TORINO","codiceProvincia":"TO","lat":"45.3961","lng":"7.8178","id":"247"},{"regione":"Piemonte","nomeComune":"San Maurizio Canavese","Provincia":"TORINO","codiceProvincia":"TO","lat":"45.2181","lng":"7.6317","id":"248"},{"regione":"Piemonte","nomeComune":"San Mauro Torinese","Provincia":"TORINO","codiceProvincia":"TO","lat":"45.1019","lng":"7.7656","id":"249"},{"regione":"Piemonte","nomeComune":"San Pietro Val Lemina","Provincia":"TORINO","codiceProvincia":"TO","lat":"44.9075","lng":"7.312","id":"250"},{"regione":"Piemonte","nomeComune":"San Ponso","Provincia":"TORINO","codiceProvincia":"TO","lat":"45.3508","lng":"7.6709","id":"251"},{"regione":"Piemonte","nomeComune":"San Raffaele Cimena","Provincia":"TORINO","codiceProvincia":"TO","lat":"45.1688","lng":"7.859","id":"252"},{"regione":"Piemonte","nomeComune":"San Sebastiano da Po","Provincia":"TORINO","codiceProvincia":"TO","lat":"45.1683","lng":"7.9583","id":"253"},{"regione":"Piemonte","nomeComune":"San Secondo di Pinerolo","Provincia":"TORINO","codiceProvincia":"TO","lat":"44.8675","lng":"7.2995","id":"254"},{"regione":"Piemonte","nomeComune":"Sant'Ambrogio di Torino","Provincia":"TORINO","codiceProvincia":"TO","lat":"45.0978","lng":"7.3622","id":"255"},{"regione":"Piemonte","nomeComune":"Sant'Antonino di Susa","Provincia":"TORINO","codiceProvincia":"TO","lat":"45.1081","lng":"7.2749","id":"256"},{"regione":"Piemonte","nomeComune":"Santena","Provincia":"TORINO","codiceProvincia":"TO","lat":"44.949","lng":"7.7728","id":"257"},{"regione":"Piemonte","nomeComune":"Sauze di Cesana","Provincia":"TORINO","codiceProvincia":"TO","lat":"44.9417","lng":"6.8602","id":"258"},{"regione":"Piemonte","nomeComune":"Sauze d'Oulx","Provincia":"TORINO","codiceProvincia":"TO","lat":"45.0275","lng":"6.8596","id":"259"},{"regione":"Piemonte","nomeComune":"Scalenghe","Provincia":"TORINO","codiceProvincia":"TO","lat":"44.8873","lng":"7.4968","id":"260"},{"regione":"Piemonte","nomeComune":"Scarmagno","Provincia":"TORINO","codiceProvincia":"TO","lat":"45.3855","lng":"7.8424","id":"261"},{"regione":"Piemonte","nomeComune":"Sciolze","Provincia":"TORINO","codiceProvincia":"TO","lat":"45.0942","lng":"7.8816","id":"262"},{"regione":"Piemonte","nomeComune":"Sestriere","Provincia":"TORINO","codiceProvincia":"TO","lat":"44.9569","lng":"6.8801","id":"263"},{"regione":"Piemonte","nomeComune":"Settimo Rottaro","Provincia":"TORINO","codiceProvincia":"TO","lat":"45.4092","lng":"7.9938","id":"264"},{"regione":"Piemonte","nomeComune":"Settimo Torinese","Provincia":"TORINO","codiceProvincia":"TO","lat":"45.1371","lng":"7.7709","id":"265"},{"regione":"Piemonte","nomeComune":"Settimo Vittone","Provincia":"TORINO","codiceProvincia":"TO","lat":"45.5508","lng":"7.8335","id":"266"},{"regione":"Piemonte","nomeComune":"Sparone","Provincia":"TORINO","codiceProvincia":"TO","lat":"45.4148","lng":"7.5445","id":"267"},{"regione":"Piemonte","nomeComune":"Strambinello","Provincia":"TORINO","codiceProvincia":"TO","lat":"45.424","lng":"7.7721","id":"268"},{"regione":"Piemonte","nomeComune":"Strambino","Provincia":"TORINO","codiceProvincia":"TO","lat":"45.3816","lng":"7.8848","id":"269"},{"regione":"Piemonte","nomeComune":"Susa","Provincia":"TORINO","codiceProvincia":"TO","lat":"45.1385","lng":"7.0484","id":"270"},{"regione":"Piemonte","nomeComune":"Tavagnasco","Provincia":"TORINO","codiceProvincia":"TO","lat":"45.546","lng":"7.8239","id":"271"},{"regione":"Piemonte","nomeComune":"Torino","Provincia":"TORINO","codiceProvincia":"TO","lat":"45.05","lng":"7.6667","id":"272"},{"regione":"Piemonte","nomeComune":"Torrazza Piemonte","Provincia":"TORINO","codiceProvincia":"TO","lat":"45.2164","lng":"7.9778","id":"273"},{"regione":"Piemonte","nomeComune":"Torre Canavese","Provincia":"TORINO","codiceProvincia":"TO","lat":"45.3931","lng":"7.7609","id":"274"},{"regione":"Piemonte","nomeComune":"Torre Pellice","Provincia":"TORINO","codiceProvincia":"TO","lat":"44.8206","lng":"7.2237","id":"275"},{"regione":"Piemonte","nomeComune":"Trana","Provincia":"TORINO","codiceProvincia":"TO","lat":"45.04","lng":"7.423","id":"276"},{"regione":"Piemonte","nomeComune":"Trausella","Provincia":"TORINO","codiceProvincia":"TO","lat":"45.4908","lng":"7.7632","id":"277"},{"regione":"Piemonte","nomeComune":"Traversella","Provincia":"TORINO","codiceProvincia":"TO","lat":"45.5096","lng":"7.7506","id":"278"},{"regione":"Piemonte","nomeComune":"Traves","Provincia":"TORINO","codiceProvincia":"TO","lat":"45.2683","lng":"7.4308","id":"279"},{"regione":"Piemonte","nomeComune":"Trofarello","Provincia":"TORINO","codiceProvincia":"TO","lat":"44.9847","lng":"7.7464","id":"280"},{"regione":"Piemonte","nomeComune":"Usseaux","Provincia":"TORINO","codiceProvincia":"TO","lat":"45.0486","lng":"7.0267","id":"281"},{"regione":"Piemonte","nomeComune":"Usseglio","Provincia":"TORINO","codiceProvincia":"TO","lat":"45.2328","lng":"7.2172","id":"282"},{"regione":"Piemonte","nomeComune":"Vaie","Provincia":"TORINO","codiceProvincia":"TO","lat":"45.1016","lng":"7.2898","id":"283"},{"regione":"Piemonte","nomeComune":"Val della Torre","Provincia":"TORINO","codiceProvincia":"TO","lat":"45.1563","lng":"7.4463","id":"284"},{"regione":"Piemonte","nomeComune":"Valgioie","Provincia":"TORINO","codiceProvincia":"TO","lat":"45.0761","lng":"7.3407","id":"285"},{"regione":"Piemonte","nomeComune":"Vallo Torinese","Provincia":"TORINO","codiceProvincia":"TO","lat":"45.2245","lng":"7.4975","id":"286"},{"regione":"Piemonte","nomeComune":"Valperga","Provincia":"TORINO","codiceProvincia":"TO","lat":"45.3701","lng":"7.6579","id":"287"},{"regione":"Piemonte","nomeComune":"Valprato Soana","Provincia":"TORINO","codiceProvincia":"TO","lat":"45.5222","lng":"7.5502","id":"288"},{"regione":"Piemonte","nomeComune":"Varisella","Provincia":"TORINO","codiceProvincia":"TO","lat":"45.2096","lng":"7.4861","id":"289"},{"regione":"Piemonte","nomeComune":"Vauda Canavese","Provincia":"TORINO","codiceProvincia":"TO","lat":"45.2792","lng":"7.6164","id":"290"},{"regione":"Piemonte","nomeComune":"Venaus","Provincia":"TORINO","codiceProvincia":"TO","lat":"45.1596","lng":"7.0092","id":"291"},{"regione":"Piemonte","nomeComune":"Venaria Reale","Provincia":"TORINO","codiceProvincia":"TO","lat":"45.1342","lng":"7.629","id":"292"},{"regione":"Piemonte","nomeComune":"Verolengo","Provincia":"TORINO","codiceProvincia":"TO","lat":"45.1911","lng":"7.9694","id":"293"},{"regione":"Piemonte","nomeComune":"Verrua Savoia","Provincia":"TORINO","codiceProvincia":"TO","lat":"45.1578","lng":"8.0935","id":"294"},{"regione":"Piemonte","nomeComune":"Vestignè","Provincia":"TORINO","codiceProvincia":"TO","lat":"45.3867","lng":"7.9559","id":"295"},{"regione":"Piemonte","nomeComune":"Vialfrè","Provincia":"TORINO","codiceProvincia":"TO","lat":"45.3812","lng":"7.8177","id":"296"},{"regione":"Piemonte","nomeComune":"Vico Canavese","Provincia":"TORINO","codiceProvincia":"TO","lat":"45.397","lng":"7.4668","id":"297"},{"regione":"Piemonte","nomeComune":"Vidracco","Provincia":"TORINO","codiceProvincia":"TO","lat":"45.4317","lng":"7.7586","id":"298"},{"regione":"Piemonte","nomeComune":"Vigone","Provincia":"TORINO","codiceProvincia":"TO","lat":"44.8455","lng":"7.4961","id":"299"},{"regione":"Piemonte","nomeComune":"Villafranca Piemonte","Provincia":"TORINO","codiceProvincia":"TO","lat":"44.78","lng":"7.5016","id":"300"},{"regione":"Piemonte","nomeComune":"Villanova Canavese","Provincia":"TORINO","codiceProvincia":"TO","lat":"45.2445","lng":"7.5533","id":"301"},{"regione":"Piemonte","nomeComune":"Villarbasse","Provincia":"TORINO","codiceProvincia":"TO","lat":"45.0463","lng":"7.4695","id":"302"},{"regione":"Piemonte","nomeComune":"Villar Dora","Provincia":"TORINO","codiceProvincia":"TO","lat":"45.1156","lng":"7.3847","id":"303"},{"regione":"Piemonte","nomeComune":"Villareggia","Provincia":"TORINO","codiceProvincia":"TO","lat":"45.3111","lng":"7.9778","id":"304"},{"regione":"Piemonte","nomeComune":"Villar Focchiardo","Provincia":"TORINO","codiceProvincia":"TO","lat":"45.1103","lng":"7.2328","id":"305"},{"regione":"Piemonte","nomeComune":"Villar Pellice","Provincia":"TORINO","codiceProvincia":"TO","lat":"44.8094","lng":"7.1533","id":"306"},{"regione":"Piemonte","nomeComune":"Villar Perosa","Provincia":"TORINO","codiceProvincia":"TO","lat":"44.9193","lng":"7.2481","id":"307"},{"regione":"Piemonte","nomeComune":"Villastellone","Provincia":"TORINO","codiceProvincia":"TO","lat":"44.9218","lng":"7.7446","id":"308"},{"regione":"Piemonte","nomeComune":"Vinovo","Provincia":"TORINO","codiceProvincia":"TO","lat":"44.9482","lng":"7.6338","id":"309"},{"regione":"Piemonte","nomeComune":"Virle Piemonte","Provincia":"TORINO","codiceProvincia":"TO","lat":"44.8656","lng":"7.5713","id":"310"},{"regione":"Piemonte","nomeComune":"Vische","Provincia":"TORINO","codiceProvincia":"TO","lat":"45.3352","lng":"7.9459","id":"311"},{"regione":"Piemonte","nomeComune":"Vistrorio","Provincia":"TORINO","codiceProvincia":"TO","lat":"45.443","lng":"7.7685","id":"312"},{"regione":"Piemonte","nomeComune":"Viù","Provincia":"TORINO","codiceProvincia":"TO","lat":"45.2389","lng":"7.3766","id":"313"},{"regione":"Piemonte","nomeComune":"Volpiano","Provincia":"TORINO","codiceProvincia":"TO","lat":"45.2015","lng":"7.7773","id":"314"},{"regione":"Piemonte","nomeComune":"Volvera","Provincia":"TORINO","codiceProvincia":"TO","lat":"44.956","lng":"7.5125","id":"315"},{"regione":"Piemonte","nomeComune":"Alagna Valsesia","Provincia":"VERCELLI","codiceProvincia":"VC","lat":"45.8542","lng":"7.9374","id":"316"},{"regione":"Piemonte","nomeComune":"Albano Vercellese","Provincia":"VERCELLI","codiceProvincia":"VC","lat":"45.4272","lng":"8.3807","id":"317"},{"regione":"Piemonte","nomeComune":"Alice Castello","Provincia":"VERCELLI","codiceProvincia":"VC","lat":"45.3663","lng":"8.0741","id":"318"},{"regione":"Piemonte","nomeComune":"Arborio","Provincia":"VERCELLI","codiceProvincia":"VC","lat":"45.4959","lng":"8.3864","id":"319"},{"regione":"Piemonte","nomeComune":"Asigliano Vercellese","Provincia":"VERCELLI","codiceProvincia":"VC","lat":"45.2625","lng":"8.4097","id":"320"},{"regione":"Piemonte","nomeComune":"Balmuccia","Provincia":"VERCELLI","codiceProvincia":"VC","lat":"45.8189","lng":"8.1427","id":"321"},{"regione":"Piemonte","nomeComune":"Balocco","Provincia":"VERCELLI","codiceProvincia":"VC","lat":"45.4562","lng":"8.2813","id":"322"},{"regione":"Piemonte","nomeComune":"Bianzè","Provincia":"VERCELLI","codiceProvincia":"VC","lat":"45.3096","lng":"8.1238","id":"323"},{"regione":"Piemonte","nomeComune":"Boccioleto","Provincia":"VERCELLI","codiceProvincia":"VC","lat":"45.8302","lng":"8.113","id":"324"},{"regione":"Piemonte","nomeComune":"Borgo d'Ale","Provincia":"VERCELLI","codiceProvincia":"VC","lat":"45.3527","lng":"8.0519","id":"325"},{"regione":"Piemonte","nomeComune":"Borgosesia","Provincia":"VERCELLI","codiceProvincia":"VC","lat":"45.7153","lng":"8.2772","id":"326"},{"regione":"Piemonte","nomeComune":"Borgo Vercelli","Provincia":"VERCELLI","codiceProvincia":"VC","lat":"45.3589","lng":"8.4642","id":"327"},{"regione":"Piemonte","nomeComune":"Breia","Provincia":"VERCELLI","codiceProvincia":"VC","lat":"45.7667","lng":"8.3108","id":"328"},{"regione":"Piemonte","nomeComune":"Buronzo","Provincia":"VERCELLI","codiceProvincia":"VC","lat":"45.4819","lng":"8.2683","id":"329"},{"regione":"Piemonte","nomeComune":"Campertogno","Provincia":"VERCELLI","codiceProvincia":"VC","lat":"45.7999","lng":"8.0333","id":"330"},{"regione":"Piemonte","nomeComune":"Carcoforo","Provincia":"VERCELLI","codiceProvincia":"VC","lat":"45.9096","lng":"8.0457","id":"331"},{"regione":"Piemonte","nomeComune":"Caresana","Provincia":"VERCELLI","codiceProvincia":"VC","lat":"45.2219","lng":"8.5064","id":"332"},{"regione":"Piemonte","nomeComune":"Caresanablot","Provincia":"VERCELLI","codiceProvincia":"VC","lat":"45.3585","lng":"8.3931","id":"333"},{"regione":"Piemonte","nomeComune":"Carisio","Provincia":"VERCELLI","codiceProvincia":"VC","lat":"45.4103","lng":"8.2002","id":"334"},{"regione":"Piemonte","nomeComune":"Casanova Elvo","Provincia":"VERCELLI","codiceProvincia":"VC","lat":"45.402","lng":"8.2947","id":"335"},{"regione":"Piemonte","nomeComune":"San Giacomo Vercellese","Provincia":"VERCELLI","codiceProvincia":"VC","lat":"45.4992","lng":"8.3278","id":"336"},{"regione":"Piemonte","nomeComune":"Cellio","Provincia":"VERCELLI","codiceProvincia":"VC","lat":"45.7571","lng":"8.3117","id":"337"},{"regione":"Piemonte","nomeComune":"Cervatto","Provincia":"VERCELLI","codiceProvincia":"VC","lat":"45.8829","lng":"8.1633","id":"338"},{"regione":"Piemonte","nomeComune":"Cigliano","Provincia":"VERCELLI","codiceProvincia":"VC","lat":"45.3094","lng":"8.0222","id":"339"},{"regione":"Piemonte","nomeComune":"Civiasco","Provincia":"VERCELLI","codiceProvincia":"VC","lat":"45.8069","lng":"8.2932","id":"340"},{"regione":"Piemonte","nomeComune":"Collobiano","Provincia":"VERCELLI","codiceProvincia":"VC","lat":"45.397","lng":"8.3493","id":"341"},{"regione":"Piemonte","nomeComune":"Costanzana","Provincia":"VERCELLI","codiceProvincia":"VC","lat":"45.2372","lng":"8.3711","id":"342"},{"regione":"Piemonte","nomeComune":"Cravagliana","Provincia":"VERCELLI","codiceProvincia":"VC","lat":"45.8485","lng":"8.203","id":"343"},{"regione":"Piemonte","nomeComune":"Crescentino","Provincia":"VERCELLI","codiceProvincia":"VC","lat":"45.1914","lng":"8.1011","id":"344"},{"regione":"Piemonte","nomeComune":"Crova","Provincia":"VERCELLI","codiceProvincia":"VC","lat":"45.3317","lng":"8.2121","id":"345"},{"regione":"Piemonte","nomeComune":"Desana","Provincia":"VERCELLI","codiceProvincia":"VC","lat":"45.2706","lng":"8.361","id":"346"},{"regione":"Piemonte","nomeComune":"Fobello","Provincia":"VERCELLI","codiceProvincia":"VC","lat":"45.8902","lng":"8.1578","id":"347"},{"regione":"Piemonte","nomeComune":"Fontanetto Po","Provincia":"VERCELLI","codiceProvincia":"VC","lat":"45.1942","lng":"8.1927","id":"348"},{"regione":"Piemonte","nomeComune":"Formigliana","Provincia":"VERCELLI","codiceProvincia":"VC","lat":"45.4294","lng":"8.2928","id":"349"},{"regione":"Piemonte","nomeComune":"Gattinara","Provincia":"VERCELLI","codiceProvincia":"VC","lat":"45.6189","lng":"8.3686","id":"350"},{"regione":"Piemonte","nomeComune":"Ghislarengo","Provincia":"VERCELLI","codiceProvincia":"VC","lat":"45.53","lng":"8.3863","id":"351"},{"regione":"Piemonte","nomeComune":"Greggio","Provincia":"VERCELLI","codiceProvincia":"VC","lat":"45.4517","lng":"8.3842","id":"352"},{"regione":"Piemonte","nomeComune":"Guardabosone","Provincia":"VERCELLI","codiceProvincia":"VC","lat":"45.702","lng":"8.2493","id":"353"},{"regione":"Piemonte","nomeComune":"Lamporo","Provincia":"VERCELLI","codiceProvincia":"VC","lat":"45.2306","lng":"8.0974","id":"354"},{"regione":"Piemonte","nomeComune":"Lenta","Provincia":"VERCELLI","codiceProvincia":"VC","lat":"45.556","lng":"8.3836","id":"355"},{"regione":"Piemonte","nomeComune":"Lignana","Provincia":"VERCELLI","codiceProvincia":"VC","lat":"45.287","lng":"8.345","id":"356"},{"regione":"Piemonte","nomeComune":"Livorno Ferraris","Provincia":"VERCELLI","codiceProvincia":"VC","lat":"45.285","lng":"8.0786","id":"357"},{"regione":"Piemonte","nomeComune":"Lozzolo","Provincia":"VERCELLI","codiceProvincia":"VC","lat":"45.6265","lng":"8.324","id":"358"},{"regione":"Piemonte","nomeComune":"Mollia","Provincia":"VERCELLI","codiceProvincia":"VC","lat":"45.8151","lng":"8.0308","id":"359"},{"regione":"Piemonte","nomeComune":"Moncrivello","Provincia":"VERCELLI","codiceProvincia":"VC","lat":"45.3335","lng":"7.9967","id":"360"},{"regione":"Piemonte","nomeComune":"Motta de' Conti","Provincia":"VERCELLI","codiceProvincia":"VC","lat":"45.1945","lng":"8.522","id":"361"},{"regione":"Piemonte","nomeComune":"Olcenengo","Provincia":"VERCELLI","codiceProvincia":"VC","lat":"45.3646","lng":"8.3109","id":"362"},{"regione":"Piemonte","nomeComune":"Oldenico","Provincia":"VERCELLI","codiceProvincia":"VC","lat":"45.4038","lng":"8.3822","id":"363"},{"regione":"Piemonte","nomeComune":"Palazzolo Vercellese","Provincia":"VERCELLI","codiceProvincia":"VC","lat":"45.1856","lng":"8.2308","id":"364"},{"regione":"Piemonte","nomeComune":"Pertengo","Provincia":"VERCELLI","codiceProvincia":"VC","lat":"45.236","lng":"8.4176","id":"365"},{"regione":"Piemonte","nomeComune":"Pezzana","Provincia":"VERCELLI","codiceProvincia":"VC","lat":"45.2631","lng":"8.4863","id":"366"},{"regione":"Piemonte","nomeComune":"Pila","Provincia":"VERCELLI","codiceProvincia":"VC","lat":"45.7705","lng":"8.0833","id":"367"},{"regione":"Piemonte","nomeComune":"Piode","Provincia":"VERCELLI","codiceProvincia":"VC","lat":"45.772","lng":"8.0517","id":"368"},{"regione":"Piemonte","nomeComune":"Postua","Provincia":"VERCELLI","codiceProvincia":"VC","lat":"45.7139","lng":"8.2317","id":"369"},{"regione":"Piemonte","nomeComune":"Prarolo","Provincia":"VERCELLI","codiceProvincia":"VC","lat":"45.281","lng":"8.4777","id":"370"},{"regione":"Piemonte","nomeComune":"Quarona","Provincia":"VERCELLI","codiceProvincia":"VC","lat":"45.7589","lng":"8.2669","id":"371"},{"regione":"Piemonte","nomeComune":"Quinto Vercellese","Provincia":"VERCELLI","codiceProvincia":"VC","lat":"45.3806","lng":"8.3628","id":"372"},{"regione":"Piemonte","nomeComune":"Rassa","Provincia":"VERCELLI","codiceProvincia":"VC","lat":"45.7684","lng":"8.012","id":"373"},{"regione":"Piemonte","nomeComune":"Rima San Giuseppe","Provincia":"VERCELLI","codiceProvincia":"VC","lat":"45.8847","lng":"7.9989","id":"374"},{"regione":"Piemonte","nomeComune":"Rimasco","Provincia":"VERCELLI","codiceProvincia":"VC","lat":"45.86","lng":"8.0639","id":"375"},{"regione":"Piemonte","nomeComune":"Rimella","Provincia":"VERCELLI","codiceProvincia":"VC","lat":"45.9091","lng":"8.1835","id":"376"},{"regione":"Piemonte","nomeComune":"Riva Valdobbia","Provincia":"VERCELLI","codiceProvincia":"VC","lat":"45.832","lng":"7.9578","id":"377"},{"regione":"Piemonte","nomeComune":"Rive","Provincia":"VERCELLI","codiceProvincia":"VC","lat":"45.2152","lng":"8.4188","id":"378"},{"regione":"Piemonte","nomeComune":"Roasio","Provincia":"VERCELLI","codiceProvincia":"VC","lat":"45.6058","lng":"8.2871","id":"379"},{"regione":"Piemonte","nomeComune":"Ronsecco","Provincia":"VERCELLI","codiceProvincia":"VC","lat":"45.2531","lng":"8.2781","id":"380"},{"regione":"Piemonte","nomeComune":"Rossa","Provincia":"VERCELLI","codiceProvincia":"VC","lat":"45.833","lng":"8.1206","id":"381"},{"regione":"Piemonte","nomeComune":"Rovasenda","Provincia":"VERCELLI","codiceProvincia":"VC","lat":"45.5399","lng":"8.3188","id":"382"},{"regione":"Piemonte","nomeComune":"Sabbia","Provincia":"VERCELLI","codiceProvincia":"VC","lat":"45.857","lng":"8.2361","id":"383"},{"regione":"Piemonte","nomeComune":"Salasco","Provincia":"VERCELLI","codiceProvincia":"VC","lat":"45.3259","lng":"8.2652","id":"384"},{"regione":"Piemonte","nomeComune":"Sali Vercellese","Provincia":"VERCELLI","codiceProvincia":"VC","lat":"45.311","lng":"8.33","id":"385"},{"regione":"Piemonte","nomeComune":"Saluggia","Provincia":"VERCELLI","codiceProvincia":"VC","lat":"45.2386","lng":"8.0122","id":"386"},{"regione":"Piemonte","nomeComune":"San Germano Vercellese","Provincia":"VERCELLI","codiceProvincia":"VC","lat":"45.3514","lng":"8.2489","id":"387"},{"regione":"Piemonte","nomeComune":"Santhià","Provincia":"VERCELLI","codiceProvincia":"VC","lat":"45.3674","lng":"8.1738","id":"388"},{"regione":"Piemonte","nomeComune":"Scopa","Provincia":"VERCELLI","codiceProvincia":"VC","lat":"45.7939","lng":"8.1152","id":"389"},{"regione":"Piemonte","nomeComune":"Scopello","Provincia":"VERCELLI","codiceProvincia":"VC","lat":"45.7736","lng":"8.096","id":"390"},{"regione":"Piemonte","nomeComune":"Serravalle Sesia","Provincia":"VERCELLI","codiceProvincia":"VC","lat":"45.6875","lng":"8.3094","id":"391"},{"regione":"Piemonte","nomeComune":"Stroppiana","Provincia":"VERCELLI","codiceProvincia":"VC","lat":"45.2312","lng":"8.455","id":"392"},{"regione":"Piemonte","nomeComune":"Tricerro","Provincia":"VERCELLI","codiceProvincia":"VC","lat":"45.2367","lng":"8.3264","id":"393"},{"regione":"Piemonte","nomeComune":"Trino","Provincia":"VERCELLI","codiceProvincia":"VC","lat":"45.1931","lng":"8.2974","id":"394"},{"regione":"Piemonte","nomeComune":"Tronzano Vercellese","Provincia":"VERCELLI","codiceProvincia":"VC","lat":"45.3424","lng":"8.1742","id":"395"},{"regione":"Piemonte","nomeComune":"Valduggia","Provincia":"VERCELLI","codiceProvincia":"VC","lat":"45.7294","lng":"8.3311","id":"396"},{"regione":"Piemonte","nomeComune":"Varallo","Provincia":"VERCELLI","codiceProvincia":"VC","lat":"45.8138","lng":"8.2535","id":"397"},{"regione":"Piemonte","nomeComune":"Vercelli","Provincia":"VERCELLI","codiceProvincia":"VC","lat":"45.321","lng":"8.4263","id":"398"},{"regione":"Piemonte","nomeComune":"Villarboit","Provincia":"VERCELLI","codiceProvincia":"VC","lat":"45.4385","lng":"8.3384","id":"399"},{"regione":"Piemonte","nomeComune":"Villata","Provincia":"VERCELLI","codiceProvincia":"VC","lat":"45.3888","lng":"8.4338","id":"400"},{"regione":"Piemonte","nomeComune":"Vocca","Provincia":"VERCELLI","codiceProvincia":"VC","lat":"45.8328","lng":"8.1958","id":"401"},{"regione":"Piemonte","nomeComune":"Agrate Conturbia","Provincia":"NOVARA","codiceProvincia":"NO","lat":"45.6774","lng":"8.5584","id":"402"},{"regione":"Piemonte","nomeComune":"Ameno","Provincia":"NOVARA","codiceProvincia":"NO","lat":"45.7897","lng":"8.442","id":"403"},{"regione":"Piemonte","nomeComune":"Armeno","Provincia":"NOVARA","codiceProvincia":"NO","lat":"45.8225","lng":"8.44","id":"404"},{"regione":"Piemonte","nomeComune":"Arona","Provincia":"NOVARA","codiceProvincia":"NO","lat":"45.757","lng":"8.56","id":"405"},{"regione":"Piemonte","nomeComune":"Barengo","Provincia":"NOVARA","codiceProvincia":"NO","lat":"45.577","lng":"8.5152","id":"406"},{"regione":"Piemonte","nomeComune":"Bellinzago Novarese","Provincia":"NOVARA","codiceProvincia":"NO","lat":"45.5699","lng":"8.6444","id":"407"},{"regione":"Piemonte","nomeComune":"Biandrate","Provincia":"NOVARA","codiceProvincia":"NO","lat":"45.4538","lng":"8.4636","id":"408"},{"regione":"Piemonte","nomeComune":"Boca","Provincia":"NOVARA","codiceProvincia":"NO","lat":"45.6796","lng":"8.4093","id":"409"},{"regione":"Piemonte","nomeComune":"Bogogno","Provincia":"NOVARA","codiceProvincia":"NO","lat":"45.6644","lng":"8.5357","id":"410"},{"regione":"Piemonte","nomeComune":"Bolzano Novarese","Provincia":"NOVARA","codiceProvincia":"NO","lat":"45.765","lng":"8.4461","id":"411"},{"regione":"Piemonte","nomeComune":"Borgolavezzaro","Provincia":"NOVARA","codiceProvincia":"NO","lat":"45.3206","lng":"8.7006","id":"412"},{"regione":"Piemonte","nomeComune":"Borgomanero","Provincia":"NOVARA","codiceProvincia":"NO","lat":"45.6987","lng":"8.4626","id":"413"},{"regione":"Piemonte","nomeComune":"Borgo Ticino","Provincia":"NOVARA","codiceProvincia":"NO","lat":"45.6903","lng":"8.603","id":"414"},{"regione":"Piemonte","nomeComune":"Briga Novarese","Provincia":"NOVARA","codiceProvincia":"NO","lat":"45.7333","lng":"8.4509","id":"415"},{"regione":"Piemonte","nomeComune":"Briona","Provincia":"NOVARA","codiceProvincia":"NO","lat":"45.5434","lng":"8.481","id":"416"},{"regione":"Piemonte","nomeComune":"Caltignaga","Provincia":"NOVARA","codiceProvincia":"NO","lat":"45.5199","lng":"8.5899","id":"417"},{"regione":"Piemonte","nomeComune":"Cameri","Provincia":"NOVARA","codiceProvincia":"NO","lat":"45.5042","lng":"8.6639","id":"418"},{"regione":"Piemonte","nomeComune":"Carpignano Sesia","Provincia":"NOVARA","codiceProvincia":"NO","lat":"45.5353","lng":"8.4195","id":"419"},{"regione":"Piemonte","nomeComune":"Casalbeltrame","Provincia":"NOVARA","codiceProvincia":"NO","lat":"45.4388","lng":"8.4663","id":"420"},{"regione":"Piemonte","nomeComune":"Casaleggio Novara","Provincia":"NOVARA","codiceProvincia":"NO","lat":"45.4899","lng":"8.4931","id":"421"},{"regione":"Piemonte","nomeComune":"Casalino","Provincia":"NOVARA","codiceProvincia":"NO","lat":"45.3594","lng":"8.525","id":"422"},{"regione":"Piemonte","nomeComune":"Casalvolone","Provincia":"NOVARA","codiceProvincia":"NO","lat":"45.4017","lng":"8.4645","id":"423"},{"regione":"Piemonte","nomeComune":"Castellazzo Novarese","Provincia":"NOVARA","codiceProvincia":"NO","lat":"45.5144","lng":"8.4881","id":"424"},{"regione":"Piemonte","nomeComune":"Castelletto sopra Ticino","Provincia":"NOVARA","codiceProvincia":"NO","lat":"45.7187","lng":"8.6368","id":"425"},{"regione":"Piemonte","nomeComune":"Cavaglietto","Provincia":"NOVARA","codiceProvincia":"NO","lat":"45.6031","lng":"8.5033","id":"426"},{"regione":"Piemonte","nomeComune":"Cavaglio d'Agogna","Provincia":"NOVARA","codiceProvincia":"NO","lat":"45.6142","lng":"8.4874","id":"427"},{"regione":"Piemonte","nomeComune":"Cavallirio","Provincia":"NOVARA","codiceProvincia":"NO","lat":"45.6644","lng":"8.3956","id":"428"},{"regione":"Piemonte","nomeComune":"Cerano","Provincia":"NOVARA","codiceProvincia":"NO","lat":"45.412","lng":"8.7813","id":"429"},{"regione":"Piemonte","nomeComune":"Colazza","Provincia":"NOVARA","codiceProvincia":"NO","lat":"45.7936","lng":"8.5014","id":"430"},{"regione":"Piemonte","nomeComune":"Comignago","Provincia":"NOVARA","codiceProvincia":"NO","lat":"45.716","lng":"8.5652","id":"431"},{"regione":"Piemonte","nomeComune":"Cressa","Provincia":"NOVARA","codiceProvincia":"NO","lat":"45.6492","lng":"8.5102","id":"432"},{"regione":"Piemonte","nomeComune":"Cureggio","Provincia":"NOVARA","codiceProvincia":"NO","lat":"45.676","lng":"8.461","id":"433"},{"regione":"Piemonte","nomeComune":"Divignano","Provincia":"NOVARA","codiceProvincia":"NO","lat":"45.6635","lng":"8.6028","id":"434"},{"regione":"Piemonte","nomeComune":"Dormelletto","Provincia":"NOVARA","codiceProvincia":"NO","lat":"45.7272","lng":"8.5803","id":"435"},{"regione":"Piemonte","nomeComune":"Fara Novarese","Provincia":"NOVARA","codiceProvincia":"NO","lat":"45.5528","lng":"8.4599","id":"436"},{"regione":"Piemonte","nomeComune":"Fontaneto d'Agogna","Provincia":"NOVARA","codiceProvincia":"NO","lat":"45.6583","lng":"8.4803","id":"437"},{"regione":"Piemonte","nomeComune":"Galliate","Provincia":"NOVARA","codiceProvincia":"NO","lat":"45.4781","lng":"8.696","id":"438"},{"regione":"Piemonte","nomeComune":"Garbagna Novarese","Provincia":"NOVARA","codiceProvincia":"NO","lat":"45.3851","lng":"8.6608","id":"439"},{"regione":"Piemonte","nomeComune":"Gargallo","Provincia":"NOVARA","codiceProvincia":"NO","lat":"45.7299","lng":"8.4264","id":"440"},{"regione":"Piemonte","nomeComune":"Gattico","Provincia":"NOVARA","codiceProvincia":"NO","lat":"45.7081","lng":"8.5213","id":"441"},{"regione":"Piemonte","nomeComune":"Ghemme","Provincia":"NOVARA","codiceProvincia":"NO","lat":"45.6006","lng":"8.4227","id":"442"},{"regione":"Piemonte","nomeComune":"Gozzano","Provincia":"NOVARA","codiceProvincia":"NO","lat":"45.7475","lng":"8.4378","id":"443"},{"regione":"Piemonte","nomeComune":"Granozzo con Monticello","Provincia":"NOVARA","codiceProvincia":"NO","lat":"45.3613","lng":"8.5746","id":"444"},{"regione":"Piemonte","nomeComune":"Grignasco","Provincia":"NOVARA","codiceProvincia":"NO","lat":"45.6808","lng":"8.3442","id":"445"},{"regione":"Piemonte","nomeComune":"Invorio","Provincia":"NOVARA","codiceProvincia":"NO","lat":"45.7579","lng":"8.4895","id":"446"},{"regione":"Piemonte","nomeComune":"Landiona","Provincia":"NOVARA","codiceProvincia":"NO","lat":"45.4975","lng":"8.4234","id":"447"},{"regione":"Piemonte","nomeComune":"Lesa","Provincia":"NOVARA","codiceProvincia":"NO","lat":"45.8241","lng":"8.5609","id":"448"},{"regione":"Piemonte","nomeComune":"Maggiora","Provincia":"NOVARA","codiceProvincia":"NO","lat":"45.6903","lng":"8.4234","id":"449"},{"regione":"Piemonte","nomeComune":"Mandello Vitta","Provincia":"NOVARA","codiceProvincia":"NO","lat":"45.4967","lng":"8.4609","id":"450"},{"regione":"Piemonte","nomeComune":"Marano Ticino","Provincia":"NOVARA","codiceProvincia":"NO","lat":"45.631","lng":"8.6328","id":"451"},{"regione":"Piemonte","nomeComune":"Massino Visconti","Provincia":"NOVARA","codiceProvincia":"NO","lat":"45.8222","lng":"8.54","id":"452"},{"regione":"Piemonte","nomeComune":"Meina","Provincia":"NOVARA","codiceProvincia":"NO","lat":"45.7899","lng":"8.54","id":"453"},{"regione":"Piemonte","nomeComune":"Mezzomerico","Provincia":"NOVARA","codiceProvincia":"NO","lat":"45.6197","lng":"8.6067","id":"454"},{"regione":"Piemonte","nomeComune":"Miasino","Provincia":"NOVARA","codiceProvincia":"NO","lat":"45.803","lng":"8.431","id":"455"},{"regione":"Piemonte","nomeComune":"Momo","Provincia":"NOVARA","codiceProvincia":"NO","lat":"45.5766","lng":"8.5545","id":"456"},{"regione":"Piemonte","nomeComune":"Nebbiuno","Provincia":"NOVARA","codiceProvincia":"NO","lat":"45.8044","lng":"8.5234","id":"457"},{"regione":"Piemonte","nomeComune":"Nibbiola","Provincia":"NOVARA","codiceProvincia":"NO","lat":"45.3727","lng":"8.6575","id":"458"},{"regione":"Piemonte","nomeComune":"Novara","Provincia":"NOVARA","codiceProvincia":"NO","lat":"45.4451","lng":"8.6187","id":"459"},{"regione":"Piemonte","nomeComune":"Oleggio","Provincia":"NOVARA","codiceProvincia":"NO","lat":"45.5967","lng":"8.6376","id":"460"},{"regione":"Piemonte","nomeComune":"Oleggio Castello","Provincia":"NOVARA","codiceProvincia":"NO","lat":"45.7485","lng":"8.5269","id":"461"},{"regione":"Piemonte","nomeComune":"Orta San Giulio","Provincia":"NOVARA","codiceProvincia":"NO","lat":"45.7989","lng":"8.4199","id":"462"},{"regione":"Piemonte","nomeComune":"Paruzzaro","Provincia":"NOVARA","codiceProvincia":"NO","lat":"45.7497","lng":"8.5177","id":"463"},{"regione":"Piemonte","nomeComune":"Pella","Provincia":"NOVARA","codiceProvincia":"NO","lat":"45.8001","lng":"8.3859","id":"464"},{"regione":"Piemonte","nomeComune":"Pettenasco","Provincia":"NOVARA","codiceProvincia":"NO","lat":"45.8175","lng":"8.4081","id":"465"},{"regione":"Piemonte","nomeComune":"Pisano","Provincia":"NOVARA","codiceProvincia":"NO","lat":"45.7936","lng":"8.5115","id":"466"},{"regione":"Piemonte","nomeComune":"Pogno","Provincia":"NOVARA","codiceProvincia":"NO","lat":"45.7566","lng":"8.3858","id":"467"},{"regione":"Piemonte","nomeComune":"Pombia","Provincia":"NOVARA","codiceProvincia":"NO","lat":"45.652","lng":"8.6335","id":"468"},{"regione":"Piemonte","nomeComune":"Prato Sesia","Provincia":"NOVARA","codiceProvincia":"NO","lat":"45.6474","lng":"8.3738","id":"469"},{"regione":"Piemonte","nomeComune":"Recetto","Provincia":"NOVARA","codiceProvincia":"NO","lat":"45.4614","lng":"8.4369","id":"470"},{"regione":"Piemonte","nomeComune":"Romagnano Sesia","Provincia":"NOVARA","codiceProvincia":"NO","lat":"45.632","lng":"8.3899","id":"471"},{"regione":"Piemonte","nomeComune":"Romentino","Provincia":"NOVARA","codiceProvincia":"NO","lat":"45.465","lng":"8.7202","id":"472"},{"regione":"Piemonte","nomeComune":"San Maurizio d'Opaglio","Provincia":"NOVARA","codiceProvincia":"NO","lat":"45.7722","lng":"8.3988","id":"473"},{"regione":"Piemonte","nomeComune":"San Nazzaro Sesia","Provincia":"NOVARA","codiceProvincia":"NO","lat":"45.4389","lng":"8.4255","id":"474"},{"regione":"Piemonte","nomeComune":"San Pietro Mosezzo","Provincia":"NOVARA","codiceProvincia":"NO","lat":"45.4659","lng":"8.5242","id":"475"},{"regione":"Piemonte","nomeComune":"Sillavengo","Provincia":"NOVARA","codiceProvincia":"NO","lat":"45.5217","lng":"8.4422","id":"476"},{"regione":"Piemonte","nomeComune":"Sizzano","Provincia":"NOVARA","codiceProvincia":"NO","lat":"45.5779","lng":"8.4379","id":"477"},{"regione":"Piemonte","nomeComune":"Soriso","Provincia":"NOVARA","codiceProvincia":"NO","lat":"45.7414","lng":"8.4106","id":"478"},{"regione":"Piemonte","nomeComune":"Sozzago","Provincia":"NOVARA","codiceProvincia":"NO","lat":"45.3995","lng":"8.7209","id":"479"},{"regione":"Piemonte","nomeComune":"Suno","Provincia":"NOVARA","codiceProvincia":"NO","lat":"45.6344","lng":"8.5439","id":"480"},{"regione":"Piemonte","nomeComune":"Terdobbiate","Provincia":"NOVARA","codiceProvincia":"NO","lat":"45.3775","lng":"8.6964","id":"481"},{"regione":"Piemonte","nomeComune":"Tornaco","Provincia":"NOVARA","codiceProvincia":"NO","lat":"45.3586","lng":"8.717","id":"482"},{"regione":"Piemonte","nomeComune":"Trecate","Provincia":"NOVARA","codiceProvincia":"NO","lat":"45.4327","lng":"8.7382","id":"483"},{"regione":"Piemonte","nomeComune":"Vaprio d'Agogna","Provincia":"NOVARA","codiceProvincia":"NO","lat":"45.6047","lng":"8.5547","id":"484"},{"regione":"Piemonte","nomeComune":"Varallo Pombia","Provincia":"NOVARA","codiceProvincia":"NO","lat":"45.6678","lng":"8.63","id":"485"},{"regione":"Piemonte","nomeComune":"Veruno","Provincia":"NOVARA","codiceProvincia":"NO","lat":"45.6898","lng":"8.5299","id":"486"},{"regione":"Piemonte","nomeComune":"Vespolate","Provincia":"NOVARA","codiceProvincia":"NO","lat":"45.3514","lng":"8.6689","id":"487"},{"regione":"Piemonte","nomeComune":"Vicolungo","Provincia":"NOVARA","codiceProvincia":"NO","lat":"45.4786","lng":"8.4639","id":"488"},{"regione":"Piemonte","nomeComune":"Vinzaglio","Provincia":"NOVARA","codiceProvincia":"NO","lat":"45.3239","lng":"8.5203","id":"489"},{"regione":"Piemonte","nomeComune":"Acceglio","Provincia":"CUNEO","codiceProvincia":"CN","lat":"44.4752","lng":"6.9907","id":"490"},{"regione":"Piemonte","nomeComune":"Aisone","Provincia":"CUNEO","codiceProvincia":"CN","lat":"44.3135","lng":"7.2191","id":"491"},{"regione":"Piemonte","nomeComune":"Alba","Provincia":"CUNEO","codiceProvincia":"CN","lat":"44.7009","lng":"8.0353","id":"492"},{"regione":"Piemonte","nomeComune":"Albaretto della Torre","Provincia":"CUNEO","codiceProvincia":"CN","lat":"44.5968","lng":"8.0645","id":"493"},{"regione":"Piemonte","nomeComune":"Alto","Provincia":"CUNEO","codiceProvincia":"CN","lat":"44.1089","lng":"8.0028","id":"494"},{"regione":"Piemonte","nomeComune":"Argentera","Provincia":"CUNEO","codiceProvincia":"CN","lat":"44.8898","lng":"6.9341","id":"495"},{"regione":"Piemonte","nomeComune":"Arguello","Provincia":"CUNEO","codiceProvincia":"CN","lat":"44.5831","lng":"8.1086","id":"496"},{"regione":"Piemonte","nomeComune":"Bagnasco","Provincia":"CUNEO","codiceProvincia":"CN","lat":"44.3073","lng":"8.0463","id":"497"},{"regione":"Piemonte","nomeComune":"Bagnolo Piemonte","Provincia":"CUNEO","codiceProvincia":"CN","lat":"44.7616","lng":"7.315","id":"498"},{"regione":"Piemonte","nomeComune":"Baldissero d'Alba","Provincia":"CUNEO","codiceProvincia":"CN","lat":"44.7639","lng":"7.9086","id":"499"},{"regione":"Piemonte","nomeComune":"Barbaresco","Provincia":"CUNEO","codiceProvincia":"CN","lat":"44.725","lng":"8.0809","id":"500"},{"regione":"Piemonte","nomeComune":"Barge","Provincia":"CUNEO","codiceProvincia":"CN","lat":"44.7253","lng":"7.3242","id":"501"},{"regione":"Piemonte","nomeComune":"Barolo","Provincia":"CUNEO","codiceProvincia":"CN","lat":"44.6104","lng":"7.9426","id":"502"},{"regione":"Piemonte","nomeComune":"Bastia Mondovì","Provincia":"CUNEO","codiceProvincia":"CN","lat":"44.443","lng":"7.8956","id":"503"},{"regione":"Piemonte","nomeComune":"Battifollo","Provincia":"CUNEO","codiceProvincia":"CN","lat":"44.3215","lng":"8.0071","id":"504"},{"regione":"Piemonte","nomeComune":"Beinette","Provincia":"CUNEO","codiceProvincia":"CN","lat":"44.366","lng":"7.6478","id":"505"},{"regione":"Piemonte","nomeComune":"Bellino","Provincia":"CUNEO","codiceProvincia":"CN","lat":"44.5805","lng":"7.0172","id":"506"},{"regione":"Piemonte","nomeComune":"Belvedere Langhe","Provincia":"CUNEO","codiceProvincia":"CN","lat":"44.4946","lng":"7.9721","id":"507"},{"regione":"Piemonte","nomeComune":"Bene Vagienna","Provincia":"CUNEO","codiceProvincia":"CN","lat":"44.5444","lng":"7.8296","id":"508"},{"regione":"Piemonte","nomeComune":"Benevello","Provincia":"CUNEO","codiceProvincia":"CN","lat":"44.631","lng":"8.1053","id":"509"},{"regione":"Piemonte","nomeComune":"Bergolo","Provincia":"CUNEO","codiceProvincia":"CN","lat":"44.5488","lng":"8.1843","id":"510"},{"regione":"Piemonte","nomeComune":"Bernezzo","Provincia":"CUNEO","codiceProvincia":"CN","lat":"44.3863","lng":"7.4366","id":"511"},{"regione":"Piemonte","nomeComune":"Bonvicino","Provincia":"CUNEO","codiceProvincia":"CN","lat":"44.5047","lng":"8.0171","id":"512"},{"regione":"Piemonte","nomeComune":"Borgomale","Provincia":"CUNEO","codiceProvincia":"CN","lat":"44.6215","lng":"8.1324","id":"513"},{"regione":"Piemonte","nomeComune":"Borgo San Dalmazzo","Provincia":"CUNEO","codiceProvincia":"CN","lat":"44.3296","lng":"7.4885","id":"514"},{"regione":"Piemonte","nomeComune":"Bosia","Provincia":"CUNEO","codiceProvincia":"CN","lat":"44.6025","lng":"8.1479","id":"515"},{"regione":"Piemonte","nomeComune":"Bossolasco","Provincia":"CUNEO","codiceProvincia":"CN","lat":"44.5292","lng":"8.0521","id":"516"},{"regione":"Piemonte","nomeComune":"Boves","Provincia":"CUNEO","codiceProvincia":"CN","lat":"44.3292","lng":"7.5518","id":"517"},{"regione":"Piemonte","nomeComune":"Bra","Provincia":"CUNEO","codiceProvincia":"CN","lat":"44.6978","lng":"7.8545","id":"518"},{"regione":"Piemonte","nomeComune":"Briaglia","Provincia":"CUNEO","codiceProvincia":"CN","lat":"44.3951","lng":"7.8769","id":"519"},{"regione":"Piemonte","nomeComune":"Briga Alta","Provincia":"CUNEO","codiceProvincia":"CN","lat":"44.0834","lng":"7.7495","id":"520"},{"regione":"Piemonte","nomeComune":"Brondello","Provincia":"CUNEO","codiceProvincia":"CN","lat":"44.6017","lng":"7.407","id":"521"},{"regione":"Piemonte","nomeComune":"Brossasco","Provincia":"CUNEO","codiceProvincia":"CN","lat":"44.5697","lng":"7.3628","id":"522"},{"regione":"Piemonte","nomeComune":"Busca","Provincia":"CUNEO","codiceProvincia":"CN","lat":"45.1347","lng":"9.2169","id":"523"},{"regione":"Piemonte","nomeComune":"Camerana","Provincia":"CUNEO","codiceProvincia":"CN","lat":"44.4228","lng":"8.1406","id":"524"},{"regione":"Piemonte","nomeComune":"Camo","Provincia":"CUNEO","codiceProvincia":"CN","lat":"44.6954","lng":"8.1949","id":"525"},{"regione":"Piemonte","nomeComune":"Canale","Provincia":"CUNEO","codiceProvincia":"CN","lat":"42.6888","lng":"12.1338","id":"526"},{"regione":"Piemonte","nomeComune":"Canosio","Provincia":"CUNEO","codiceProvincia":"CN","lat":"44.4556","lng":"7.0824","id":"527"},{"regione":"Piemonte","nomeComune":"Caprauna","Provincia":"CUNEO","codiceProvincia":"CN","lat":"44.117","lng":"7.9559","id":"528"},{"regione":"Piemonte","nomeComune":"Caraglio","Provincia":"CUNEO","codiceProvincia":"CN","lat":"44.4205","lng":"7.4341","id":"529"},{"regione":"Piemonte","nomeComune":"Caramagna Piemonte","Provincia":"CUNEO","codiceProvincia":"CN","lat":"44.7803","lng":"7.739","id":"530"},{"regione":"Piemonte","nomeComune":"Cardè","Provincia":"CUNEO","codiceProvincia":"CN","lat":"44.7455","lng":"7.4788","id":"531"},{"regione":"Piemonte","nomeComune":"Carrù","Provincia":"CUNEO","codiceProvincia":"CN","lat":"44.4796","lng":"7.8771","id":"532"},{"regione":"Piemonte","nomeComune":"Cartignano","Provincia":"CUNEO","codiceProvincia":"CN","lat":"44.4789","lng":"7.2861","id":"533"},{"regione":"Piemonte","nomeComune":"Casalgrasso","Provincia":"CUNEO","codiceProvincia":"CN","lat":"44.8183","lng":"7.626","id":"534"},{"regione":"Piemonte","nomeComune":"Castagnito","Provincia":"CUNEO","codiceProvincia":"CN","lat":"44.7564","lng":"8.0325","id":"535"},{"regione":"Piemonte","nomeComune":"Casteldelfino","Provincia":"CUNEO","codiceProvincia":"CN","lat":"44.5906","lng":"7.0709","id":"536"},{"regione":"Piemonte","nomeComune":"Castellar","Provincia":"CUNEO","codiceProvincia":"CN","lat":"44.6217","lng":"7.4373","id":"537"},{"regione":"Piemonte","nomeComune":"Castelletto Stura","Provincia":"CUNEO","codiceProvincia":"CN","lat":"44.4448","lng":"7.6403","id":"538"},{"regione":"Piemonte","nomeComune":"Castelletto Uzzone","Provincia":"CUNEO","codiceProvincia":"CN","lat":"44.499","lng":"8.1879","id":"539"},{"regione":"Piemonte","nomeComune":"Castellinaldo d'Alba","Provincia":"CUNEO","codiceProvincia":"CN","lat":"null","lng":"null","id":"540"},{"regione":"Piemonte","nomeComune":"Castellino Tanaro","Provincia":"CUNEO","codiceProvincia":"CN","lat":"44.4281","lng":"7.9813","id":"541"},{"regione":"Piemonte","nomeComune":"Castelmagno","Provincia":"CUNEO","codiceProvincia":"CN","lat":"44.4088","lng":"7.2122","id":"542"},{"regione":"Piemonte","nomeComune":"Castelnuovo di Ceva","Provincia":"CUNEO","codiceProvincia":"CN","lat":"44.3541","lng":"8.1293","id":"543"},{"regione":"Piemonte","nomeComune":"Castiglione Falletto","Provincia":"CUNEO","codiceProvincia":"CN","lat":"44.6236","lng":"7.9764","id":"544"},{"regione":"Piemonte","nomeComune":"Castiglione Tinella","Provincia":"CUNEO","codiceProvincia":"CN","lat":"44.7264","lng":"8.1913","id":"545"},{"regione":"Piemonte","nomeComune":"Castino","Provincia":"CUNEO","codiceProvincia":"CN","lat":"44.6189","lng":"8.1836","id":"546"},{"regione":"Piemonte","nomeComune":"Cavallerleone","Provincia":"CUNEO","codiceProvincia":"CN","lat":"44.7413","lng":"7.665","id":"547"},{"regione":"Piemonte","nomeComune":"Cavallermaggiore","Provincia":"CUNEO","codiceProvincia":"CN","lat":"44.711","lng":"7.6875","id":"548"},{"regione":"Piemonte","nomeComune":"Celle di Macra","Provincia":"CUNEO","codiceProvincia":"CN","lat":"44.4828","lng":"7.1806","id":"549"},{"regione":"Piemonte","nomeComune":"Centallo","Provincia":"CUNEO","codiceProvincia":"CN","lat":"44.5036","lng":"7.5864","id":"550"},{"regione":"Piemonte","nomeComune":"Ceresole Alba","Provincia":"CUNEO","codiceProvincia":"CN","lat":"44.8008","lng":"7.8236","id":"551"},{"regione":"Piemonte","nomeComune":"Cerretto Langhe","Provincia":"CUNEO","codiceProvincia":"CN","lat":"44.5755","lng":"8.0986","id":"552"},{"regione":"Piemonte","nomeComune":"Cervasca","Provincia":"CUNEO","codiceProvincia":"CN","lat":"44.382","lng":"7.4724","id":"553"},{"regione":"Piemonte","nomeComune":"Cervere","Provincia":"CUNEO","codiceProvincia":"CN","lat":"44.6364","lng":"7.7931","id":"554"},{"regione":"Piemonte","nomeComune":"Ceva","Provincia":"CUNEO","codiceProvincia":"CN","lat":"44.3874","lng":"8.035","id":"555"},{"regione":"Piemonte","nomeComune":"Cherasco","Provincia":"CUNEO","codiceProvincia":"CN","lat":"44.6516","lng":"7.8583","id":"556"},{"regione":"Piemonte","nomeComune":"Chiusa di Pesio","Provincia":"CUNEO","codiceProvincia":"CN","lat":"44.3235","lng":"7.677","id":"557"},{"regione":"Piemonte","nomeComune":"Cigliè","Provincia":"CUNEO","codiceProvincia":"CN","lat":"44.4375","lng":"7.9277","id":"558"},{"regione":"Piemonte","nomeComune":"Cissone","Provincia":"CUNEO","codiceProvincia":"CN","lat":"44.5625","lng":"8.0308","id":"559"},{"regione":"Piemonte","nomeComune":"Clavesana","Provincia":"CUNEO","codiceProvincia":"CN","lat":"44.4834","lng":"7.9018","id":"560"},{"regione":"Piemonte","nomeComune":"Corneliano d'Alba","Provincia":"CUNEO","codiceProvincia":"CN","lat":"44.7372","lng":"7.9585","id":"561"},{"regione":"Piemonte","nomeComune":"Cortemilia","Provincia":"CUNEO","codiceProvincia":"CN","lat":"44.5798","lng":"8.1913","id":"562"},{"regione":"Piemonte","nomeComune":"Cossano Belbo","Provincia":"CUNEO","codiceProvincia":"CN","lat":"44.6698","lng":"8.1993","id":"563"},{"regione":"Piemonte","nomeComune":"Costigliole Saluzzo","Provincia":"CUNEO","codiceProvincia":"CN","lat":"44.5656","lng":"7.4866","id":"564"},{"regione":"Piemonte","nomeComune":"Cravanzana","Provincia":"CUNEO","codiceProvincia":"CN","lat":"44.5736","lng":"8.1284","id":"565"},{"regione":"Piemonte","nomeComune":"Crissolo","Provincia":"CUNEO","codiceProvincia":"CN","lat":"44.6986","lng":"7.1587","id":"566"},{"regione":"Piemonte","nomeComune":"Cuneo","Provincia":"CUNEO","codiceProvincia":"CN","lat":"44.3888","lng":"7.5471","id":"567"},{"regione":"Piemonte","nomeComune":"Demonte","Provincia":"CUNEO","codiceProvincia":"CN","lat":"44.3151","lng":"7.2954","id":"568"},{"regione":"Piemonte","nomeComune":"Diano d'Alba","Provincia":"CUNEO","codiceProvincia":"CN","lat":"44.6511","lng":"8.0284","id":"569"},{"regione":"Piemonte","nomeComune":"Dogliani","Provincia":"CUNEO","codiceProvincia":"CN","lat":"44.5306","lng":"7.9459","id":"570"},{"regione":"Piemonte","nomeComune":"Dronero","Provincia":"CUNEO","codiceProvincia":"CN","lat":"44.4667","lng":"7.3525","id":"571"},{"regione":"Piemonte","nomeComune":"Elva","Provincia":"CUNEO","codiceProvincia":"CN","lat":"44.5399","lng":"7.0898","id":"572"},{"regione":"Piemonte","nomeComune":"Entracque","Provincia":"CUNEO","codiceProvincia":"CN","lat":"44.2406","lng":"7.3976","id":"573"},{"regione":"Piemonte","nomeComune":"Envie","Provincia":"CUNEO","codiceProvincia":"CN","lat":"44.6833","lng":"7.3724","id":"574"},{"regione":"Piemonte","nomeComune":"Farigliano","Provincia":"CUNEO","codiceProvincia":"CN","lat":"44.5112","lng":"7.9162","id":"575"},{"regione":"Piemonte","nomeComune":"Faule","Provincia":"CUNEO","codiceProvincia":"CN","lat":"44.807","lng":"7.5823","id":"576"},{"regione":"Piemonte","nomeComune":"Feisoglio","Provincia":"CUNEO","codiceProvincia":"CN","lat":"44.5449","lng":"8.1061","id":"577"},{"regione":"Piemonte","nomeComune":"Fossano","Provincia":"CUNEO","codiceProvincia":"CN","lat":"44.55","lng":"7.7238","id":"578"},{"regione":"Piemonte","nomeComune":"Frabosa Soprana","Provincia":"CUNEO","codiceProvincia":"CN","lat":"44.2887","lng":"7.8062","id":"579"},{"regione":"Piemonte","nomeComune":"Frabosa Sottana","Provincia":"CUNEO","codiceProvincia":"CN","lat":"44.3019","lng":"7.7979","id":"580"},{"regione":"Piemonte","nomeComune":"Frassino","Provincia":"CUNEO","codiceProvincia":"CN","lat":"44.5727","lng":"7.2772","id":"581"},{"regione":"Piemonte","nomeComune":"Gaiola","Provincia":"CUNEO","codiceProvincia":"CN","lat":"44.3362","lng":"7.4081","id":"582"},{"regione":"Piemonte","nomeComune":"Gambasca","Provincia":"CUNEO","codiceProvincia":"CN","lat":"44.6299","lng":"7.3484","id":"583"},{"regione":"Piemonte","nomeComune":"Garessio","Provincia":"CUNEO","codiceProvincia":"CN","lat":"44.2062","lng":"8.0153","id":"584"},{"regione":"Piemonte","nomeComune":"Genola","Provincia":"CUNEO","codiceProvincia":"CN","lat":"44.5896","lng":"7.6654","id":"585"},{"regione":"Piemonte","nomeComune":"Gorzegno","Provincia":"CUNEO","codiceProvincia":"CN","lat":"44.5124","lng":"8.1346","id":"586"},{"regione":"Piemonte","nomeComune":"Gottasecca","Provincia":"CUNEO","codiceProvincia":"CN","lat":"44.4614","lng":"8.1684","id":"587"},{"regione":"Piemonte","nomeComune":"Govone","Provincia":"CUNEO","codiceProvincia":"CN","lat":"44.8051","lng":"8.0951","id":"588"},{"regione":"Piemonte","nomeComune":"Grinzane Cavour","Provincia":"CUNEO","codiceProvincia":"CN","lat":"44.6566","lng":"7.9817","id":"589"},{"regione":"Piemonte","nomeComune":"Guarene","Provincia":"CUNEO","codiceProvincia":"CN","lat":"44.7407","lng":"8.0341","id":"590"},{"regione":"Piemonte","nomeComune":"Igliano","Provincia":"CUNEO","codiceProvincia":"CN","lat":"44.4438","lng":"8.0137","id":"591"},{"regione":"Piemonte","nomeComune":"Isasca","Provincia":"CUNEO","codiceProvincia":"CN","lat":"44.5874","lng":"7.3809","id":"592"},{"regione":"Piemonte","nomeComune":"Lagnasco","Provincia":"CUNEO","codiceProvincia":"CN","lat":"44.6261","lng":"7.5559","id":"593"},{"regione":"Piemonte","nomeComune":"La Morra","Provincia":"CUNEO","codiceProvincia":"CN","lat":"44.6396","lng":"7.9338","id":"594"},{"regione":"Piemonte","nomeComune":"Lequio Berria","Provincia":"CUNEO","codiceProvincia":"CN","lat":"44.6075","lng":"8.0981","id":"595"},{"regione":"Piemonte","nomeComune":"Lequio Tanaro","Provincia":"CUNEO","codiceProvincia":"CN","lat":"44.5601","lng":"7.8847","id":"596"},{"regione":"Piemonte","nomeComune":"Lesegno","Provincia":"CUNEO","codiceProvincia":"CN","lat":"44.4017","lng":"7.9656","id":"597"},{"regione":"Piemonte","nomeComune":"Levice","Provincia":"CUNEO","codiceProvincia":"CN","lat":"44.5388","lng":"8.1562","id":"598"},{"regione":"Piemonte","nomeComune":"Limone Piemonte","Provincia":"CUNEO","codiceProvincia":"CN","lat":"44.2014","lng":"7.5762","id":"599"},{"regione":"Piemonte","nomeComune":"Lisio","Provincia":"CUNEO","codiceProvincia":"CN","lat":"44.3078","lng":"7.9785","id":"600"},{"regione":"Piemonte","nomeComune":"Macra","Provincia":"CUNEO","codiceProvincia":"CN","lat":"44.5013","lng":"7.1806","id":"601"},{"regione":"Piemonte","nomeComune":"Magliano Alfieri","Provincia":"CUNEO","codiceProvincia":"CN","lat":"44.7703","lng":"8.0713","id":"602"},{"regione":"Piemonte","nomeComune":"Magliano Alpi","Provincia":"CUNEO","codiceProvincia":"CN","lat":"44.4606","lng":"7.8064","id":"603"},{"regione":"Piemonte","nomeComune":"Mango","Provincia":"CUNEO","codiceProvincia":"CN","lat":"44.6867","lng":"8.1518","id":"604"},{"regione":"Piemonte","nomeComune":"Manta","Provincia":"CUNEO","codiceProvincia":"CN","lat":"44.6169","lng":"7.4881","id":"605"},{"regione":"Piemonte","nomeComune":"Marene","Provincia":"CUNEO","codiceProvincia":"CN","lat":"44.6627","lng":"7.7335","id":"606"},{"regione":"Piemonte","nomeComune":"Margarita","Provincia":"CUNEO","codiceProvincia":"CN","lat":"44.4046","lng":"7.6861","id":"607"},{"regione":"Piemonte","nomeComune":"Marmora","Provincia":"CUNEO","codiceProvincia":"CN","lat":"44.4581","lng":"7.0935","id":"608"},{"regione":"Piemonte","nomeComune":"Marsaglia","Provincia":"CUNEO","codiceProvincia":"CN","lat":"44.7128","lng":"9.3831","id":"609"},{"regione":"Piemonte","nomeComune":"Martiniana Po","Provincia":"CUNEO","codiceProvincia":"CN","lat":"44.6274","lng":"7.3673","id":"610"},{"regione":"Piemonte","nomeComune":"Melle","Provincia":"CUNEO","codiceProvincia":"CN","lat":"44.5627","lng":"7.3214","id":"611"},{"regione":"Piemonte","nomeComune":"Moiola","Provincia":"CUNEO","codiceProvincia":"CN","lat":"44.3225","lng":"7.3902","id":"612"},{"regione":"Piemonte","nomeComune":"Mombarcaro","Provincia":"CUNEO","codiceProvincia":"CN","lat":"44.4682","lng":"8.0867","id":"613"},{"regione":"Piemonte","nomeComune":"Mombasiglio","Provincia":"CUNEO","codiceProvincia":"CN","lat":"44.3677","lng":"7.9691","id":"614"},{"regione":"Piemonte","nomeComune":"Monastero di Vasco","Provincia":"CUNEO","codiceProvincia":"CN","lat":"44.3408","lng":"7.8228","id":"615"},{"regione":"Piemonte","nomeComune":"Monasterolo Casotto","Provincia":"CUNEO","codiceProvincia":"CN","lat":"44.3255","lng":"7.9455","id":"616"},{"regione":"Piemonte","nomeComune":"Monasterolo di Savigliano","Provincia":"CUNEO","codiceProvincia":"CN","lat":"44.6874","lng":"7.6206","id":"617"},{"regione":"Piemonte","nomeComune":"Monchiero","Provincia":"CUNEO","codiceProvincia":"CN","lat":"44.5729","lng":"7.9171","id":"618"},{"regione":"Piemonte","nomeComune":"Mondovì","Provincia":"CUNEO","codiceProvincia":"CN","lat":"44.3896","lng":"7.8206","id":"619"},{"regione":"Piemonte","nomeComune":"Monesiglio","Provincia":"CUNEO","codiceProvincia":"CN","lat":"44.4657","lng":"8.1189","id":"620"},{"regione":"Piemonte","nomeComune":"Monforte d'Alba","Provincia":"CUNEO","codiceProvincia":"CN","lat":"44.5831","lng":"7.9678","id":"621"},{"regione":"Piemonte","nomeComune":"Montà","Provincia":"CUNEO","codiceProvincia":"CN","lat":"44.8147","lng":"7.9585","id":"622"},{"regione":"Piemonte","nomeComune":"Montaldo di Mondovì","Provincia":"CUNEO","codiceProvincia":"CN","lat":"44.3195","lng":"7.8653","id":"623"},{"regione":"Piemonte","nomeComune":"Montaldo Roero","Provincia":"CUNEO","codiceProvincia":"CN","lat":"44.7694","lng":"7.9259","id":"624"},{"regione":"Piemonte","nomeComune":"Montanera","Provincia":"CUNEO","codiceProvincia":"CN","lat":"44.4633","lng":"7.6667","id":"625"},{"regione":"Piemonte","nomeComune":"Montelupo Albese","Provincia":"CUNEO","codiceProvincia":"CN","lat":"44.622","lng":"8.0479","id":"626"},{"regione":"Piemonte","nomeComune":"Montemale di Cuneo","Provincia":"CUNEO","codiceProvincia":"CN","lat":"44.4373","lng":"7.3749","id":"627"},{"regione":"Piemonte","nomeComune":"Monterosso Grana","Provincia":"CUNEO","codiceProvincia":"CN","lat":"44.4092","lng":"7.3241","id":"628"},{"regione":"Piemonte","nomeComune":"Monteu Roero","Provincia":"CUNEO","codiceProvincia":"CN","lat":"44.7803","lng":"7.9375","id":"629"},{"regione":"Piemonte","nomeComune":"Montezemolo","Provincia":"CUNEO","codiceProvincia":"CN","lat":"44.3781","lng":"8.1414","id":"630"},{"regione":"Piemonte","nomeComune":"Monticello d'Alba","Provincia":"CUNEO","codiceProvincia":"CN","lat":"44.719","lng":"7.9437","id":"631"},{"regione":"Piemonte","nomeComune":"Moretta","Provincia":"CUNEO","codiceProvincia":"CN","lat":"44.7648","lng":"7.5383","id":"632"},{"regione":"Piemonte","nomeComune":"Morozzo","Provincia":"CUNEO","codiceProvincia":"CN","lat":"44.4231","lng":"7.7101","id":"633"},{"regione":"Piemonte","nomeComune":"Murazzano","Provincia":"CUNEO","codiceProvincia":"CN","lat":"44.474","lng":"8.0205","id":"634"},{"regione":"Piemonte","nomeComune":"Murello","Provincia":"CUNEO","codiceProvincia":"CN","lat":"44.7531","lng":"7.602","id":"635"},{"regione":"Piemonte","nomeComune":"Narzole","Provincia":"CUNEO","codiceProvincia":"CN","lat":"44.5964","lng":"7.8709","id":"636"},{"regione":"Piemonte","nomeComune":"Neive","Provincia":"CUNEO","codiceProvincia":"CN","lat":"44.7264","lng":"8.1158","id":"637"},{"regione":"Piemonte","nomeComune":"Neviglie","Provincia":"CUNEO","codiceProvincia":"CN","lat":"44.6922","lng":"8.118","id":"638"},{"regione":"Piemonte","nomeComune":"Niella Belbo","Provincia":"CUNEO","codiceProvincia":"CN","lat":"44.5138","lng":"8.0805","id":"639"},{"regione":"Piemonte","nomeComune":"Niella Tanaro","Provincia":"CUNEO","codiceProvincia":"CN","lat":"44.4138","lng":"7.9235","id":"640"},{"regione":"Piemonte","nomeComune":"Novello","Provincia":"CUNEO","codiceProvincia":"CN","lat":"44.5888","lng":"7.9275","id":"641"},{"regione":"Piemonte","nomeComune":"Nucetto","Provincia":"CUNEO","codiceProvincia":"CN","lat":"44.3419","lng":"8.061","id":"642"},{"regione":"Piemonte","nomeComune":"Oncino","Provincia":"CUNEO","codiceProvincia":"CN","lat":"44.6762","lng":"7.1905","id":"643"},{"regione":"Piemonte","nomeComune":"Ormea","Provincia":"CUNEO","codiceProvincia":"CN","lat":"44.1485","lng":"7.9136","id":"644"},{"regione":"Piemonte","nomeComune":"Ostana","Provincia":"CUNEO","codiceProvincia":"CN","lat":"44.6931","lng":"7.1868","id":"645"},{"regione":"Piemonte","nomeComune":"Paesana","Provincia":"CUNEO","codiceProvincia":"CN","lat":"44.6863","lng":"7.2759","id":"646"},{"regione":"Piemonte","nomeComune":"Pagno","Provincia":"CUNEO","codiceProvincia":"CN","lat":"44.6128","lng":"7.4269","id":"647"},{"regione":"Piemonte","nomeComune":"Pamparato","Provincia":"CUNEO","codiceProvincia":"CN","lat":"44.2777","lng":"7.9136","id":"648"},{"regione":"Piemonte","nomeComune":"Paroldo","Provincia":"CUNEO","codiceProvincia":"CN","lat":"44.4331","lng":"8.0736","id":"649"},{"regione":"Piemonte","nomeComune":"Perletto","Provincia":"CUNEO","codiceProvincia":"CN","lat":"44.6003","lng":"8.2142","id":"650"},{"regione":"Piemonte","nomeComune":"Perlo","Provincia":"CUNEO","codiceProvincia":"CN","lat":"44.3328","lng":"8.0836","id":"651"},{"regione":"Piemonte","nomeComune":"Peveragno","Provincia":"CUNEO","codiceProvincia":"CN","lat":"44.3325","lng":"7.6209","id":"652"},{"regione":"Piemonte","nomeComune":"Pezzolo Valle Uzzone","Provincia":"CUNEO","codiceProvincia":"CN","lat":"44.5398","lng":"8.1948","id":"653"},{"regione":"Piemonte","nomeComune":"Pianfei","Provincia":"CUNEO","codiceProvincia":"CN","lat":"44.3731","lng":"7.7125","id":"654"},{"regione":"Piemonte","nomeComune":"Piasco","Provincia":"CUNEO","codiceProvincia":"CN","lat":"44.5641","lng":"7.455","id":"655"},{"regione":"Piemonte","nomeComune":"Pietraporzio","Provincia":"CUNEO","codiceProvincia":"CN","lat":"44.3445","lng":"7.0318","id":"656"},{"regione":"Piemonte","nomeComune":"Piobesi d'Alba","Provincia":"CUNEO","codiceProvincia":"CN","lat":"44.7363","lng":"7.9808","id":"657"},{"regione":"Piemonte","nomeComune":"Piozzo","Provincia":"CUNEO","codiceProvincia":"CN","lat":"44.5148","lng":"7.8938","id":"658"},{"regione":"Piemonte","nomeComune":"Pocapaglia","Provincia":"CUNEO","codiceProvincia":"CN","lat":"44.7162","lng":"7.8841","id":"659"},{"regione":"Piemonte","nomeComune":"Polonghera","Provincia":"CUNEO","codiceProvincia":"CN","lat":"44.8035","lng":"7.5969","id":"660"},{"regione":"Piemonte","nomeComune":"Pontechianale","Provincia":"CUNEO","codiceProvincia":"CN","lat":"44.647","lng":"6.9989","id":"661"},{"regione":"Piemonte","nomeComune":"Pradleves","Provincia":"CUNEO","codiceProvincia":"CN","lat":"44.4188","lng":"7.2814","id":"662"},{"regione":"Piemonte","nomeComune":"Prazzo","Provincia":"CUNEO","codiceProvincia":"CN","lat":"44.4832","lng":"7.056","id":"663"},{"regione":"Piemonte","nomeComune":"Priero","Provincia":"CUNEO","codiceProvincia":"CN","lat":"44.3754","lng":"8.0958","id":"664"},{"regione":"Piemonte","nomeComune":"Priocca","Provincia":"CUNEO","codiceProvincia":"CN","lat":"44.7874","lng":"8.0653","id":"665"},{"regione":"Piemonte","nomeComune":"Priola","Provincia":"CUNEO","codiceProvincia":"CN","lat":"44.2447","lng":"8.0224","id":"666"},{"regione":"Piemonte","nomeComune":"Prunetto","Provincia":"CUNEO","codiceProvincia":"CN","lat":"44.4912","lng":"8.1449","id":"667"},{"regione":"Piemonte","nomeComune":"Racconigi","Provincia":"CUNEO","codiceProvincia":"CN","lat":"44.7711","lng":"7.6841","id":"668"},{"regione":"Piemonte","nomeComune":"Revello","Provincia":"CUNEO","codiceProvincia":"CN","lat":"44.6556","lng":"7.3927","id":"669"},{"regione":"Piemonte","nomeComune":"Rifreddo","Provincia":"CUNEO","codiceProvincia":"CN","lat":"40.5738","lng":"15.8267","id":"670"},{"regione":"Piemonte","nomeComune":"Rittana","Provincia":"CUNEO","codiceProvincia":"CN","lat":"44.3512","lng":"7.3985","id":"671"},{"regione":"Piemonte","nomeComune":"Roaschia","Provincia":"CUNEO","codiceProvincia":"CN","lat":"44.2702","lng":"7.4543","id":"672"},{"regione":"Piemonte","nomeComune":"Roascio","Provincia":"CUNEO","codiceProvincia":"CN","lat":"44.4153","lng":"8.0295","id":"673"},{"regione":"Piemonte","nomeComune":"Robilante","Provincia":"CUNEO","codiceProvincia":"CN","lat":"44.2945","lng":"7.5113","id":"674"},{"regione":"Piemonte","nomeComune":"Roburent","Provincia":"CUNEO","codiceProvincia":"CN","lat":"44.3078","lng":"7.8923","id":"675"},{"regione":"Piemonte","nomeComune":"Roccabruna","Provincia":"CUNEO","codiceProvincia":"CN","lat":"44.4806","lng":"7.3363","id":"676"},{"regione":"Piemonte","nomeComune":"Rocca Cigliè","Provincia":"CUNEO","codiceProvincia":"CN","lat":"44.4467","lng":"7.9508","id":"677"},{"regione":"Piemonte","nomeComune":"Rocca de' Baldi","Provincia":"CUNEO","codiceProvincia":"CN","lat":"44.4243","lng":"7.7619","id":"678"},{"regione":"Piemonte","nomeComune":"Roccaforte Mondovì","Provincia":"CUNEO","codiceProvincia":"CN","lat":"44.3189","lng":"7.746","id":"679"},{"regione":"Piemonte","nomeComune":"Roccasparvera","Provincia":"CUNEO","codiceProvincia":"CN","lat":"44.3414","lng":"7.4414","id":"680"},{"regione":"Piemonte","nomeComune":"Roccavione","Provincia":"CUNEO","codiceProvincia":"CN","lat":"44.3156","lng":"7.4836","id":"681"},{"regione":"Piemonte","nomeComune":"Rocchetta Belbo","Provincia":"CUNEO","codiceProvincia":"CN","lat":"44.637","lng":"8.1764","id":"682"},{"regione":"Piemonte","nomeComune":"Roddi","Provincia":"CUNEO","codiceProvincia":"CN","lat":"44.6806","lng":"7.9766","id":"683"},{"regione":"Piemonte","nomeComune":"Roddino","Provincia":"CUNEO","codiceProvincia":"CN","lat":"44.5739","lng":"8.0191","id":"684"},{"regione":"Piemonte","nomeComune":"Rodello","Provincia":"CUNEO","codiceProvincia":"CN","lat":"44.6295","lng":"8.058","id":"685"},{"regione":"Piemonte","nomeComune":"Rossana","Provincia":"CUNEO","codiceProvincia":"CN","lat":"44.5441","lng":"7.4324","id":"686"},{"regione":"Piemonte","nomeComune":"Ruffia","Provincia":"CUNEO","codiceProvincia":"CN","lat":"44.7077","lng":"7.6052","id":"687"},{"regione":"Piemonte","nomeComune":"Sale delle Langhe","Provincia":"CUNEO","codiceProvincia":"CN","lat":"44.3962","lng":"8.0813","id":"688"},{"regione":"Piemonte","nomeComune":"Sale San Giovanni","Provincia":"CUNEO","codiceProvincia":"CN","lat":"44.4002","lng":"8.0791","id":"689"},{"regione":"Piemonte","nomeComune":"Saliceto","Provincia":"CUNEO","codiceProvincia":"CN","lat":"44.4144","lng":"8.1699","id":"690"},{"regione":"Piemonte","nomeComune":"Salmour","Provincia":"CUNEO","codiceProvincia":"CN","lat":"44.5786","lng":"7.7932","id":"691"},{"regione":"Piemonte","nomeComune":"Saluzzo","Provincia":"CUNEO","codiceProvincia":"CN","lat":"44.6446","lng":"7.4926","id":"692"},{"regione":"Piemonte","nomeComune":"Sambuco","Provincia":"CUNEO","codiceProvincia":"CN","lat":"44.3371","lng":"7.079","id":"693"},{"regione":"Piemonte","nomeComune":"Sampeyre","Provincia":"CUNEO","codiceProvincia":"CN","lat":"44.5793","lng":"7.1878","id":"694"},{"regione":"Piemonte","nomeComune":"San Benedetto Belbo","Provincia":"CUNEO","codiceProvincia":"CN","lat":"44.4913","lng":"8.0589","id":"695"},{"regione":"Piemonte","nomeComune":"San Damiano Macra","Provincia":"CUNEO","codiceProvincia":"CN","lat":"44.4889","lng":"7.2576","id":"696"},{"regione":"Piemonte","nomeComune":"Sanfrè","Provincia":"CUNEO","codiceProvincia":"CN","lat":"44.7509","lng":"7.8038","id":"697"},{"regione":"Piemonte","nomeComune":"Sanfront","Provincia":"CUNEO","codiceProvincia":"CN","lat":"44.6481","lng":"7.3222","id":"698"},{"regione":"Piemonte","nomeComune":"San Michele Mondovì","Provincia":"CUNEO","codiceProvincia":"CN","lat":"44.3781","lng":"7.9122","id":"699"},{"regione":"Piemonte","nomeComune":"Sant'Albano Stura","Provincia":"CUNEO","codiceProvincia":"CN","lat":"44.51","lng":"7.7234","id":"700"},{"regione":"Piemonte","nomeComune":"Santa Vittoria d'Alba","Provincia":"CUNEO","codiceProvincia":"CN","lat":"44.6997","lng":"7.9384","id":"701"},{"regione":"Piemonte","nomeComune":"Santo Stefano Belbo","Provincia":"CUNEO","codiceProvincia":"CN","lat":"44.7085","lng":"8.2302","id":"702"},{"regione":"Piemonte","nomeComune":"Santo Stefano Roero","Provincia":"CUNEO","codiceProvincia":"CN","lat":"44.7891","lng":"7.9408","id":"703"},{"regione":"Piemonte","nomeComune":"Savigliano","Provincia":"CUNEO","codiceProvincia":"CN","lat":"44.648","lng":"7.6584","id":"704"},{"regione":"Piemonte","nomeComune":"Scagnello","Provincia":"CUNEO","codiceProvincia":"CN","lat":"44.3342","lng":"7.9847","id":"705"},{"regione":"Piemonte","nomeComune":"Scarnafigi","Provincia":"CUNEO","codiceProvincia":"CN","lat":"44.6799","lng":"7.567","id":"706"},{"regione":"Piemonte","nomeComune":"Serralunga d'Alba","Provincia":"CUNEO","codiceProvincia":"CN","lat":"44.6111","lng":"8.0006","id":"707"},{"regione":"Piemonte","nomeComune":"Serravalle Langhe","Provincia":"CUNEO","codiceProvincia":"CN","lat":"44.5601","lng":"8.0584","id":"708"},{"regione":"Piemonte","nomeComune":"Sinio","Provincia":"CUNEO","codiceProvincia":"CN","lat":"44.6012","lng":"8.0218","id":"709"},{"regione":"Piemonte","nomeComune":"Somano","Provincia":"CUNEO","codiceProvincia":"CN","lat":"44.5364","lng":"8.0089","id":"710"},{"regione":"Piemonte","nomeComune":"Sommariva del Bosco","Provincia":"CUNEO","codiceProvincia":"CN","lat":"44.7699","lng":"7.7864","id":"711"},{"regione":"Piemonte","nomeComune":"Sommariva Perno","Provincia":"CUNEO","codiceProvincia":"CN","lat":"44.7467","lng":"7.9017","id":"712"},{"regione":"Piemonte","nomeComune":"Stroppo","Provincia":"CUNEO","codiceProvincia":"CN","lat":"44.5058","lng":"7.1267","id":"713"},{"regione":"Piemonte","nomeComune":"Tarantasca","Provincia":"CUNEO","codiceProvincia":"CN","lat":"44.4945","lng":"7.5447","id":"714"},{"regione":"Piemonte","nomeComune":"Torre Bormida","Provincia":"CUNEO","codiceProvincia":"CN","lat":"44.5631","lng":"8.1569","id":"715"},{"regione":"Piemonte","nomeComune":"Torre Mondovì","Provincia":"CUNEO","codiceProvincia":"CN","lat":"44.3539","lng":"7.9008","id":"716"},{"regione":"Piemonte","nomeComune":"Torre San Giorgio","Provincia":"CUNEO","codiceProvincia":"CN","lat":"44.7367","lng":"7.5292","id":"717"},{"regione":"Piemonte","nomeComune":"Torresina","Provincia":"CUNEO","codiceProvincia":"CN","lat":"44.4347","lng":"8.0378","id":"718"},{"regione":"Piemonte","nomeComune":"Treiso","Provincia":"CUNEO","codiceProvincia":"CN","lat":"44.6894","lng":"8.0869","id":"719"},{"regione":"Piemonte","nomeComune":"Trezzo Tinella","Provincia":"CUNEO","codiceProvincia":"CN","lat":"44.6779","lng":"8.1076","id":"720"},{"regione":"Piemonte","nomeComune":"Trinità","Provincia":"CUNEO","codiceProvincia":"CN","lat":"40.3731","lng":"15.6102","id":"721"},{"regione":"Piemonte","nomeComune":"Valdieri","Provincia":"CUNEO","codiceProvincia":"CN","lat":"44.2788","lng":"7.3988","id":"722"},{"regione":"Piemonte","nomeComune":"Valgrana","Provincia":"CUNEO","codiceProvincia":"CN","lat":"44.4124","lng":"7.3813","id":"723"},{"regione":"Piemonte","nomeComune":"Valloriate","Provincia":"CUNEO","codiceProvincia":"CN","lat":"44.338","lng":"7.3721","id":"724"},{"regione":"Piemonte","nomeComune":"Valmala","Provincia":"CUNEO","codiceProvincia":"CN","lat":"44.5441","lng":"7.3464","id":"725"},{"regione":"Piemonte","nomeComune":"Venasca","Provincia":"CUNEO","codiceProvincia":"CN","lat":"44.565","lng":"7.405","id":"726"},{"regione":"Piemonte","nomeComune":"Verduno","Provincia":"CUNEO","codiceProvincia":"CN","lat":"44.6672","lng":"7.9319","id":"727"},{"regione":"Piemonte","nomeComune":"Vernante","Provincia":"CUNEO","codiceProvincia":"CN","lat":"44.245","lng":"7.5345","id":"728"},{"regione":"Piemonte","nomeComune":"Verzuolo","Provincia":"CUNEO","codiceProvincia":"CN","lat":"44.6012","lng":"7.4831","id":"729"},{"regione":"Piemonte","nomeComune":"Vezza d'Alba","Provincia":"CUNEO","codiceProvincia":"CN","lat":"44.7638","lng":"8.0091","id":"730"},{"regione":"Piemonte","nomeComune":"Vicoforte","Provincia":"CUNEO","codiceProvincia":"CN","lat":"44.3629","lng":"7.8636","id":"731"},{"regione":"Piemonte","nomeComune":"Vignolo","Provincia":"CUNEO","codiceProvincia":"CN","lat":"44.3633","lng":"7.4739","id":"732"},{"regione":"Piemonte","nomeComune":"Villafalletto","Provincia":"CUNEO","codiceProvincia":"CN","lat":"44.5449","lng":"7.5413","id":"733"},{"regione":"Piemonte","nomeComune":"Villanova Mondovì","Provincia":"CUNEO","codiceProvincia":"CN","lat":"44.348","lng":"7.7675","id":"734"},{"regione":"Piemonte","nomeComune":"Villanova Solaro","Provincia":"CUNEO","codiceProvincia":"CN","lat":"44.7309","lng":"7.5756","id":"735"},{"regione":"Piemonte","nomeComune":"Villar San Costanzo","Provincia":"CUNEO","codiceProvincia":"CN","lat":"44.4841","lng":"7.3811","id":"736"},{"regione":"Piemonte","nomeComune":"Vinadio","Provincia":"CUNEO","codiceProvincia":"CN","lat":"44.3066","lng":"7.1737","id":"737"},{"regione":"Piemonte","nomeComune":"Viola","Provincia":"CUNEO","codiceProvincia":"CN","lat":"44.2912","lng":"7.9652","id":"738"},{"regione":"Piemonte","nomeComune":"Vottignasco","Provincia":"CUNEO","codiceProvincia":"CN","lat":"44.5652","lng":"7.5803","id":"739"},{"regione":"Piemonte","nomeComune":"Agliano Terme","Provincia":"ASTI","codiceProvincia":"AT","lat":"44.7915","lng":"8.2497","id":"740"},{"regione":"Piemonte","nomeComune":"Albugnano","Provincia":"ASTI","codiceProvincia":"AT","lat":"45.078","lng":"7.9712","id":"741"},{"regione":"Piemonte","nomeComune":"Antignano","Provincia":"ASTI","codiceProvincia":"AT","lat":"44.8452","lng":"8.1355","id":"742"},